experiment_id,condition_order_index,condition_id,condition_phase,condition_phase_elapsed_ms,condition_elapsed_ms,is_stimulation_on,t_ms,R_q0,R_q1,R_q2,R_q3,R_heel1,R_mid1,R_fore1,R_heel2,R_fore3,R_mid2,R_fore4,R_fore2,R_cadence,R_speed,R_steps,R_zupt,R_gyroNorm,R_accH,R_gyro_x,R_gyro_y,R_gyro_z,R_acc_x,R_acc_y,R_acc_z,R_nav_ax,R_nav_ay,R_nav_az,R_stepVel,R_stepVelj,R_stepDispRaw,R_stepDispZUPT,R_gaitEvent,R_motorMode,R_motorActive,R_motorAlignment,R_motorRegionMask,R_motorAmplitude,R_motorIntervalMs,R_motorDurationMs,R_motorPhaseMs,R_motorCycleMs,R_roll,R_pitch,R_yaw
EX0521-092111,9,C05,prep,55,55,0,595759.093,0.685,-0.677,0.194,0.188,0,0,0,0,0,0,0,0,0,0.000,0,0,0.202,0.022,-0.140,0.140,-0.040,0.014,0.994,0.012,-0.002,0.022,-0.008,0.000,0.000,0.000,0.000,0,2,0,1,7,255,1200,300,0,0,-89.509,0.634,-31.320
EX0521-092111,9,C05,prep,55,55,0,595764.093,0.685,-0.677,0.194,0.188,0,0,0,0,0,0,0,0,0,0.000,0,0,0.118,0.008,-0.020,0.060,-0.100,0.015,0.995,0.011,0.008,-0.002,0.002,0.000,0.000,0.000,0.000,0,2,0,1,7,255,1200,300,0,0,-89.509,0.634,-31.320
EX0521-092111,9,C05,prep,55,55,0,595769.092,0.685,-0.677,0.194,0.188,0,0,0,0,0,0,0,0,0,0.000,0,0,0.045,0.004,-0.020,0.000,-0.040,0.014,0.995,0.010,0.004,-0.002,0.006,0.000,0.000,0.000,0.000,0,2,0,1,7,255,1200,300,0,0,-89.509,0.634,-31.320
EX0521-092111,9,C05,prep,55,55,0,595774.093,0.685,-0.677,0.194,0.188,0,0,0,0,0,0,0,0,0,0.000,0,0,0.108,0.018,0.100,0.000,-0.040,0.013,0.994,0.010,0.004,0.018,0.006,0.000,0.000,0.000,0.000,0,2,0,1,7,255,1200,300,0,0,-89.509,0.634,-31.320
EX0521-092111,9,C05,prep,56,56,0,595779.091,0.685,-0.677,0.194,0.188,0,0,0,0,0,0,0,0,0,0.000,0,0,0.185,0.018,0.100,-0.120,-0.100,0.016,0.991,0.012,0.004,0.018,-0.004,0.000,0.000,0.000,0.000,0,2,0,1,7,255,1200,300,0,0,-89.509,0.634,-31.320
EX0521-092111,9,C05,prep,56,56,0,595784.092,0.685,-0.677,0.194,0.188,0,0,0,0,0,0,0,0,0,0.000,0,0,0.185,0.008,-0.140,-0.120,0.020,0.015,0.992,0.011,0.008,-0.002,-0.022,0.000,0.000,0.000,0.000,0,2,0,1,7,255,1200,300,0,0,-89.509,0.634,-31.320
EX0521-092111,9,C05,prep,56,56,0,595789.092,0.685,-0.677,0.194,0.188,0,0,0,0,0,0,0,0,0,0.000,0,0,0.210,0.008,-0.200,-0.060,0.020,0.014,0.997,0.011,0.008,-0.002,-0.022,0.000,0.000,0.000,0.000,0,2,0,1,7,255,1200,300,0,0,-89.509,0.634,-31.320
EX0521-092111,9,C05,prep,56,56,0,595794.092,0.685,-0.677,0.194,0.188,0,0,0,0,0,0,0,0,0,0.000,0,0,0.340,0.013,0.300,0.000,-0.160,0.014,0.998,0.009,0.008,0.010,0.026,0.000,0.000,0.000,0.000,0,2,0,1,7,255,1200,300,0,0,-89.510,0.634,-31.320
EX0521-092111,9,C05,prep,57,57,0,595799.092,0.685,-0.677,0.194,0.188,0,0,0,0,0,0,0,0,0,0.000,0,0,0.260,0.016,0.240,0.000,-0.100,0.016,0.993,0.011,0.012,0.010,0.026,0.000,0.000,0.000,0.000,0,2,0,1,7,255,1200,300,0,0,-89.510,0.634,-31.320
EX0521-092111,9,C05,prep,57,57,0,595804.091,0.685,-0.677,0.194,0.188,0,0,0,0,0,0,0,0,0,0.000,0,0,0.629,0.012,-0.560,-0.060,0.280,0.016,0.987,0.013,0.012,0.000,-0.012,0.000,0.000,0.000,0.000,0,2,0,1,7,255,1200,300,0,0,-89.510,0.635,-31.320
EX0521-092111,9,C05,prep,57,57,0,595809.091,0.685,-0.677,0.194,0.188,0,0,0,0,0,0,0,0,0,0.000,0,0,0.120,0.008,-0.080,-0.040,-0.080,0.013,1.002,0.012,0.008,0.000,-0.012,0.000,0.000,0.000,0.000,0,2,0,1,7,255,1200,300,0,0,-89.510,0.635,-31.320
EX0521-092111,9,C05,prep,57,57,0,595814.092,0.685,-0.677,0.194,0.188,0,0,0,0,0,0,0,0,0,0.000,0,0,0.877,0.010,0.780,0.020,-0.400,0.015,0.991,0.010,0.008,0.006,-0.032,0.000,0.000,0.000,0.000,0,2,0,1,7,255,1200,300,0,0,-89.514,0.635,-31.320
EX0521-092111,9,C05,prep,79,79,0,595819.092,0.685,-0.677,0.194,0.188,0,0,0,0,0,0,0,0,0,0.000,0,0,0.992,0.010,-0.860,-0.180,0.460,0.015,0.986,0.011,0.008,0.006,-0.032,0.000,0.000,0.000,0.000,0,2,0,1,7,255,1200,300,0,0,-89.510,0.635,-31.320
EX0521-092111,9,C05,prep,79,79,0,595824.092,0.685,-0.677,0.194,0.188,0,0,0,0,0,0,0,0,0,0.000,0,0,0.369,0.010,0.240,0.020,-0.280,0.013,1.008,0.011,0.008,0.006,-0.032,0.000,0.000,0.000,0.000,0,2,0,1,7,255,1200,300,0,0,-89.510,0.635,-31.320
EX0521-092111,9,C05,prep,79,79,0,595829.092,0.685,-0.677,0.194,0.188,0,0,0,0,0,0,0,0,0,0.000,0,0,0.958,0.008,0.840,0.020,-0.460,0.017,0.980,0.011,0.008,-0.002,-0.074,0.000,0.000,0.000,0.000,0,2,0,1,7,255,1200,300,0,0,-89.514,0.636,-31.320
EX0521-092111,9,C05,prep,79,79,0,595834.092,0.685,-0.677,0.194,0.188,0,0,0,0,0,0,0,0,0,0.000,0,0,1.568,0.010,-1.420,-0.180,0.640,0.014,1.003,0.010,0.000,0.010,0.094,0.000,0.000,0.000,0.000,0,2,0,1,7,255,1200,300,0,0,-89.507,0.639,-31.320
EX0521-092111,9,C05,prep,79,79,0,595839.092,0.685,-0.677,0.194,0.188,0,0,0,0,0,0,0,0,0,0.000,0,0,2.134,0.011,1.880,0.140,-1.000,0.014,0.992,0.010,0.004,0.010,-0.022,0.000,0.000,0.000,0.000,0,2,0,1,7,255,1200,300,0,0,-89.517,0.634,-31.320
EX0521-092111,9,C05,prep,79,79,0,595844.091,0.685,-0.677,0.194,0.188,0,0,0,0,0,0,0,0,0,0.000,0,0,1.940,0.011,-1.720,-0.180,0.880,0.016,0.982,0.012,0.004,0.010,-0.022,0.000,0.000,0.000,0.000,0,2,0,1,7,255,1200,300,0,0,-89.508,0.638,-31.320
EX0521-092111,9,C05,prep,95,95,0,595849.091,0.685,-0.677,0.194,0.188,0,0,0,0,0,0,0,0,0,0.000,0,0,1.407,0.011,1.220,0.020,-0.700,0.013,1.009,0.009,0.004,0.010,-0.022,0.000,0.000,0.000,0.000,0,2,0,1,7,255,1200,300,0,0,-89.515,0.635,-31.320
EX0521-092111,9,C05,prep,95,95,0,595854.091,0.685,-0.677,0.194,0.188,0,0,0,0,0,0,0,0,0,0.000,0,0,0.224,0.015,-0.200,0.020,0.100,0.015,0.978,0.015,-0.004,-0.014,-0.116,0.000,0.000,0.000,0.000,0,2,0,1,7,255,1200,300,0,0,-89.509,0.635,-31.320
EX0521-092111,9,C05,prep,135,135,0,595859.091,0.685,-0.677,0.194,0.188,0,0,0,0,0,0,0,0,0,0.000,0,0,0.809,0.028,-0.680,-0.180,0.400,0.014,1.004,0.006,-0.004,0.028,0.096,0.000,0.000,0.000,0.000,0,2,0,1,7,255,1200,300,0,0,-89.506,0.635,-31.320
EX0521-092111,9,C05,prep,135,135,0,595864.092,0.685,-0.677,0.194,0.188,0,0,0,0,0,0,0,0,0,0.000,0,0,1.525,0.019,1.340,0.200,-0.700,0.015,0.992,0.013,-0.006,-0.018,-0.022,0.000,0.000,0.000,0.000,0,2,0,1,7,255,1200,300,0,0,-89.513,0.631,-31.320
EX0521-092111,9,C05,prep,136,136,0,595869.092,0.685,-0.677,0.194,0.188,0,0,0,0,0,0,0,0,0,0.000,0,0,2.018,0.023,-1.780,-0.360,0.880,0.015,0.986,0.009,0.018,0.014,-0.022,0.000,0.000,0.000,0.000,0,2,0,1,7,255,1200,300,0,0,-89.504,0.635,-31.320
EX0521-092111,9,C05,prep,136,136,0,595874.093,0.685,-0.677,0.194,0.188,0,0,0,0,0,0,0,0,0,0.000,0,0,1.190,0.013,1.020,0.200,-0.580,0.015,1.003,0.013,-0.004,-0.012,-0.022,0.000,0.000,0.000,0.000,0,2,0,1,7,255,1200,300,0,0,-89.509,0.632,-31.320
EX0521-092111,9,C05,prep,137,137,0,595879.092,0.685,-0.677,0.194,0.188,0,0,0,0,0,0,0,0,0,0.000,0,0,0.075,0.010,0.040,-0.060,-0.020,0.015,0.985,0.012,0.006,-0.008,-0.076,0.000,0.000,0.000,0.000,0,2,0,1,7,255,1200,300,0,0,-89.509,0.632,-31.320
EX0521-092111,9,C05,prep,137,137,0,595884.092,0.685,-0.677,0.194,0.188,0,0,0,0,0,0,0,0,0,0.000,0,0,1.154,0.008,-1.040,-0.300,0.400,0.014,1.001,0.010,0.000,-0.008,0.068,0.000,0.000,0.000,0.000,0,2,0,1,7,255,1200,300,0,0,-89.504,0.632,-31.320
EX0521-092111,9,C05,prep,171,171,0,595889.091,0.685,-0.677,0.194,0.188,0,0,0,0,0,0,0,0,0,0.000,0,0,2.576,0.009,2.360,0.260,-1.000,0.016,0.988,0.013,0.004,-0.008,-0.060,0.000,0.000,0.000,0.000,0,2,0,1,7,255,1200,300,0,0,-89.516,0.627,-31.320
EX0521-092111,9,C05,prep,171,171,0,595894.091,0.685,-0.677,0.194,0.188,0,0,0,0,0,0,0,0,0,0.000,0,0,2.511,0.015,-2.340,-0.240,0.880,0.013,1.000,0.005,0.004,0.014,0.054,0.000,0.000,0.000,0.000,0,2,0,1,7,255,1200,300,0,0,-89.505,0.632,-31.320
EX0521-092111,9,C05,prep,171,171,0,595899.091,0.685,-0.677,0.194,0.188,0,0,0,0,0,0,0,0,0,0.000,0,0,0.404,0.020,0.240,-0.240,-0.220,0.015,0.991,0.016,0.004,-0.020,-0.026,0.000,0.000,0.000,0.000,0,2,0,1,7,255,1200,300,0,0,-89.498,0.632,-31.320
EX0521-092111,9,C05,prep,171,171,0,595904.092,0.685,-0.677,0.194,0.188,0,0,0,0,0,0,0,0,0,0.000,0,0,2.443,0.022,2.300,0.320,-0.760,0.017,0.983,0.010,0.022,-0.004,-0.026,0.000,0.000,0.000,0.000,0,2,0,1,7,255,1200,300,0,0,-89.510,0.628,-31.320
EX0521-092111,9,C05,prep,171,171,0,595909.092,0.685,-0.677,0.194,0.188,0,0,0,0,0,0,0,0,0,0.000,0,0,2.087,0.016,-2.020,-0.060,0.520,0.011,1.013,0.003,0.016,-0.004,-0.026,0.000,0.000,0.000,0.000,0,2,0,1,7,255,1200,300,0,0,-89.501,0.628,-31.320
EX0521-092111,9,C05,prep,171,171,0,595914.092,0.685,-0.677,0.194,0.188,0,0,0,0,0,0,0,0,0,0.000,0,0,0.616,0.016,-0.440,-0.420,0.100,0.016,0.981,0.021,0.016,-0.004,-0.108,0.000,0.000,0.000,0.000,0,2,0,1,7,255,1200,300,0,0,-89.490,0.630,-31.320
EX0521-092111,9,C05,prep,174,174,0,595919.092,0.685,-0.677,0.194,0.188,0,0,0,0,0,0,0,0,0,0.000,0,0,2.508,0.019,2.440,0.260,-0.520,0.017,0.984,0.011,0.016,-0.010,-0.098,0.000,0.000,0.000,0.000,0,2,0,1,7,255,1200,300,0,0,-89.503,0.630,-31.320
EX0521-092111,9,C05,prep,174,174,0,595924.092,0.685,-0.677,0.194,0.188,0,0,0,0,0,0,0,0,0,0.000,0,0,0.691,0.024,-0.260,0.500,-0.400,0.012,1.017,-0.002,0.022,-0.010,-0.098,0.000,0.000,0.000,0.000,0,2,0,1,7,255,1200,300,0,0,-89.512,0.630,-31.320
EX0521-092111,9,C05,prep,174,174,0,595929.091,0.685,-0.677,0.194,0.188,0,0,0,0,0,0,0,0,0,0.000,0,0,3.002,0.024,-2.820,-0.420,0.940,0.016,0.973,0.021,0.022,-0.010,-0.098,0.000,0.000,0.000,0.000,0,2,0,1,7,255,1200,300,0,0,-89.494,0.635,-31.320
EX0521-092111,9,C05,prep,174,174,0,595934.091,0.685,-0.677,0.194,0.188,0,0,0,0,0,0,0,0,0,0.000,0,0,2.029,0.035,2.000,0.020,-0.340,0.014,0.997,0.015,-0.024,-0.026,0.030,0.000,0.000,0.000,0.000,0,2,0,1,7,255,1200,300,0,0,-89.502,0.635,-31.320
EX0521-092111,9,C05,prep,197,197,0,595939.091,0.685,-0.677,0.194,0.188,0,0,0,0,0,0,0,0,0,0.000,0,0,2.798,0.035,2.500,0.200,-1.240,0.012,1.004,0.000,-0.024,-0.026,0.030,0.000,0.000,0.000,0.000,0,2,0,1,7,255,1200,300,0,0,-89.518,0.629,-31.320
EX0521-092111,9,C05,prep,197,197,0,595944.091,0.685,-0.677,0.194,0.188,0,0,0,0,0,0,0,0,0,0.000,0,0,5.311,0.027,-4.960,-0.600,1.800,0.017,0.982,0.014,0.006,-0.026,0.030,0.000,0.000,0.000,0.000,0,2,0,1,7,255,1200,300,0,0,-89.491,0.639,-31.323
EX0521-092111,9,C05,prep,198,198,0,595949.092,0.685,-0.677,0.194,0.188,0,0,0,0,0,0,0,0,0,0.000,0,0,2.242,0.019,2.120,0.200,-0.700,0.013,1.001,0.015,0.006,-0.018,0.068,0.000,0.000,0.000,0.000,0,2,0,1,7,255,1200,300,0,0,-89.500,0.635,-31.323
EX0521-092111,9,C05,prep,198,198,0,595954.092,0.685,-0.677,0.194,0.188,0,0,0,0,0,0,0,0,0,0.000,0,0,1.721,0.019,1.640,0.020,-0.520,0.015,0.984,0.005,0.006,-0.018,-0.096,0.000,0.000,0.000,0.000,0,2,0,1,7,255,1200,300,0,0,-89.509,0.635,-31.323
EX0521-092111,9,C05,prep,207,207,0,595959.094,0.685,-0.677,0.194,0.188,0,0,0,0,0,0,0,0,0,0.000,0,0,2.800,0.027,-2.700,-0.240,0.700,0.013,1.005,0.010,-0.006,0.026,0.068,0.000,0.000,0.000,0.000,0,2,0,1,7,255,1200,300,0,0,-89.495,0.639,-31.323
EX0521-092111,9,C05,prep,207,207,0,595964.092,0.685,-0.677,0.194,0.188,0,0,0,0,0,0,0,0,0,0.000,0,0,1.487,0.027,1.340,0.080,-0.640,0.016,0.985,0.018,-0.006,0.026,-0.084,0.000,0.000,0.000,0.000,0,2,0,1,7,255,1200,300,0,0,-89.499,0.635,-31.323
EX0521-092111,9,C05,prep,239,239,0,595969.091,0.685,-0.677,0.194,0.188,0,0,0,0,0,0,0,0,0,0.000,0,0,0.476,0.027,-0.020,-0.120,0.460,0.015,0.987,0.006,-0.006,0.026,-0.066,0.000,0.000,0.000,0.000,0,2,0,1,7,255,1200,300,0,0,-89.499,0.635,-31.323
EX0521-092111,9,C05,prep,239,239,0,595974.093,0.685,-0.677,0.194,0.188,0,0,0,0,0,0,0,0,0,0.000,0,0,0.432,0.029,-0.260,-0.060,-0.340,0.014,1.006,0.009,0.008,0.028,-0.066,0.000,0.000,0.000,0.000,0,2,0,1,7,255,1200,300,0,0,-89.500,0.635,-31.323
EX0521-092111,9,C05,prep,239,239,0,595979.091,0.685,-0.677,0.194,0.188,0,0,0,0,0,0,0,0,0,0.000,0,0,0.871,0.029,-0.800,-0.060,0.340,0.016,0.978,0.017,0.008,0.028,-0.066,0.000,0.000,0.000,0.000,0,2,0,1,7,255,1200,300,0,0,-89.493,0.636,-31.323
EX0521-092111,9,C05,prep,239,239,0,595984.091,0.685,-0.677,0.194,0.188,0,0,0,0,0,0,0,0,0,0.000,0,0,0.906,0.025,0.900,0.000,-0.100,0.014,1.004,0.009,0.006,0.024,0.102,0.000,0.000,0.000,0.000,0,2,0,1,7,255,1200,300,0,0,-89.498,0.636,-31.323
EX0521-092111,9,C05,prep,239,239,0,595989.092,0.685,-0.677,0.194,0.188,0,0,0,0,0,0,0,0,0,0.000,0,0,0.580,0.025,0.420,0.000,-0.400,0.014,0.992,0.006,0.006,0.024,-0.018,0.000,0.000,0.000,0.000,0,2,0,1,7,255,1200,300,0,0,-89.498,0.636,-31.323
EX0521-092111,9,C05,prep,239,239,0,595994.092,0.685,-0.677,0.194,0.188,0,0,0,0,0,0,0,0,0,0.000,0,0,2.033,0.025,-1.900,-0.180,0.700,0.014,0.989,0.015,0.006,0.024,-0.018,0.000,0.000,0.000,0.000,0,2,0,1,7,255,1200,300,0,0,-89.487,0.639,-31.323
EX0521-092111,9,C05,prep,267,267,0,595999.092,0.685,-0.677,0.194,0.188,0,0,0,0,0,0,0,0,0,0.000,0,0,1.986,0.017,1.880,0.000,-0.640,0.013,1.000,0.011,-0.012,0.012,-0.018,0.000,0.000,0.000,0.000,0,2,0,1,7,255,1200,300,0,0,-89.496,0.636,-31.323
EX0521-092111,9,C05,prep,267,267,0,596004.092,0.685,-0.677,0.194,0.188,0,0,0,0,0,0,0,0,0,0.000,0,0,0.602,0.017,-0.560,0.000,0.220,0.015,0.987,0.006,-0.012,0.012,-0.052,0.000,0.000,0.000,0.000,0,2,0,1,7,255,1200,300,0,0,-89.496,0.636,-31.323
EX0521-092111,9,C05,prep,267,267,0,596009.092,0.685,-0.677,0.194,0.188,0,0,0,0,0,0,0,0,0,0.000,0,0,1.219,0.017,-1.180,-0.120,0.280,0.014,1.000,0.014,-0.012,0.012,0.054,0.000,0.000,0.000,0.000,0,2,0,1,7,255,1200,300,0,0,-89.489,0.636,-31.323
EX0521-092111,9,C05,prep,267,267,0,596014.092,0.685,-0.677,0.194,0.188,0,0,0,0,0,0,0,0,0,0.000,0,0,1.341,0.016,1.260,0.000,-0.460,0.015,0.990,0.013,-0.002,-0.016,-0.036,0.000,0.000,0.000,0.000,0,2,0,1,7,255,1200,300,0,0,-89.495,0.636,-31.323
EX0521-092111,9,C05,prep,268,268,0,596019.091,0.685,-0.677,0.194,0.188,0,0,0,0,0,0,0,0,0,0.000,0,0,0.400,0.016,-0.260,-0.120,0.280,0.014,0.994,0.006,-0.002,-0.016,-0.004,0.000,0.000,0.000,0.000,0,2,0,1,7,255,1200,300,0,0,-89.495,0.636,-31.323
EX0521-092111,9,C05,prep,268,268,0,596024.091,0.685,-0.677,0.194,0.188,0,0,0,0,0,0,0,0,0,0.000,0,0,0.581,0.004,-0.560,-0.120,-0.100,0.013,0.997,0.012,-0.002,0.004,-0.004,0.000,0.000,0.000,0.000,0,2,0,1,7,255,1200,300,0,0,-89.496,0.636,-31.323
EX0521-092111,9,C05,prep,303,303,0,596029.092,0.685,-0.677,0.194,0.188,0,0,0,0,0,0,0,0,0,0.000,0,0,0.326,0.007,0.300,-0.120,-0.040,0.016,0.985,0.013,0.006,0.004,-0.004,0.000,0.000,0.000,0.000,0,2,0,1,7,255,1200,300,0,0,-89.496,0.637,-31.323
EX0521-092111,9,C05,prep,303,303,0,596034.092,0.685,-0.677,0.194,0.188,0,0,0,0,0,0,0,0,0,0.000,0,0,0.624,0.007,0.600,-0.060,-0.160,0.013,1.000,0.007,0.006,0.004,0.026,0.000,0.000,0.000,0.000,0,2,0,1,7,255,1200,300,0,0,-89.499,0.637,-31.323
EX0521-092111,9,C05,prep,303,303,0,596039.092,0.685,-0.677,0.194,0.188,0,0,0,0,0,0,0,0,0,0.000,0,0,0.925,0.007,-0.920,0.000,0.100,0.014,0.991,0.012,0.006,-0.004,-0.026,0.000,0.000,0.000,0.000,0,2,0,1,7,255,1200,300,0,0,-89.494,0.637,-31.323
EX0521-092111,9,C05,prep,303,303,0,596044.092,0.685,-0.677,0.194,0.188,0,0,0,0,0,0,0,0,0,0.000,0,0,0.254,0.007,-0.200,-0.120,0.100,0.015,0.991,0.014,-0.006,-0.004,-0.026,0.000,0.000,0.000,0.000,0,2,0,1,7,255,1200,300,0,0,-89.494,0.637,-31.323
EX0521-092111,9,C05,prep,305,305,0,596049.092,0.685,-0.677,0.194,0.188,0,0,0,0,0,0,0,0,0,0.000,0,0,1.132,0.007,1.080,0.000,-0.340,0.014,0.996,0.009,-0.006,-0.004,-0.026,0.000,0.000,0.000,0.000,0,2,0,1,7,255,1200,300,0,0,-89.500,0.637,-31.323
EX0521-092111,9,C05,prep,305,305,0,596054.091,0.685,-0.677,0.194,0.188,0,0,0,0,0,0,0,0,0,0.000,0,0,0.781,0.023,-0.740,-0.120,0.220,0.015,0.991,0.009,0.012,0.020,-0.026,0.000,0.000,0.000,0.000,0,2,0,1,7,255,1200,300,0,0,-89.496,0.637,-31.323
EX0521-092111,9,C05,prep,335,335,0,596059.091,0.685,-0.677,0.194,0.188,0,0,0,0,0,0,0,0,0,0.000,0,0,0.338,0.023,-0.320,-0.100,0.040,0.015,0.994,0.013,0.012,0.020,-0.002,0.000,0.000,0.000,0.000,0,2,0,1,7,255,1200,300,0,0,-89.496,0.637,-31.323
EX0521-092111,9,C05,prep,335,335,0,596064.093,0.685,-0.677,0.194,0.188,0,0,0,0,0,0,0,0,0,0.000,0,0,1.116,0.007,1.080,0.020,-0.280,0.015,0.992,0.012,0.004,-0.006,-0.016,0.000,0.000,0.000,0.000,0,2,0,1,7,255,1200,300,0,0,-89.502,0.637,-31.323
EX0521-092111,9,C05,prep,335,335,0,596069.091,0.685,-0.677,0.194,0.188,0,0,0,0,0,0,0,0,0,0.000,0,0,0.602,0.007,-0.560,0.020,0.220,0.013,0.996,0.007,0.004,-0.006,-0.002,0.000,0.000,0.000,0.000,0,2,0,1,7,255,1200,300,0,0,-89.502,0.637,-31.323
EX0521-092111,9,C05,prep,335,335,0,596074.093,0.685,-0.677,0.194,0.188,0,0,0,0,0,0,0,0,0,0.000,0,0,0.502,0.007,-0.500,-0.040,-0.020,0.014,0.993,0.013,0.004,-0.006,-0.006,0.000,0.000,0.000,0.000,0,2,0,1,7,255,1200,300,0,0,-89.502,0.637,-31.323
EX0521-092111,9,C05,prep,335,335,0,596079.092,0.685,-0.677,0.194,0.188,0,0,0,0,0,0,0,0,0,0.000,0,0,0.546,0.007,0.540,0.020,-0.080,0.015,0.993,0.012,0.004,-0.006,-0.006,0.000,0.000,0.000,0.000,0,2,0,1,7,255,1200,300,0,0,-89.502,0.637,-31.323
EX0521-092111,9,C05,prep,335,335,0,596084.092,0.685,-0.677,0.194,0.188,0,0,0,0,0,0,0,0,0,0.000,0,0,0.198,0.007,0.180,0.020,-0.080,0.014,0.996,0.009,0.004,-0.006,-0.006,0.000,0.000,0.000,0.000,0,2,0,1,7,255,1200,300,0,0,-89.503,0.637,-31.323
EX0521-092111,9,C05,prep,353,353,0,596089.092,0.685,-0.677,0.194,0.188,0,0,0,0,0,0,0,0,0,0.000,0,0,0.665,0.004,-0.620,-0.180,0.160,0.014,0.993,0.012,0.004,0.000,-0.008,0.000,0.000,0.000,0.000,0,2,0,1,7,255,1200,300,0,0,-89.500,0.637,-31.323
EX0521-092111,9,C05,prep,353,353,0,596094.092,0.685,-0.677,0.194,0.188,0,0,0,0,0,0,0,0,0,0.000,0,0,0.272,0.004,0.240,-0.100,-0.080,0.015,0.991,0.013,-0.004,0.000,-0.008,0.000,0.000,0.000,0.000,0,2,0,1,7,255,1200,300,0,0,-89.500,0.637,-31.323
EX0521-092111,9,C05,prep,353,353,0,596099.091,0.685,-0.677,0.194,0.188,0,0,0,0,0,0,0,0,0,0.000,0,0,0.690,0.004,0.660,0.020,-0.200,0.014,0.996,0.008,-0.004,0.000,-0.008,0.000,0.000,0.000,0.000,0,2,0,1,7,255,1200,300,0,0,-89.503,0.637,-31.323
EX0521-092111,9,C05,prep,353,353,0,596104.091,0.685,-0.677,0.194,0.188,0,0,0,0,0,0,0,0,0,0.000,0,0,0.935,0.015,-0.920,-0.040,0.160,0.014,0.993,0.010,0.006,0.014,-0.012,0.000,0.000,0.000,0.000,0,2,0,1,7,255,1200,300,0,0,-89.499,0.637,-31.323
EX0521-092111,9,C05,prep,368,368,0,596109.091,0.685,-0.677,0.194,0.188,0,0,0,0,0,0,0,0,0,0.000,0,0,0.110,0.015,0.040,0.020,-0.100,0.015,0.993,0.013,0.006,0.014,-0.006,0.000,0.000,0.000,0.000,0,2,0,1,7,255,1200,300,0,0,-89.499,0.637,-31.323
EX0521-092111,9,C05,prep,368,368,0,596114.092,0.685,-0.677,0.194,0.188,0,0,0,0,0,0,0,0,0,0.000,0,0,0.566,0.011,0.540,-0.060,-0.160,0.014,0.993,0.010,0.004,0.010,-0.012,0.000,0.000,0.000,0.000,0,2,0,1,7,255,1200,300,0,0,-89.499,0.636,-31.323
EX0521-092111,9,C05,prep,369,369,0,596119.092,0.685,-0.677,0.194,0.188,0,0,0,0,0,0,0,0,0,0.000,0,0,0.400,0.011,-0.380,-0.120,0.040,0.015,0.995,0.010,0.004,0.010,-0.006,0.000,0.000,0.000,0.000,0,2,0,1,7,255,1200,300,0,0,-89.499,0.636,-31.323
EX0521-092111,9,C05,prep,369,369,0,596124.092,0.685,-0.677,0.194,0.188,0,0,0,0,0,0,0,0,0,0.000,0,0,0.185,0.011,-0.140,-0.120,-0.020,0.014,0.992,0.014,0.004,0.010,-0.012,0.000,0.000,0.000,0.000,0,2,0,1,7,255,1200,300,0,0,-89.495,0.636,-31.323
EX0521-092111,9,C05,prep,383,383,0,596129.092,0.685,-0.677,0.194,0.188,0,0,0,0,0,0,0,0,0,0.000,0,0,0.506,0.010,0.480,0.020,-0.160,0.014,0.993,0.011,-0.002,0.010,-0.012,0.000,0.000,0.000,0.000,0,2,0,1,7,255,1200,300,0,0,-89.495,0.636,-31.323
EX0521-092111,9,C05,prep,383,383,0,596134.092,0.685,-0.677,0.194,0.188,0,0,0,0,0,0,0,0,0,0.000,0,0,0.205,0.010,-0.200,0.020,0.040,0.015,0.996,0.008,-0.002,0.010,-0.012,0.000,0.000,0.000,0.000,0,2,0,1,7,255,1200,300,0,0,-89.495,0.636,-31.323
EX0521-092111,9,C05,prep,383,383,0,596139.092,0.685,-0.677,0.194,0.188,0,0,0,0,0,0,0,0,0,0.000,0,0,0.446,0.014,-0.440,-0.060,0.040,0.016,0.990,0.012,0.010,0.010,-0.012,0.000,0.000,0.000,0.000,0,2,0,1,7,255,1200,300,0,0,-89.495,0.638,-31.323
EX0521-092111,9,C05,prep,383,383,0,596144.091,0.685,-0.677,0.194,0.188,0,0,0,0,0,0,0,0,0,0.000,0,0,0.322,0.010,0.300,-0.060,-0.100,0.014,0.994,0.012,0.010,-0.002,0.004,0.000,0.000,0.000,0.000,0,2,0,1,7,255,1200,300,0,0,-89.495,0.638,-31.323
EX0521-092111,9,C05,prep,399,399,0,596149.091,0.685,-0.677,0.194,0.188,0,0,0,0,0,0,0,0,0,0.000,0,0,0.167,0.010,0.120,-0.060,-0.100,0.014,0.995,0.009,0.010,-0.002,0.004,0.000,0.000,0.000,0.000,0,2,0,1,7,255,1200,300,0,0,-89.495,0.638,-31.323
EX0521-092111,9,C05,prep,399,399,0,596154.091,0.685,-0.677,0.194,0.188,0,0,0,0,0,0,0,0,0,0.000,0,0,0.400,0.002,-0.380,-0.120,0.040,0.015,0.994,0.011,0.002,0.000,0.004,0.000,0.000,0.000,0.000,0,2,0,1,7,255,1200,300,0,0,-89.495,0.638,-31.323
EX0521-092111,9,C05,prep,448,448,0,596159.094,0.685,-0.677,0.194,0.188,0,0,0,0,0,0,0,0,0,0.000,0,0,0.260,0.002,0.240,-0.060,-0.080,0.014,0.994,0.013,0.002,0.000,-0.002,0.000,0.000,0.000,0.000,0,2,0,1,7,255,1200,300,0,0,-89.496,0.638,-31.323
EX0521-092111,9,C05,prep,448,448,0,596164.092,0.685,-0.677,0.194,0.188,0,0,0,0,0,0,0,0,0,0.000,0,0,0.316,0.002,0.300,-0.060,-0.080,0.015,0.993,0.008,0.002,0.000,-0.002,0.000,0.000,0.000,0.000,0,2,0,1,7,255,1200,300,0,0,-89.496,0.638,-31.323
EX0521-092111,9,C05,prep,448,448,0,596169.092,0.685,-0.677,0.194,0.188,0,0,0,0,0,0,0,0,0,0.000,0,0,0.455,0.015,-0.440,-0.060,0.100,0.014,0.994,0.010,0.006,0.014,-0.002,0.000,0.000,0.000,0.000,0,2,0,1,7,255,1200,300,0,0,-89.496,0.638,-31.323
EX0521-092111,9,C05,prep,448,448,0,596174.094,0.685,-0.677,0.194,0.188,0,0,0,0,0,0,0,0,0,0.000,0,0,0.092,0.015,0.040,0.020,-0.080,0.015,0.992,0.013,0.006,0.014,-0.006,0.000,0.000,0.000,0.000,0,2,0,1,7,255,1200,300,0,0,-89.496,0.638,-31.323
EX0521-092111,9,C05,prep,448,448,0,596179.092,0.685,-0.677,0.194,0.188,0,0,0,0,0,0,0,0,0,0.000,0,0,0.301,0.006,0.300,0.020,-0.020,0.015,0.994,0.011,0.004,0.004,-0.002,0.000,0.000,0.000,0.000,0,2,0,1,7,255,1200,300,0,0,-89.496,0.637,-31.323
EX0521-092111,9,C05,prep,448,448,0,596184.091,0.685,-0.677,0.194,0.188,0,0,0,0,0,0,0,0,0,0.000,0,0,0.234,0.006,-0.200,-0.120,-0.020,0.014,0.995,0.010,0.004,0.004,-0.002,0.000,0.000,0.000,0.000,0,2,0,1,7,255,1200,300,0,0,-89.496,0.637,-31.323
EX0521-092111,9,C05,prep,448,448,0,596189.091,0.685,-0.677,0.194,0.188,0,0,0,0,0,0,0,0,0,0.000,0,0,0.146,0.006,-0.080,-0.120,-0.020,0.014,0.991,0.011,0.004,0.004,-0.002,0.000,0.000,0.000,0.000,0,2,0,1,7,255,1200,300,0,0,-89.496,0.637,-31.323
EX0521-092111,9,C05,prep,448,448,0,596194.091,0.685,-0.677,0.194,0.188,0,0,0,0,0,0,0,0,0,0.000,0,0,0.311,0.006,0.300,0.020,-0.080,0.016,0.994,0.010,0.004,0.004,0.004,0.000,0.000,0.000,0.000,0,2,0,1,7,255,1200,300,0,0,-89.496,0.637,-31.323
EX0521-092111,9,C05,prep,449,449,0,596199.091,0.685,-0.677,0.194,0.188,0,0,0,0,0,0,0,0,0,0.000,0,0,0.154,0.006,-0.140,-0.060,-0.020,0.014,0.993,0.010,0.004,0.004,-0.006,0.000,0.000,0.000,0.000,0,2,0,1,7,255,1200,300,0,0,-89.497,0.637,-31.323
EX0521-092111,9,C05,prep,449,449,0,596204.092,0.685,-0.677,0.194,0.188,0,0,0,0,0,0,0,0,0,0.000,0,0,0.268,0.004,-0.260,-0.060,-0.020,0.015,0.992,0.012,0.004,0.002,-0.006,0.000,0.000,0.000,0.000,0,2,0,1,7,255,1200,300,0,0,-89.497,0.637,-31.323
EX0521-092111,9,C05,prep,471,471,0,596209.092,0.685,-0.677,0.194,0.188,0,0,0,0,0,0,0,0,0,0.000,0,0,0.242,0.011,0.240,0.020,-0.020,0.015,0.993,0.010,0.004,0.010,-0.006,0.000,0.000,0.000,0.000,0,2,0,1,7,255,1200,300,0,0,-89.497,0.637,-31.323
EX0521-092111,9,C05,prep,471,471,0,596214.092,0.685,-0.677,0.194,0.188,0,0,0,0,0,0,0,0,0,0.000,0,0,0.066,0.012,-0.020,-0.060,-0.020,0.013,0.993,0.009,0.002,0.012,-0.010,0.000,0.000,0.000,0.000,0,2,0,1,7,255,1200,300,0,0,-89.497,0.637,-31.323
EX0521-092111,9,C05,prep,472,472,0,596219.092,0.685,-0.677,0.194,0.188,0,0,0,0,0,0,0,0,0,0.000,0,0,0.270,0.013,-0.260,-0.060,0.040,0.015,0.993,0.012,0.004,0.012,-0.010,0.000,0.000,0.000,0.000,0,2,0,1,7,255,1200,300,0,0,-89.497,0.637,-31.323
EX0521-092111,9,C05,prep,472,472,0,596224.092,0.685,-0.677,0.194,0.188,0,0,0,0,0,0,0,0,0,0.000,0,0,0.214,0.006,0.180,-0.060,-0.100,0.014,0.992,0.012,0.000,-0.006,-0.010,0.000,0.000,0.000,0.000,0,2,0,1,7,255,1200,300,0,0,-89.497,0.637,-31.323
EX0521-092111,9,C05,prep,473,473,0,596229.091,0.685,-0.677,0.194,0.188,0,0,0,0,0,0,0,0,0,0.000,0,0,0.075,0.007,0.040,-0.060,-0.020,0.015,0.994,0.010,0.004,-0.006,-0.010,0.000,0.000,0.000,0.000,0,2,0,1,7,255,1200,300,0,0,-89.497,0.637,-31.323
EX0521-092111,9,C05,prep,473,473,0,596234.091,0.685,-0.677,0.194,0.188,0,0,0,0,0,0,0,0,0,0.000,0,0,0.328,0.004,-0.320,-0.060,0.040,0.015,0.994,0.012,0.000,-0.004,0.000,0.000,0.000,0.000,0.000,0,2,0,1,7,255,1200,300,0,0,-89.498,0.637,-31.323
EX0521-092111,9,C05,prep,512,512,0,596239.091,0.685,-0.677,0.194,0.188,0,0,0,0,0,0,0,0,0,0.000,0,0,0.049,0.004,0.040,0.020,-0.020,0.014,0.992,0.012,0.000,-0.004,0.000,0.000,0.000,0.000,0.000,0,2,0,1,7,255,1200,300,0,0,-89.498,0.637,-31.323
EX0521-092111,9,C05,prep,512,512,0,596244.091,0.685,-0.677,0.194,0.188,0,0,0,0,0,0,0,0,0,0.000,0,0,0.157,0.004,0.120,0.020,-0.100,0.015,0.994,0.010,0.000,-0.004,0.000,0.000,0.000,0.000,0.000,0,2,0,1,7,255,1200,300,0,0,-89.498,0.637,-31.323
EX0521-092111,9,C05,prep,513,513,0,596249.092,0.685,-0.677,0.194,0.188,0,0,0,0,0,0,0,0,0,0.000,0,0,0.154,0.004,-0.140,-0.060,-0.020,0.014,0.993,0.012,-0.004,-0.002,-0.010,0.000,0.000,0.000,0.000,0,2,0,1,7,255,1200,300,0,0,-89.498,0.637,-31.323
EX0521-092111,9,C05,prep,513,513,0,596254.092,0.685,-0.677,0.194,0.188,0,0,0,0,0,0,0,0,0,0.000,0,0,0.123,0.003,-0.020,-0.120,-0.020,0.015,0.993,0.012,-0.002,-0.002,-0.010,0.000,0.000,0.000,0.000,0,2,0,1,7,255,1200,300,0,0,-89.498,0.637,-31.323
EX0521-092111,9,C05,prep,514,514,0,596259.092,0.685,-0.677,0.194,0.188,0,0,0,0,0,0,0,0,0,0.000,0,0,0.201,0.003,0.180,-0.040,-0.080,0.015,0.993,0.010,-0.002,-0.002,-0.010,0.000,0.000,0.000,0.000,0,2,0,1,7,255,1200,300,0,0,-89.498,0.637,-31.323
EX0521-092111,9,C05,prep,514,514,0,596264.092,0.685,-0.677,0.194,0.188,0,0,0,0,0,0,0,0,0,0.000,0,0,0.085,0.006,-0.080,0.020,-0.020,0.014,0.994,0.011,0.000,0.006,-0.006,0.000,0.000,0.000,0.000,0,2,0,1,7,255,1200,300,0,0,-89.498,0.637,-31.323
EX0521-092111,9,C05,prep,543,543,0,596269.092,0.685,-0.677,0.194,0.188,0,0,0,0,0,0,0,0,0,0.000,0,0,0.205,0.007,-0.200,-0.040,-0.020,0.015,0.994,0.012,0.004,0.006,0.000,0.000,0.000,0.000,0.000,0,2,0,1,7,255,1200,300,0,0,-89.498,0.637,-31.323
EX0521-092111,9,C05,prep,543,543,0,596274.093,0.685,-0.677,0.194,0.188,0,0,0,0,0,0,0,0,0,0.000,0,0,0.201,0.002,0.180,-0.040,-0.080,0.014,0.993,0.012,0.000,-0.002,0.000,0.000,0.000,0.000,0.000,0,2,0,1,7,255,1200,300,0,0,-89.499,0.637,-31.323
EX0521-092111,9,C05,prep,543,543,0,596279.091,0.685,-0.677,0.194,0.188,0,0,0,0,0,0,0,0,0,0.000,0,0,0.035,0.004,-0.020,0.020,-0.020,0.015,0.993,0.010,0.004,-0.002,-0.004,0.000,0.000,0.000,0.000,0,2,0,1,7,255,1200,300,0,0,-89.499,0.637,-31.323
EX0521-092111,9,C05,prep,543,543,0,596284.091,0.685,-0.677,0.194,0.188,0,0,0,0,0,0,0,0,0,0.000,0,0,0.208,0.008,-0.200,-0.040,0.040,0.014,0.993,0.010,-0.002,0.008,-0.006,0.000,0.000,0.000,0.000,0,2,0,1,7,255,1200,300,0,0,-89.499,0.637,-31.323
EX0521-092111,9,C05,prep,543,543,0,596289.092,0.685,-0.677,0.194,0.188,0,0,0,0,0,0,0,0,0,0.000,0,0,0.128,0.008,0.120,-0.040,-0.020,0.014,0.993,0.011,0.000,0.008,-0.004,0.000,0.000,0.000,0.000,0,2,0,1,7,255,1200,300,0,0,-89.499,0.637,-31.323
EX0521-092111,9,C05,prep,543,543,0,596294.092,0.685,-0.677,0.194,0.188,0,0,0,0,0,0,0,0,0,0.000,0,0,0.066,0.006,0.060,0.020,-0.020,0.015,0.994,0.011,0.000,0.006,-0.004,0.000,0.000,0.000,0.000,0,2,0,1,7,255,1200,300,0,0,-89.499,0.637,-31.323
EX0521-092111,9,C05,prep,564,564,0,596299.092,0.685,-0.677,0.194,0.188,0,0,0,0,0,0,0,0,0,0.000,0,0,0.205,0.002,-0.200,0.020,0.040,0.015,0.993,0.011,0.002,0.000,-0.004,0.000,0.000,0.000,0.000,0,2,0,1,7,255,1200,300,0,0,-89.499,0.637,-31.323
EX0521-092111,9,C05,prep,564,564,0,596304.092,0.685,-0.677,0.194,0.188,0,0,0,0,0,0,0,0,0,0.000,0,0,0.066,0.003,0.060,0.020,-0.020,0.015,0.993,0.012,0.002,-0.002,-0.004,0.000,0.000,0.000,0.000,0,2,0,1,7,255,1200,300,0,0,-89.499,0.637,-31.323
EX0521-092111,9,C05,prep,564,564,0,596309.092,0.685,-0.677,0.194,0.188,0,0,0,0,0,0,0,0,0,0.000,0,0,0.214,0.002,0.180,-0.060,-0.100,0.013,0.994,0.010,0.000,-0.002,-0.004,0.000,0.000,0.000,0.000,0,2,0,1,7,255,1200,300,0,0,-89.499,0.637,-31.323
EX0521-092111,9,C05,prep,564,564,0,596314.092,0.685,-0.677,0.194,0.188,0,0,0,0,0,0,0,0,0,0.000,0,0,0.108,0.015,-0.080,-0.060,-0.040,0.013,0.994,0.010,-0.004,0.014,0.000,0.000,0.000,0.000,0.000,0,2,0,1,7,255,1200,300,0,0,-89.500,0.637,-31.323
EX0521-092111,9,C05,prep,565,565,0,596319.091,0.685,-0.677,0.194,0.188,0,0,0,0,0,0,0,0,0,0.000,0,0,0.161,0.015,0.040,-0.120,-0.100,0.015,0.994,0.011,-0.004,0.014,0.000,0.000,0.000,0.000,0.000,0,2,0,1,7,255,1200,300,0,0,-89.500,0.636,-31.323
EX0521-092111,9,C05,prep,565,565,0,596324.091,0.685,-0.677,0.194,0.188,0,0,0,0,0,0,0,0,0,0.000,0,0,0.214,0.004,0.180,-0.060,-0.100,0.014,0.993,0.012,-0.004,-0.002,0.000,0.000,0.000,0.000,0.000,0,2,0,1,7,255,1200,300,0,0,-89.500,0.636,-31.323
EX0521-092111,9,C05,prep,576,576,0,596329.092,0.685,-0.677,0.194,0.188,0,0,0,0,0,0,0,0,0,0.000,0,0,0.108,0.003,-0.080,-0.060,0.040,0.014,0.994,0.011,-0.002,-0.002,0.000,0.000,0.000,0.000,0.000,0,2,0,1,7,255,1200,300,0,0,-89.500,0.636,-31.323
EX0521-092111,9,C05,prep,576,576,0,596334.092,0.685,-0.677,0.194,0.188,0,0,0,0,0,0,0,0,0,0.000,0,0,0.108,0.004,-0.080,-0.060,0.040,0.015,0.993,0.012,-0.002,-0.004,-0.010,0.000,0.000,0.000,0.000,0,2,0,1,7,255,1200,300,0,0,-89.500,0.636,-31.323
EX0521-092111,9,C05,prep,601,601,0,596339.092,0.685,-0.677,0.194,0.188,0,0,0,0,0,0,0,0,0,0.000,0,0,0.123,0.000,0.040,-0.060,-0.100,0.015,0.993,0.010,0.000,0.000,-0.010,0.000,0.000,0.000,0.000,0,2,0,1,7,255,1200,300,0,0,-89.500,0.636,-31.323
EX0521-092111,9,C05,prep,601,601,0,596344.092,0.685,-0.677,0.194,0.188,0,0,0,0,0,0,0,0,0,0.000,0,0,0.108,0.008,-0.080,-0.060,0.040,0.015,0.994,0.011,0.008,0.000,-0.010,0.000,0.000,0.000,0.000,0,2,0,1,7,255,1200,300,0,0,-89.500,0.636,-31.323
EX0521-092111,9,C05,prep,601,601,0,596349.092,0.685,-0.677,0.194,0.188,0,0,0,0,0,0,0,0,0,0.000,0,0,0.089,0.008,-0.080,0.000,-0.040,0.014,0.993,0.012,0.008,0.000,-0.004,0.000,0.000,0.000,0.000,0,2,0,1,7,255,1200,300,0,0,-89.501,0.636,-31.323
EX0521-092111,9,C05,prep,601,601,0,596354.092,0.685,-0.677,0.194,0.188,0,0,0,0,0,0,0,0,0,0.000,0,0,0.194,0.004,0.180,-0.060,-0.040,0.014,0.993,0.012,-0.004,0.000,-0.004,0.000,0.000,0.000,0.000,0,2,0,1,7,255,1200,300,0,0,-89.501,0.636,-31.323
EX0521-092111,9,C05,prep,636,636,0,596359.095,0.685,-0.677,0.194,0.188,0,0,0,0,0,0,0,0,0,0.000,0,0,0.075,0.004,-0.020,-0.060,-0.040,0.014,0.995,0.010,-0.004,0.000,-0.004,0.000,0.000,0.000,0.000,0,2,0,1,7,255,1200,300,0,0,-89.501,0.636,-31.323
EX0521-092111,9,C05,prep,636,636,0,596364.091,0.685,-0.677,0.194,0.188,0,0,0,0,0,0,0,0,0,0.000,0,0,0.157,0.008,-0.140,-0.060,-0.040,0.014,0.993,0.010,0.002,0.008,-0.004,0.000,0.000,0.000,0.000,0,2,0,1,7,255,1200,300,0,0,-89.501,0.636,-31.323
EX0521-092111,9,C05,prep,636,636,0,596369.091,0.685,-0.677,0.194,0.188,0,0,0,0,0,0,0,0,0,0.000,0,0,0.082,0.008,0.040,-0.060,-0.040,0.014,0.994,0.011,0.002,0.008,0.000,0.000,0.000,0.000,0.000,0,2,0,1,7,255,1200,300,0,0,-89.501,0.636,-31.323
EX0521-092111,9,C05,prep,636,636,0,596374.093,0.685,-0.677,0.194,0.188,0,0,0,0,0,0,0,0,0,0.000,0,0,0.082,0.008,0.040,-0.060,-0.040,0.014,0.993,0.010,0.002,0.008,-0.004,0.000,0.000,0.000,0.000,0,2,0,1,7,255,1200,300,0,0,-89.501,0.636,-31.323
EX0521-092111,9,C05,prep,637,637,0,596379.092,0.685,-0.677,0.194,0.188,0,0,0,0,0,0,0,0,0,0.000,0,0,0.108,0.006,-0.080,-0.060,-0.040,0.015,0.993,0.010,0.002,0.006,-0.004,0.000,0.000,0.000,0.000,0,2,0,1,7,255,1200,300,0,0,-89.501,0.636,-31.323
EX0521-092111,9,C05,prep,637,637,0,596384.092,0.685,-0.677,0.194,0.188,0,0,0,0,0,0,0,0,0,0.000,0,0,0.075,0.006,-0.020,-0.060,-0.040,0.014,0.992,0.011,0.002,0.006,-0.010,0.000,0.000,0.000,0.000,0,2,0,1,7,255,1200,300,0,0,-89.501,0.636,-31.323
EX0521-092111,9,C05,prep,668,668,0,596389.092,0.685,-0.677,0.194,0.188,0,0,0,0,0,0,0,0,0,0.000,0,0,0.141,0.007,0.100,0.000,-0.100,0.015,0.994,0.010,0.006,0.004,-0.010,0.000,0.000,0.000,0.000,0,2,0,1,7,255,1200,300,0,0,-89.502,0.636,-31.323
EX0521-092111,9,C05,prep,668,668,0,596394.092,0.685,-0.677,0.194,0.188,0,0,0,0,0,0,0,0,0,0.000,0,0,0.089,0.002,-0.080,0.000,-0.040,0.014,0.993,0.011,-0.002,0.000,-0.004,0.000,0.000,0.000,0.000,0,2,0,1,7,255,1200,300,0,0,-89.502,0.636,-31.323
EX0521-092111,9,C05,prep,668,668,0,596399.092,0.685,-0.677,0.194,0.188,0,0,0,0,0,0,0,0,0,0.000,0,0,0.089,0.002,-0.080,0.000,-0.040,0.015,0.993,0.012,-0.002,0.000,-0.004,0.000,0.000,0.000,0.000,0,2,0,1,7,255,1200,300,0,0,-89.502,0.636,-31.323
EX0521-092111,9,C05,prep,668,668,0,596404.091,0.685,-0.677,0.194,0.188,0,0,0,0,0,0,0,0,0,0.000,0,0,0.141,0.011,0.100,0.000,-0.100,0.015,0.993,0.012,-0.004,-0.010,-0.008,0.000,0.000,0.000,0.000,0,2,0,1,7,255,1200,300,0,0,-89.502,0.636,-31.323
EX0521-092111,9,C05,prep,668,668,0,596409.091,0.685,-0.677,0.194,0.188,0,0,0,0,0,0,0,0,0,0.000,0,0,0.075,0.011,-0.020,-0.060,-0.040,0.014,0.993,0.012,-0.004,-0.010,-0.008,0.000,0.000,0.000,0.000,0,2,0,1,7,255,1200,300,0,0,-89.502,0.636,-31.323
EX0521-092111,9,C05,prep,668,668,0,596414.092,0.685,-0.677,0.194,0.188,0,0,0,0,0,0,0,0,0,0.000,0,0,0.108,0.006,-0.080,-0.060,-0.040,0.015,0.994,0.011,-0.004,-0.004,-0.004,0.000,0.000,0.000,0.000,0,2,0,1,7,255,1200,300,0,0,-89.502,0.636,-31.323
EX0521-092111,9,C05,prep,670,670,0,596419.092,0.685,-0.677,0.194,0.188,0,0,0,0,0,0,0,0,0,0.000,0,0,0.082,0.003,0.040,-0.060,-0.040,0.015,0.993,0.011,0.002,-0.002,-0.004,0.000,0.000,0.000,0.000,0,2,0,1,7,255,1200,300,0,0,-89.502,0.636,-31.323
EX0521-092111,9,C05,prep,670,670,0,596424.092,0.685,-0.677,0.194,0.188,0,0,0,0,0,0,0,0,0,0.000,0,0,0.082,0.003,0.040,-0.060,-0.040,0.015,0.994,0.010,0.002,-0.002,0.000,0.000,0.000,0.000,0.000,0,2,0,1,7,255,1200,300,0,0,-89.502,0.636,-31.323
EX0521-092111,9,C05,prep,702,702,0,596429.092,0.685,-0.677,0.194,0.188,0,0,0,0,0,0,0,0,0,0.000,0,0,0.108,0.003,-0.080,-0.060,-0.040,0.014,0.992,0.011,0.002,0.002,-0.008,0.000,0.000,0.000,0.000,0,2,0,1,7,255,1200,300,0,0,-89.503,0.636,-31.323
EX0521-092111,9,C05,prep,702,702,0,596434.092,0.685,-0.677,0.194,0.188,0,0,0,0,0,0,0,0,0,0.000,0,0,0.057,0.006,0.040,0.000,-0.040,0.014,0.992,0.011,-0.006,0.002,-0.014,0.000,0.000,0.000,0.000,0,2,0,1,7,255,1200,300,0,0,-89.503,0.636,-31.323
EX0521-092111,9,C05,prep,702,702,0,596439.092,0.685,-0.677,0.194,0.188,0,0,0,0,0,0,0,0,0,0.000,0,0,0.102,0.006,-0.020,0.000,-0.100,0.014,0.994,0.010,-0.006,0.002,-0.014,0.000,0.000,0.000,0.000,0,2,0,1,7,255,1200,300,0,0,-89.503,0.636,-31.323
EX0521-092111,9,C05,prep,702,702,0,596444.091,0.685,-0.677,0.194,0.188,0,0,0,0,0,0,0,0,0,0.000,0,0,0.108,0.003,-0.080,-0.060,-0.040,0.015,0.994,0.011,-0.002,0.002,0.000,0.000,0.000,0.000,0.000,0,2,0,1,7,255,1200,300,0,0,-89.503,0.636,-31.323
EX0521-092111,9,C05,prep,704,704,0,596449.091,0.685,-0.677,0.194,0.188,0,0,0,0,0,0,0,0,0,0.000,0,0,0.118,0.004,-0.020,-0.060,-0.100,0.015,0.994,0.013,-0.002,-0.004,0.002,0.000,0.000,0.000,0.000,0,2,0,1,7,255,1200,300,0,0,-89.503,0.636,-31.323
EX0521-092111,9,C05,prep,704,704,0,596454.091,0.685,-0.677,0.194,0.188,0,0,0,0,0,0,0,0,0,0.000,0,0,0.082,0.006,0.040,-0.060,-0.040,0.015,0.994,0.011,0.004,-0.004,0.002,0.000,0.000,0.000,0.000,0,2,0,1,7,255,1200,300,0,0,-89.503,0.636,-31.323
EX0521-092111,9,C05,prep,736,736,0,596459.091,0.685,-0.677,0.194,0.188,0,0,0,0,0,0,0,0,0,0.000,0,0,0.130,0.006,-0.080,-0.100,-0.020,0.013,0.993,0.012,-0.006,0.002,0.002,0.000,0.000,0.000,0.000,0,2,0,1,7,255,1200,300,0,0,-89.503,0.635,-31.323
EX0521-092111,9,C05,prep,736,736,0,596464.092,0.685,-0.677,0.194,0.188,0,0,0,0,0,0,0,0,0,0.000,0,0,0.028,0.004,0.000,0.020,-0.020,0.015,0.994,0.011,0.004,0.002,0.002,0.000,0.000,0.000,0.000,0,2,0,1,7,255,1200,300,0,0,-89.504,0.635,-31.323
EX0521-092111,9,C05,prep,736,736,0,596469.092,0.685,-0.677,0.194,0.188,0,0,0,0,0,0,0,0,0,0.000,0,0,0.066,0.003,0.060,0.020,-0.020,0.014,0.995,0.011,-0.002,0.002,0.002,0.000,0.000,0.000,0.000,0,2,0,1,7,255,1200,300,0,0,-89.504,0.635,-31.323
EX0521-092111,9,C05,prep,736,736,0,596474.093,0.685,-0.677,0.194,0.188,0,0,0,0,0,0,0,0,0,0.000,0,0,0.092,0.004,-0.080,-0.040,-0.020,0.015,0.993,0.010,0.004,0.002,0.002,0.000,0.000,0.000,0.000,0,2,0,1,7,255,1200,300,0,0,-89.504,0.635,-31.323
EX0521-092111,9,C05,prep,736,736,0,596479.092,0.685,-0.677,0.194,0.188,0,0,0,0,0,0,0,0,0,0.000,0,0,0.057,0.004,0.000,-0.040,0.040,0.015,0.992,0.011,0.004,0.002,-0.004,0.000,0.000,0.000,0.000,0,2,0,1,7,255,1200,300,0,0,-89.504,0.635,-31.323
EX0521-092111,9,C05,prep,736,736,0,596484.092,0.685,-0.677,0.194,0.188,0,0,0,0,0,0,0,0,0,0.000,0,0,0.128,0.004,0.120,-0.040,-0.020,0.014,0.992,0.012,0.004,0.002,-0.012,0.000,0.000,0.000,0.000,0,2,0,1,7,255,1200,300,0,0,-89.504,0.635,-31.323
EX0521-092111,9,C05,prep,768,768,0,596489.091,0.685,-0.677,0.194,0.188,0,0,0,0,0,0,0,0,0,0.000,0,0,0.089,0.004,0.000,-0.040,-0.080,0.014,0.993,0.009,0.004,0.002,-0.012,0.000,0.000,0.000,0.000,0,2,0,1,7,255,1200,300,0,0,-89.504,0.635,-31.323
EX0521-092111,9,C05,prep,768,768,0,596494.091,0.685,-0.677,0.194,0.188,0,0,0,0,0,0,0,0,0,0.000,0,0,0.115,0.003,-0.080,0.020,-0.080,0.015,0.994,0.011,0.002,-0.002,-0.008,0.000,0.000,0.000,0.000,0,2,0,1,7,255,1200,300,0,0,-89.504,0.635,-31.323
EX0521-092111,9,C05,prep,768,768,0,596499.091,0.685,-0.677,0.194,0.188,0,0,0,0,0,0,0,0,0,0.000,0,0,0.089,0.003,0.000,-0.040,-0.080,0.014,0.994,0.011,0.002,0.002,0.002,0.000,0.000,0.000,0.000,0,2,0,1,7,255,1200,300,0,0,-89.504,0.635,-31.323
EX0521-092111,9,C05,prep,768,768,0,596504.091,0.685,-0.677,0.194,0.188,0,0,0,0,0,0,0,0,0,0.000,0,0,0.045,0.003,0.000,-0.040,-0.020,0.015,0.994,0.011,0.002,0.002,0.002,0.000,0.000,0.000,0.000,0,2,0,1,7,255,1200,300,0,0,-89.505,0.635,-31.323
EX0521-092111,9,C05,prep,768,768,0,596509.092,0.685,-0.677,0.194,0.188,0,0,0,0,0,0,0,0,0,0.000,0,0,0.102,0.003,-0.080,-0.060,-0.020,0.014,0.994,0.010,0.002,0.002,0.002,0.000,0.000,0.000,0.000,0,2,0,1,7,255,1200,300,0,0,-89.505,0.635,-31.323
EX0521-092111,9,C05,prep,768,768,0,596514.092,0.685,-0.677,0.194,0.188,0,0,0,0,0,0,0,0,0,0.000,0,0,0.082,0.004,0.040,-0.060,0.040,0.015,0.993,0.012,0.004,0.002,0.002,0.000,0.000,0.000,0.000,0,2,0,1,7,255,1200,300,0,0,-89.505,0.635,-31.323
EX0521-092111,9,C05,prep,769,769,0,596519.092,0.685,-0.677,0.194,0.188,0,0,0,0,0,0,0,0,0,0.000,0,0,0.136,0.004,0.120,-0.060,-0.020,0.015,0.995,0.011,0.004,0.000,0.006,0.000,0.000,0.000,0.000,0,2,0,1,7,255,1200,300,0,0,-89.505,0.635,-31.323
EX0521-092111,9,C05,prep,769,769,0,596524.092,0.685,-0.677,0.194,0.188,0,0,0,0,0,0,0,0,0,0.000,0,0,0.066,0.004,-0.020,-0.060,-0.020,0.014,0.993,0.011,0.004,0.000,-0.008,0.000,0.000,0.000,0.000,0,2,0,1,7,255,1200,300,0,0,-89.505,0.635,-31.323
EX0521-092111,9,C05,prep,784,784,0,596529.092,0.685,-0.677,0.194,0.188,0,0,0,0,0,0,0,0,0,0.000,0,0,0.104,0.006,-0.020,0.020,-0.100,0.015,0.992,0.011,0.006,0.000,-0.008,0.000,0.000,0.000,0.000,0,2,0,1,7,255,1200,300,0,0,-89.505,0.635,-31.323
EX0521-092111,9,C05,prep,784,784,0,596534.091,0.685,-0.677,0.194,0.188,0,0,0,0,0,0,0,0,0,0.000,0,0,0.118,0.006,-0.020,-0.060,-0.100,0.015,0.992,0.012,0.002,-0.006,-0.012,0.000,0.000,0.000,0.000,0,2,0,1,7,255,1200,300,0,0,-89.505,0.635,-31.323
EX0521-092111,9,C05,prep,801,801,0,596539.091,0.685,-0.677,0.194,0.188,0,0,0,0,0,0,0,0,0,0.000,0,0,0.102,0.006,-0.080,-0.060,-0.020,0.013,0.994,0.011,0.002,-0.006,-0.012,0.000,0.000,0.000,0.000,0,2,0,1,7,255,1200,300,0,0,-89.505,0.635,-31.323
EX0521-092111,9,C05,prep,801,801,0,596544.091,0.685,-0.677,0.194,0.188,0,0,0,0,0,0,0,0,0,0.000,0,0,0.066,0.003,-0.020,-0.060,-0.020,0.015,0.994,0.011,0.002,0.002,0.002,0.000,0.000,0.000,0.000,0,2,0,1,7,255,1200,300,0,0,-89.506,0.635,-31.323
EX0521-092111,9,C05,prep,801,801,0,596549.091,0.685,-0.677,0.194,0.188,0,0,0,0,0,0,0,0,0,0.000,0,0,0.123,0.003,0.120,0.020,-0.020,0.014,0.993,0.011,-0.002,0.002,0.002,0.000,0.000,0.000,0.000,0,2,0,1,7,255,1200,300,0,0,-89.506,0.635,-31.323
EX0521-092111,9,C05,prep,801,801,0,596554.092,0.685,-0.677,0.194,0.188,0,0,0,0,0,0,0,0,0,0.000,0,0,0.066,0.004,-0.020,-0.060,-0.020,0.015,0.992,0.011,0.004,0.000,-0.004,0.000,0.000,0.000,0.000,0,2,0,1,7,255,1200,300,0,0,-89.506,0.635,-31.323
EX0521-092111,9,C05,prep,802,802,0,596559.094,0.685,-0.677,0.194,0.188,0,0,0,0,0,0,0,0,0,0.000,0,0,0.075,0.002,-0.020,-0.060,-0.040,0.014,0.994,0.011,-0.002,0.000,-0.004,0.000,0.000,0.000,0.000,0,2,0,1,7,255,1200,300,0,0,-89.506,0.635,-31.323
EX0521-092111,9,C05,prep,802,802,0,596564.092,0.685,-0.677,0.194,0.188,0,0,0,0,0,0,0,0,0,0.000,0,0,0.123,0.003,0.040,-0.060,-0.100,0.014,0.993,0.012,-0.002,-0.002,-0.008,0.000,0.000,0.000,0.000,0,2,0,1,7,255,1200,300,0,0,-89.506,0.635,-31.323
EX0521-092111,9,C05,prep,847,847,0,596569.092,0.685,-0.677,0.194,0.188,0,0,0,0,0,0,0,0,0,0.000,0,0,0.045,0.004,-0.020,0.000,-0.040,0.016,0.993,0.011,-0.002,-0.004,-0.008,0.000,0.000,0.000,0.000,0,2,0,1,7,255,1200,300,0,0,-89.506,0.635,-31.323
EX0521-092111,9,C05,prep,847,847,0,596574.093,0.685,-0.677,0.194,0.188,0,0,0,0,0,0,0,0,0,0.000,0,0,0.108,0.013,-0.080,-0.060,-0.040,0.015,0.994,0.009,0.012,-0.004,-0.008,0.000,0.000,0.000,0.000,0,2,0,1,7,255,1200,300,0,0,-89.506,0.635,-31.323
EX0521-092111,9,C05,prep,847,847,0,596579.091,0.685,-0.677,0.194,0.188,0,0,0,0,0,0,0,0,0,0.000,0,0,0.102,0.012,-0.020,0.000,-0.100,0.014,0.993,0.011,0.012,0.002,-0.008,0.000,0.000,0.000,0.000,0,2,0,1,7,255,1200,300,0,0,-89.507,0.635,-31.323
EX0521-092111,9,C05,prep,847,847,0,596584.091,0.685,-0.677,0.194,0.188,0,0,0,0,0,0,0,0,0,0.000,0,0,0.082,0.003,0.040,-0.060,-0.040,0.014,0.993,0.011,-0.002,0.002,-0.002,0.000,0.000,0.000,0.000,0,2,0,1,7,255,1200,300,0,0,-89.507,0.635,-31.323
EX0521-092111,9,C05,prep,847,847,0,596589.091,0.685,-0.677,0.194,0.188,0,0,0,0,0,0,0,0,0,0.000,0,0,0.108,0.002,-0.080,-0.060,-0.040,0.014,0.993,0.011,-0.002,0.000,-0.002,0.000,0.000,0.000,0.000,0,2,0,1,7,255,1200,300,0,0,-89.507,0.635,-31.323
EX0521-092111,9,C05,prep,847,847,0,596594.091,0.685,-0.677,0.194,0.188,0,0,0,0,0,0,0,0,0,0.000,0,0,0.075,0.002,-0.020,-0.060,-0.040,0.014,0.994,0.010,-0.002,0.000,-0.002,0.000,0.000,0.000,0.000,0,2,0,1,7,255,1200,300,0,0,-89.507,0.635,-31.323
EX0521-092111,9,C05,prep,848,848,0,596599.092,0.685,-0.677,0.194,0.188,0,0,0,0,0,0,0,0,0,0.000,0,0,0.045,0.008,-0.020,0.000,-0.040,0.014,0.995,0.010,-0.002,0.008,0.002,0.000,0.000,0.000,0.000,0,2,0,1,7,255,1200,300,0,0,-89.507,0.635,-31.323
EX0521-092111,9,C05,prep,848,848,0,596604.092,0.685,-0.677,0.194,0.188,0,0,0,0,0,0,0,0,0,0.000,0,0,0.141,0.008,-0.080,-0.060,-0.100,0.014,0.994,0.012,-0.002,0.008,0.002,0.000,0.000,0.000,0.000,0,2,0,1,7,255,1200,300,0,0,-89.507,0.634,-31.323
EX0521-092111,9,C05,prep,868,868,0,596609.092,0.685,-0.677,0.194,0.188,0,0,0,0,0,0,0,0,0,0.000,0,0,0.066,0.003,-0.020,-0.060,-0.020,0.015,0.992,0.011,-0.002,-0.002,0.002,0.000,0.000,0.000,0.000,0,2,0,1,7,255,1200,300,0,0,-89.507,0.634,-31.323
EX0521-092111,9,C05,prep,868,868,0,596614.092,0.685,-0.677,0.194,0.188,0,0,0,0,0,0,0,0,0,0.000,0,0,0.075,0.003,0.040,-0.060,-0.020,0.015,0.993,0.011,0.002,-0.002,-0.002,0.000,0.000,0.000,0.000,0,2,0,1,7,255,1200,300,0,0,-89.507,0.634,-31.323
EX0521-092111,9,C05,prep,869,869,0,596619.092,0.685,-0.677,0.194,0.188,0,0,0,0,0,0,0,0,0,0.000,0,0,0.123,0.003,-0.020,-0.120,-0.020,0.014,0.993,0.011,0.002,-0.002,-0.008,0.000,0.000,0.000,0.000,0,2,0,1,7,255,1200,300,0,0,-89.508,0.634,-31.323
EX0521-092111,9,C05,prep,869,869,0,596624.091,0.685,-0.677,0.194,0.188,0,0,0,0,0,0,0,0,0,0.000,0,0,0.085,0.000,-0.080,0.020,-0.020,0.014,0.993,0.011,0.000,0.000,-0.008,0.000,0.000,0.000,0.000,0,2,0,1,7,255,1200,300,0,0,-89.508,0.634,-31.323
EX0521-092111,9,C05,prep,879,879,0,596629.091,0.685,-0.677,0.194,0.188,0,0,0,0,0,0,0,0,0,0.000,0,0,0.066,0.004,-0.020,-0.060,-0.020,0.014,0.993,0.011,0.000,0.004,-0.008,0.000,0.000,0.000,0.000,0,2,0,1,7,255,1200,300,0,0,-89.508,0.634,-31.323
EX0521-092111,9,C05,prep,879,879,0,596634.091,0.685,-0.677,0.194,0.188,0,0,0,0,0,0,0,0,0,0.000,0,0,0.066,0.004,-0.020,-0.060,-0.020,0.014,0.992,0.013,0.000,0.004,-0.008,0.000,0.000,0.000,0.000,0,2,0,1,7,255,1200,300,0,0,-89.508,0.634,-31.323
EX0521-092111,9,C05,prep,901,901,0,596639.092,0.685,-0.677,0.194,0.188,0,0,0,0,0,0,0,0,0,0.000,0,0,0.075,0.006,0.040,-0.060,-0.020,0.015,0.993,0.011,0.000,-0.006,-0.008,0.000,0.000,0.000,0.000,0,2,0,1,7,255,1200,300,0,0,-89.508,0.634,-31.323
EX0521-092111,9,C05,prep,901,901,0,596644.092,0.685,-0.677,0.194,0.188,0,0,0,0,0,0,0,0,0,0.000,0,0,0.066,0.007,-0.020,-0.060,-0.020,0.015,0.994,0.011,0.004,-0.006,-0.006,0.000,0.000,0.000,0.000,0,2,0,1,7,255,1200,300,0,0,-89.508,0.634,-31.323
EX0521-092111,9,C05,prep,903,903,0,596649.092,0.685,-0.677,0.194,0.188,0,0,0,0,0,0,0,0,0,0.000,0,0,0.049,0.004,0.040,0.020,-0.020,0.014,0.993,0.010,0.004,0.000,-0.002,0.000,0.000,0.000,0.000,0,2,0,1,7,255,1200,300,0,0,-89.508,0.634,-31.323
EX0521-092111,9,C05,prep,903,903,0,596654.092,0.685,-0.677,0.194,0.188,0,0,0,0,0,0,0,0,0,0.000,0,0,0.066,0.003,-0.020,-0.060,-0.020,0.014,0.994,0.011,0.002,0.002,0.002,0.000,0.000,0.000,0.000,0,2,0,1,7,255,1200,300,0,0,-89.508,0.634,-31.323
EX0521-092111,9,C05,prep,934,934,0,596659.092,0.685,-0.677,0.194,0.188,0,0,0,0,0,0,0,0,0,0.000,0,0,0.049,0.004,-0.020,-0.040,-0.020,0.014,0.993,0.011,0.000,0.004,-0.002,0.000,0.000,0.000,0.000,0,2,0,1,7,255,1200,300,0,0,-89.509,0.634,-31.323
EX0521-092111,9,C05,prep,934,934,0,596664.091,0.685,-0.677,0.194,0.188,0,0,0,0,0,0,0,0,0,0.000,0,0,0.108,0.002,0.060,-0.040,-0.080,0.015,0.993,0.011,0.000,0.002,-0.002,0.000,0.000,0.000,0.000,0,2,0,1,7,255,1200,300,0,0,-89.509,0.634,-31.323
EX0521-092111,9,C05,prep,967,967,0,596669.091,0.685,-0.677,0.194,0.188,0,0,0,0,0,0,0,0,0,0.000,0,0,0.049,0.000,-0.020,-0.040,-0.020,0.014,0.993,0.012,0.000,0.000,-0.006,0.000,0.000,0.000,0.000,0,2,0,1,7,255,1200,300,0,0,-89.509,0.634,-31.323
EX0521-092111,9,C05,prep,967,967,0,596674.093,0.685,-0.677,0.194,0.188,0,0,0,0,0,0,0,0,0,0.000,0,0,0.092,0.007,-0.020,-0.040,-0.080,0.015,0.993,0.011,0.004,-0.006,-0.006,0.000,0.000,0.000,0.000,0,2,0,1,7,255,1200,300,0,0,-89.509,0.634,-31.323
EX0521-092111,9,C05,prep,967,967,0,596679.091,0.685,-0.677,0.194,0.188,0,0,0,0,0,0,0,0,0,0.000,0,0,0.049,0.008,-0.020,-0.040,-0.020,0.015,0.992,0.010,0.006,-0.006,-0.006,0.000,0.000,0.000,0.000,0,2,0,1,7,255,1200,300,0,0,-89.509,0.634,-31.323
EX0521-092111,9,C05,prep,967,967,0,596684.092,0.685,-0.677,0.194,0.188,0,0,0,0,0,0,0,0,0,0.000,0,0,0.075,0.006,0.060,-0.040,-0.020,0.015,0.993,0.011,0.006,0.000,-0.006,0.000,0.000,0.000,0.000,0,2,0,1,7,255,1200,300,0,0,-89.509,0.634,-31.323
EX0521-092111,9,C05,prep,975,975,0,596689.092,0.685,-0.677,0.194,0.188,0,0,0,0,0,0,0,0,0,0.000,0,0,0.049,0.004,-0.020,-0.040,-0.020,0.015,0.993,0.011,0.004,0.000,-0.006,0.000,0.000,0.000,0.000,0,2,0,1,7,255,1200,300,0,0,-89.509,0.634,-31.323
EX0521-092111,9,C05,prep,975,975,0,596694.092,0.685,-0.677,0.194,0.188,0,0,0,0,0,0,0,0,0,0.000,0,0,0.075,0.004,0.060,-0.040,-0.020,0.013,0.994,0.012,0.004,0.000,-0.002,0.000,0.000,0.000,0.000,0,2,0,1,7,255,1200,300,0,0,-89.510,0.634,-31.323
EX0521-092111,9,C05,prep,975,975,0,596699.092,0.685,-0.677,0.194,0.188,0,0,0,0,0,0,0,0,0,0.000,0,0,0.049,0.006,-0.020,-0.040,-0.020,0.014,0.993,0.012,-0.006,0.000,-0.006,0.000,0.000,0.000,0.000,0,2,0,1,7,255,1200,300,0,0,-89.510,0.634,-31.323
EX0521-092111,9,C05,prep,975,975,0,596704.092,0.685,-0.677,0.194,0.188,0,0,0,0,0,0,0,0,0,0.000,0,0,0.092,0.006,-0.080,-0.040,-0.020,0.014,0.993,0.010,-0.006,0.000,-0.002,0.000,0.000,0.000,0.000,0,2,0,1,7,255,1200,300,0,0,-89.510,0.634,-31.323
EX0521-092111,9,C05,prep,975,975,0,596709.091,0.685,-0.677,0.194,0.188,0,0,0,0,0,0,0,0,0,0.000,0,0,0.082,0.006,0.040,-0.060,-0.040,0.014,0.993,0.011,-0.006,0.002,-0.006,0.000,0.000,0.000,0.000,0,2,0,1,7,255,1200,300,0,0,-89.510,0.634,-31.323
EX0521-092111,9,C05,prep,975,975,0,596714.092,0.685,-0.677,0.194,0.188,0,0,0,0,0,0,0,0,0,0.000,0,0,0.082,0.002,0.040,-0.060,-0.040,0.014,0.994,0.011,0.000,0.002,-0.002,0.000,0.000,0.000,0.000,0,2,0,1,7,255,1200,300,0,0,-89.510,0.634,-31.323
EX0521-092111,9,C05,prep,975,975,0,596719.091,0.685,-0.677,0.194,0.188,0,0,0,0,0,0,0,0,0,0.000,0,0,0.118,0.006,-0.020,-0.060,-0.100,0.014,0.994,0.012,-0.006,0.002,0.002,0.000,0.000,0.000,0.000,0,2,0,1,7,255,1200,300,0,0,-89.510,0.634,-31.323
EX0521-092111,9,C05,prep,975,975,0,596724.091,0.685,-0.677,0.194,0.188,0,0,0,0,0,0,0,0,0,0.000,0,0,0.082,0.006,0.040,-0.060,-0.040,0.014,0.993,0.011,-0.006,0.002,0.002,0.000,0.000,0.000,0.000,0,2,0,1,7,255,1200,300,0,0,-89.510,0.634,-31.323
EX0521-092111,9,C05,prep,975,975,0,596729.092,0.685,-0.677,0.194,0.188,0,0,0,0,0,0,0,0,0,0.000,0,0,0.075,0.006,-0.020,-0.060,-0.040,0.015,0.994,0.011,-0.006,-0.002,0.002,0.000,0.000,0.000,0.000,0,2,0,1,7,255,1200,300,0,0,-89.510,0.634,-31.323
EX0521-092111,9,C05,prep,975,975,0,596734.092,0.685,-0.677,0.194,0.188,0,0,0,0,0,0,0,0,0,0.000,0,0,0.118,0.003,-0.020,-0.060,-0.100,0.015,0.994,0.010,0.002,0.002,0.002,0.000,0.000,0.000,0.000,0,2,0,1,7,255,1200,300,0,0,-89.511,0.634,-31.323
EX0521-092111,9,C05,prep,1001,1001,0,596739.092,0.685,-0.677,0.194,0.188,0,0,0,0,0,0,0,0,0,0.000,0,0,0.075,0.004,0.040,-0.060,0.020,0.015,0.993,0.012,0.002,-0.004,0.002,0.000,0.000,0.000,0.000,0,2,0,1,7,255,1200,300,0,0,-89.511,0.634,-31.323
EX0521-092111,9,C05,prep,1001,1001,0,596744.092,0.685,-0.677,0.194,0.188,0,0,0,0,0,0,0,0,0,0.000,0,0,0.075,0.007,-0.020,-0.060,-0.040,0.015,0.993,0.010,0.006,0.004,-0.002,0.000,0.000,0.000,0.000,0,2,0,1,7,255,1200,300,0,0,-89.511,0.633,-31.323
EX0521-092111,9,C05,prep,1012,1012,0,596749.091,0.685,-0.677,0.194,0.188,0,0,0,0,0,0,0,0,0,0.000,0,0,0.075,0.008,-0.020,-0.060,-0.040,0.015,0.994,0.011,0.006,-0.006,-0.002,0.000,0.000,0.000,0.000,0,2,0,1,7,255,1200,300,0,0,-89.511,0.633,-31.323
EX0521-092111,9,C05,prep,1012,1012,0,596754.091,0.685,-0.677,0.194,0.188,0,0,0,0,0,0,0,0,0,0.000,0,0,0.057,0.008,0.040,0.000,-0.040,0.015,0.992,0.012,0.006,-0.006,-0.002,0.000,0.000,0.000,0.000,0,2,0,1,7,255,1200,300,0,0,-89.511,0.633,-31.323
EX0521-092111,9,C05,prep,1013,1013,0,596759.093,0.685,-0.677,0.194,0.188,0,0,0,0,0,0,0,0,0,0.000,0,0,0.057,0.006,0.040,0.000,-0.040,0.014,0.994,0.011,-0.002,-0.006,0.002,0.000,0.000,0.000,0.000,0,2,0,1,7,255,1200,300,0,0,-89.511,0.633,-31.323
EX0521-092111,9,C05,prep,1013,1013,0,596764.091,0.685,-0.677,0.194,0.188,0,0,0,0,0,0,0,0,0,0.000,0,0,0.075,0.003,-0.020,-0.060,-0.040,0.014,0.993,0.011,-0.002,-0.002,-0.002,0.000,0.000,0.000,0.000,0,2,0,1,7,255,1200,300,0,0,-89.511,0.633,-31.323
EX0521-092111,9,C05,prep,1039,1039,0,596769.091,0.685,-0.677,0.194,0.188,0,0,0,0,0,0,0,0,0,0.000,0,0,0.075,0.003,-0.020,-0.060,-0.040,0.014,0.993,0.011,-0.002,-0.002,-0.002,0.000,0.000,0.000,0.000,0,2,0,1,7,255,1200,300,0,0,-89.511,0.633,-31.323
EX0521-092111,9,C05,prep,1039,1039,0,596774.095,0.685,-0.677,0.194,0.188,0,0,0,0,0,0,0,0,0,0.000,0,0,0.082,0.002,0.040,-0.060,-0.040,0.015,0.993,0.012,0.000,-0.002,-0.002,0.000,0.000,0.000,0.000,0,2,0,1,7,255,1200,300,0,0,-89.512,0.633,-31.323
EX0521-092111,9,C05,prep,1039,1039,0,596779.092,0.685,-0.677,0.194,0.188,0,0,0,0,0,0,0,0,0,0.000,0,0,0.082,0.006,0.040,-0.060,-0.040,0.014,0.994,0.012,-0.002,-0.006,-0.002,0.000,0.000,0.000,0.000,0,2,0,1,7,255,1200,300,0,0,-89.512,0.633,-31.323
EX0521-092111,9,C05,prep,1039,1039,0,596784.093,0.685,-0.677,0.194,0.188,0,0,0,0,0,0,0,0,0,0.000,0,0,0.045,0.007,-0.020,0.000,-0.040,0.014,0.993,0.011,-0.004,-0.006,-0.002,0.000,0.000,0.000,0.000,0,2,0,1,7,255,1200,300,0,0,-89.512,0.633,-31.323
EX0521-092111,9,C05,prep,1039,1039,0,596789.092,0.685,-0.677,0.194,0.188,0,0,0,0,0,0,0,0,0,0.000,0,0,0.082,0.006,0.040,-0.060,-0.040,0.015,0.993,0.011,-0.004,-0.004,-0.002,0.000,0.000,0.000,0.000,0,2,0,1,7,255,1200,300,0,0,-89.512,0.633,-31.323
EX0521-092111,9,C05,prep,1039,1039,0,596794.091,0.685,-0.677,0.194,0.188,0,0,0,0,0,0,0,0,0,0.000,0,0,0.075,0.006,-0.020,-0.060,-0.040,0.014,0.994,0.012,-0.004,-0.004,-0.002,0.000,0.000,0.000,0.000,0,2,0,1,7,255,1200,300,0,0,-89.512,0.633,-31.323
EX0521-092111,9,C05,prep,1062,1062,0,596799.091,0.685,-0.677,0.194,0.188,0,0,0,0,0,0,0,0,0,0.000,0,0,0.075,0.004,-0.020,-0.060,-0.040,0.015,0.994,0.011,0.002,-0.004,0.002,0.000,0.000,0.000,0.000,0,2,0,1,7,255,1200,300,0,0,-89.512,0.633,-31.323
EX0521-092111,9,C05,prep,1062,1062,0,596804.091,0.685,-0.677,0.194,0.188,0,0,0,0,0,0,0,0,0,0.000,0,0,0.108,0.003,-0.080,-0.060,-0.040,0.014,0.994,0.010,0.002,-0.002,0.002,0.000,0.000,0.000,0.000,0,2,0,1,7,255,1200,300,0,0,-89.512,0.633,-31.323
EX0521-092111,9,C05,prep,1062,1062,0,596809.091,0.685,-0.677,0.194,0.188,0,0,0,0,0,0,0,0,0,0.000,0,0,0.128,0.007,-0.080,0.000,-0.100,0.015,0.994,0.010,0.006,0.004,0.002,0.000,0.000,0.000,0.000,0,2,0,1,7,255,1200,300,0,0,-89.513,0.633,-31.323
EX0521-092111,9,C05,prep,1062,1062,0,596814.092,0.685,-0.677,0.194,0.188,0,0,0,0,0,0,0,0,0,0.000,0,0,0.075,0.004,-0.020,-0.060,-0.040,0.014,0.992,0.011,0.002,0.004,0.002,0.000,0.000,0.000,0.000,0,2,0,1,7,255,1200,300,0,0,-89.513,0.633,-31.323
EX0521-092111,9,C05,prep,1071,1071,0,596819.092,0.685,-0.677,0.194,0.188,0,0,0,0,0,0,0,0,0,0.000,0,0,0.075,0.003,-0.020,-0.060,-0.040,0.015,0.992,0.011,0.002,-0.002,-0.016,0.000,0.000,0.000,0.000,0,2,0,1,7,255,1200,300,0,0,-89.513,0.633,-31.323
EX0521-092111,9,C05,prep,1071,1071,0,596824.092,0.685,-0.677,0.194,0.188,0,0,0,0,0,0,0,0,0,0.000,0,0,0.045,0.003,-0.020,0.000,-0.040,0.014,0.993,0.011,-0.002,-0.002,-0.016,0.000,0.000,0.000,0.000,0,2,0,1,7,255,1200,300,0,0,-89.513,0.633,-31.323
EX0521-092111,9,C05,prep,1071,1071,0,596829.092,0.685,-0.677,0.194,0.188,0,0,0,0,0,0,0,0,0,0.000,0,0,0.108,0.002,-0.080,-0.060,-0.040,0.014,0.994,0.011,0.000,-0.002,-0.002,0.000,0.000,0.000,0.000,0,2,0,1,7,255,1200,300,0,0,-89.513,0.633,-31.323
EX0521-092111,9,C05,prep,1071,1071,0,596834.092,0.685,-0.677,0.194,0.188,0,0,0,0,0,0,0,0,0,0.000,0,0,0.123,0.002,0.040,-0.060,-0.100,0.016,0.993,0.011,0.000,-0.002,-0.002,0.000,0.000,0.000,0.000,0,2,0,1,7,255,1200,300,0,0,-89.513,0.633,-31.323
EX0521-092111,9,C05,prep,1097,1097,0,596839.091,0.685,-0.677,0.194,0.188,0,0,0,0,0,0,0,0,0,0.000,0,0,0.075,0.004,-0.020,-0.060,-0.040,0.015,0.993,0.011,0.002,-0.004,-0.002,0.000,0.000,0.000,0.000,0,2,0,1,7,255,1200,300,0,0,-89.513,0.633,-31.323
EX0521-092111,9,C05,prep,1097,1097,0,596844.091,0.685,-0.677,0.194,0.188,0,0,0,0,0,0,0,0,0,0.000,0,0,0.128,0.009,-0.020,-0.120,-0.040,0.015,0.992,0.011,0.008,-0.004,-0.002,0.000,0.000,0.000,0.000,0,2,0,1,7,255,1200,300,0,0,-89.513,0.633,-31.323
EX0521-092111,9,C05,prep,1098,1098,0,596849.091,0.685,-0.677,0.194,0.188,0,0,0,0,0,0,0,0,0,0.000,0,0,0.118,0.004,-0.020,-0.060,-0.100,0.015,0.994,0.011,0.002,-0.004,-0.002,0.000,0.000,0.000,0.000,0,2,0,1,7,255,1200,300,0,0,-89.514,0.633,-31.323
EX0521-092111,9,C05,prep,1098,1098,0,596854.091,0.685,-0.677,0.194,0.188,0,0,0,0,0,0,0,0,0,0.000,0,0,0.108,0.002,-0.080,-0.060,-0.040,0.014,0.993,0.011,0.000,-0.002,-0.006,0.000,0.000,0.000,0.000,0,2,0,1,7,255,1200,300,0,0,-89.514,0.633,-31.323
EX0521-092111,9,C05,prep,1103,1103,0,596859.092,0.685,-0.677,0.194,0.188,0,0,0,0,0,0,0,0,0,0.000,0,0,0.102,0.000,-0.020,-0.060,-0.080,0.015,0.994,0.011,0.000,0.000,0.004,0.000,0.000,0.000,0.000,0,2,0,1,7,255,1200,300,0,0,-89.514,0.633,-31.323
EX0521-092111,9,C05,prep,1103,1103,0,596864.092,0.685,-0.677,0.194,0.188,0,0,0,0,0,0,0,0,0,0.000,0,0,0.066,0.004,-0.020,-0.060,-0.020,0.014,0.994,0.011,-0.004,0.002,0.004,0.000,0.000,0.000,0.000,0,2,0,1,7,255,1200,300,0,0,-89.514,0.633,-31.323
EX0521-092111,9,C05,prep,1133,1133,0,596869.092,0.685,-0.677,0.194,0.188,0,0,0,0,0,0,0,0,0,0.000,0,0,0.066,0.004,-0.020,-0.060,-0.020,0.014,0.993,0.012,-0.004,0.000,0.004,0.000,0.000,0.000,0.000,0,2,0,1,7,255,1200,300,0,0,-89.514,0.633,-31.323
EX0521-092111,9,C05,prep,1133,1133,0,596874.092,0.685,-0.677,0.194,0.188,0,0,0,0,0,0,0,0,0,0.000,0,0,0.075,0.006,0.040,-0.060,-0.020,0.014,0.994,0.011,-0.006,0.002,0.008,0.000,0.000,0.000,0.000,0,2,0,1,7,255,1200,300,0,0,-89.514,0.633,-31.323
EX0521-092111,9,C05,prep,1134,1134,0,596879.092,0.685,-0.677,0.194,0.188,0,0,0,0,0,0,0,0,0,0.000,0,0,0.075,0.006,-0.020,-0.060,0.040,0.014,0.994,0.011,-0.006,0.002,0.004,0.000,0.000,0.000,0.000,0,2,0,1,7,255,1200,300,0,0,-89.514,0.633,-31.323
EX0521-092111,9,C05,prep,1134,1134,0,596884.093,0.685,-0.677,0.194,0.188,0,0,0,0,0,0,0,0,0,0.000,0,0,0.146,0.006,-0.020,-0.120,-0.080,0.014,0.993,0.011,-0.004,0.004,0.004,0.000,0.000,0.000,0.000,0,2,0,1,7,255,1200,300,0,0,-89.515,0.632,-31.323
EX0521-092111,9,C05,prep,1165,1165,0,596889.091,0.685,-0.677,0.194,0.188,0,0,0,0,0,0,0,0,0,0.000,0,0,0.035,0.006,-0.020,0.020,-0.020,0.014,0.994,0.012,-0.004,0.004,0.004,0.000,0.000,0.000,0.000,0,2,0,1,7,255,1200,300,0,0,-89.515,0.632,-31.323
EX0521-092111,9,C05,prep,1165,1165,0,596894.091,0.685,-0.677,0.194,0.188,0,0,0,0,0,0,0,0,0,0.000,0,0,0.066,0.008,-0.020,-0.060,-0.020,0.014,0.993,0.012,-0.006,-0.006,-0.006,0.000,0.000,0.000,0.000,0,2,0,1,7,255,1200,300,0,0,-89.515,0.632,-31.323
EX0521-092111,9,C05,prep,1165,1165,0,596899.092,0.685,-0.677,0.194,0.188,0,0,0,0,0,0,0,0,0,0.000,0,0,0.102,0.008,-0.080,-0.060,-0.020,0.016,0.993,0.011,-0.006,-0.006,-0.002,0.000,0.000,0.000,0.000,0,2,0,1,7,255,1200,300,0,0,-89.515,0.632,-31.323
EX0521-092111,9,C05,prep,1165,1165,0,596904.092,0.685,-0.677,0.194,0.188,0,0,0,0,0,0,0,0,0,0.000,0,0,0.102,0.006,-0.020,-0.060,-0.080,0.014,0.994,0.010,0.002,-0.006,-0.002,0.000,0.000,0.000,0.000,0,2,0,1,7,255,1200,300,0,0,-89.515,0.632,-31.323
EX0521-092111,9,C05,prep,1166,1166,0,596909.092,0.685,-0.677,0.194,0.188,0,0,0,0,0,0,0,0,0,0.000,0,0,0.082,0.008,0.040,-0.060,-0.040,0.015,0.992,0.012,0.002,-0.008,-0.002,0.000,0.000,0.000,0.000,0,2,0,1,7,255,1200,300,0,0,-89.515,0.632,-31.323
EX0521-092111,9,C05,prep,1166,1166,0,596914.092,0.685,-0.677,0.194,0.188,0,0,0,0,0,0,0,0,0,0.000,0,0,0.075,0.004,-0.020,-0.060,-0.040,0.015,0.994,0.011,0.002,-0.004,0.004,0.000,0.000,0.000,0.000,0,2,0,1,7,255,1200,300,0,0,-89.515,0.632,-31.323
EX0521-092111,9,C05,prep,1166,1166,0,596919.092,0.685,-0.677,0.194,0.188,0,0,0,0,0,0,0,0,0,0.000,0,0,0.082,0.004,0.040,-0.060,-0.040,0.014,0.993,0.011,0.000,-0.004,-0.006,0.000,0.000,0.000,0.000,0,2,0,1,7,255,1200,300,0,0,-89.515,0.632,-31.323
EX0521-092111,9,C05,prep,1166,1166,0,596924.091,0.685,-0.677,0.194,0.188,0,0,0,0,0,0,0,0,0,0.000,0,0,0.075,0.002,-0.020,-0.060,-0.040,0.015,0.993,0.011,0.002,0.000,-0.006,0.000,0.000,0.000,0.000,0,2,0,1,7,255,1200,300,0,0,-89.516,0.632,-31.323
EX0521-092111,9,C05,prep,1183,1183,0,596929.091,0.685,-0.677,0.194,0.188,0,0,0,0,0,0,0,0,0,0.000,0,0,0.118,0.000,-0.020,-0.060,-0.100,0.014,0.993,0.011,0.000,0.000,-0.006,0.000,0.000,0.000,0.000,0,2,0,1,7,255,1200,300,0,0,-89.516,0.632,-31.323
EX0521-092111,9,C05,prep,1183,1183,0,596934.091,0.685,-0.677,0.194,0.188,0,0,0,0,0,0,0,0,0,0.000,0,0,0.045,0.003,-0.020,0.000,-0.040,0.015,0.994,0.011,0.002,-0.002,-0.002,0.000,0.000,0.000,0.000,0,2,0,1,7,255,1200,300,0,0,-89.516,0.632,-31.323
EX0521-092111,9,C05,prep,1183,1183,0,596939.092,0.685,-0.677,0.194,0.188,0,0,0,0,0,0,0,0,0,0.000,0,0,0.075,0.003,-0.020,-0.060,-0.040,0.014,0.994,0.011,-0.002,-0.002,0.004,0.000,0.000,0.000,0.000,0,2,0,1,7,255,1200,300,0,0,-89.516,0.632,-31.323
EX0521-092111,9,C05,prep,1183,1183,0,596944.092,0.685,-0.677,0.194,0.188,0,0,0,0,0,0,0,0,0,0.000,0,0,0.075,0.004,-0.020,-0.060,-0.040,0.015,0.994,0.011,0.002,-0.004,0.004,0.000,0.000,0.000,0.000,0,2,0,1,7,255,1200,300,0,0,-89.516,0.632,-31.323
EX0521-092111,9,C05,prep,1200,1200,0,596949.092,0.685,-0.677,0.194,0.188,0,0,0,0,0,0,0,0,0,0.000,0,0,0.057,0.003,0.040,0.000,-0.040,0.014,0.992,0.011,-0.002,-0.002,0.004,0.000,0.000,0.000,0.000,0,2,0,1,7,255,1200,300,0,0,-89.516,0.632,-31.323
EX0521-092111,9,C05,prep,1200,1200,0,596954.092,0.685,-0.677,0.194,0.188,0,0,0,0,0,0,0,0,0,0.000,0,0,0.123,0.003,0.040,-0.060,-0.100,0.014,0.993,0.011,-0.002,-0.002,-0.002,0.000,0.000,0.000,0.000,0,2,0,1,7,255,1200,300,0,0,-89.516,0.632,-31.323
EX0521-092111,9,C05,prep,1235,1235,0,596959.093,0.685,-0.677,0.194,0.188,0,0,0,0,0,0,0,0,0,0.000,0,0,0.049,0.003,-0.020,-0.040,-0.020,0.015,0.993,0.011,-0.002,-0.002,-0.002,0.000,0.000,0.000,0.000,0,2,0,1,7,255,1200,300,0,0,-89.516,0.632,-31.323
EX0521-092111,9,C05,prep,1235,1235,0,596964.092,0.685,-0.677,0.194,0.188,0,0,0,0,0,0,0,0,0,0.000,0,0,0.120,0.003,-0.080,-0.040,-0.080,0.013,0.994,0.012,-0.002,-0.002,-0.002,0.000,0.000,0.000,0.000,0,2,0,1,7,255,1200,300,0,0,-89.517,0.632,-31.323
EX0521-092111,9,C05,prep,1280,1280,0,596969.091,0.685,-0.677,0.194,0.188,0,0,0,0,0,0,0,0,0,0.000,0,0,0.082,0.007,0.060,-0.040,0.040,0.014,0.993,0.012,-0.006,-0.004,-0.002,0.000,0.000,0.000,0.000,0,2,0,1,7,255,1200,300,0,0,-89.517,0.632,-31.323
EX0521-092111,9,C05,prep,1280,1280,0,596974.094,0.685,-0.677,0.194,0.188,0,0,0,0,0,0,0,0,0,0.000,0,0,0.075,0.008,0.060,-0.040,-0.020,0.016,0.993,0.011,-0.006,-0.006,-0.002,0.000,0.000,0.000,0.000,0,2,0,1,7,255,1200,300,0,0,-89.517,0.632,-31.323
EX0521-092111,9,C05,prep,1280,1280,0,596979.091,0.685,-0.677,0.194,0.188,0,0,0,0,0,0,0,0,0,0.000,0,0,0.075,0.008,0.060,-0.040,-0.020,0.015,0.994,0.010,0.006,-0.006,-0.002,0.000,0.000,0.000,0.000,0,2,0,1,7,255,1200,300,0,0,-89.517,0.632,-31.323
