t_ms,L_q0,L_q1,L_q2,L_q3,L_heel1,L_mid1,L_fore1,L_heel2,L_fore3,L_mid2,L_fore4,L_fore2,L_cadence,L_speed,L_steps,L_zupt,L_gyroNorm,L_accH,L_gyro_x,L_gyro_y,L_gyro_z,L_acc_x,L_acc_y,L_acc_z,L_nav_ax,L_nav_ay,L_nav_az,L_stepVel,L_stepVelj,L_stepDispRaw,L_stepDispZUPT,L_gaitEvent,L_motorMode,L_motorActive,L_motorAlignment,L_motorRegionMask,L_motorAmplitude,L_motorIntervalMs,L_motorDurationMs,L_motorPhaseMs,L_motorCycleMs,L_roll,L_pitch,L_yaw,L_relativeRoll,L_relativePitch,L_relativeYaw
10600.812,1.000,0.018,-0.000,0.000,77,71,86,65,23,0,46,52,0,0.000,0,0,0.115,0.008,0.100,0.040,0.040,-0.001,-0.038,1.002,0.002,0.008,0.002,0.000,0.000,0.000,0.000,0,0,0,0,7,255,0,250,0,0,2.111,-0.043,-0.001,2.111,-0.043,-0.001
10605.811,1.000,0.018,-0.000,0.000,93,100,59,79,26,0,40,43,0,0.000,0,0,0.110,0.008,0.100,-0.020,0.040,-0.001,-0.037,1.002,-0.002,-0.008,-0.002,0.000,0.000,0.000,0.000,0,0,0,0,7,255,0,250,0,0,2.111,-0.043,-0.001,2.111,-0.043,-0.001
10610.811,1.000,0.018,-0.000,0.000,63,95,73,47,47,0,64,25,0,0.000,0,0,0.110,0.008,0.100,-0.020,0.040,0.000,-0.036,1.002,-0.002,-0.008,-0.002,0.000,0.000,0.000,0.000,0,0,0,0,7,255,0,250,0,0,2.111,-0.043,-0.001,2.111,-0.043,-0.001
10615.811,1.000,0.018,-0.000,0.000,79,92,75,61,35,0,42,39,0,0.000,0,0,0.110,0.003,0.100,-0.020,0.040,0.000,-0.037,1.002,0.002,-0.002,-0.002,0.000,0.000,0.000,0.000,0,0,0,0,7,255,0,250,0,0,2.111,-0.043,-0.001,2.111,-0.043,-0.001
10620.811,1.000,0.018,-0.000,0.000,87,93,57,64,39,3,40,21,0,0.000,0,0,0.110,0.003,0.100,-0.020,0.040,0.000,-0.036,1.002,0.002,0.002,-0.002,0.000,0.000,0.000,0.000,0,0,0,0,7,255,0,250,0,0,2.111,-0.043,-0.001,2.111,-0.043,-0.001
10625.811,1.000,0.018,-0.000,0.000,81,71,89,77,27,5,56,44,0,0.000,0,0,0.060,0.003,0.040,-0.020,0.040,-0.001,-0.036,1.002,0.002,0.002,-0.002,0.000,0.000,0.000,0.000,0,0,0,0,7,255,0,250,0,0,2.111,-0.043,-0.001,2.111,-0.043,-0.001
10630.811,1.000,0.018,-0.000,0.000,57,77,87,68,20,0,44,43,0,0.000,0,0,0.060,0.003,-0.020,0.040,0.040,-0.001,-0.037,1.002,-0.002,0.002,-0.002,0.000,0.000,0.000,0.000,0,0,0,0,7,255,0,250,0,0,2.111,-0.043,-0.001,2.111,-0.043,-0.001
10635.811,1.000,0.018,-0.000,0.000,57,90,49,44,36,5,49,12,0,0.000,0,0,0.060,0.006,0.040,-0.020,0.040,-0.001,-0.037,1.003,-0.002,-0.006,-0.002,0.000,0.000,0.000,0.000,0,0,0,0,7,255,0,250,0,0,2.111,-0.043,-0.001,2.111,-0.043,-0.001
10640.811,1.000,0.018,-0.000,0.000,55,71,88,43,46,4,76,25,0,0.000,0,0,0.110,0.008,0.100,-0.020,0.040,-0.001,-0.037,1.002,-0.002,-0.008,-0.006,0.000,0.000,0.000,0.000,0,0,0,0,7,255,0,250,0,0,2.111,-0.043,-0.001,2.111,-0.043,-0.001
10645.811,1.000,0.018,-0.000,0.000,69,96,59,45,37,0,43,11,0,0.000,0,0,0.115,0.008,0.100,0.040,0.040,0.000,-0.038,1.002,-0.002,-0.008,-0.006,0.000,0.000,0.000,0.000,0,0,0,0,7,255,0,250,0,0,2.111,-0.043,-0.001,2.111,-0.043,-0.001
10650.811,1.000,0.018,-0.000,0.000,55,90,61,39,50,7,70,18,0,0.000,0,0,0.110,0.008,0.100,0.040,-0.020,-0.001,-0.037,1.002,-0.002,-0.008,-0.006,0.000,0.000,0.000,0.000,0,0,0,0,7,255,0,250,0,0,2.111,-0.043,-0.001,2.111,-0.043,-0.001
10655.811,1.000,0.018,-0.000,0.000,61,75,93,69,33,0,69,43,0,0.000,0,0,0.060,0.003,0.040,-0.020,0.040,0.000,-0.036,1.002,0.002,-0.002,-0.006,0.000,0.000,0.000,0.000,0,0,0,0,7,255,0,250,0,0,2.111,-0.043,-0.001,2.111,-0.043,-0.001
10660.811,1.000,0.018,-0.000,0.000,85,92,61,51,39,0,43,23,0,0.000,0,0,0.110,0.003,0.100,-0.020,0.040,-0.001,-0.037,1.003,-0.002,-0.002,-0.002,0.000,0.000,0.000,0.000,0,0,0,0,7,255,0,250,0,0,2.111,-0.043,-0.001,2.111,-0.043,-0.001
10665.812,1.000,0.018,-0.000,0.000,67,95,88,43,49,6,75,26,0,0.000,0,0,0.060,0.003,0.040,-0.020,0.040,-0.001,-0.037,1.002,-0.002,-0.002,-0.002,0.000,0.000,0.000,0.000,0,0,0,0,7,255,0,250,0,0,2.111,-0.043,-0.001,2.111,-0.043,-0.001
10670.811,1.000,0.018,-0.000,0.000,91,87,87,84,30,0,43,42,0,0.000,0,0,0.060,0.006,0.040,-0.020,0.040,0.000,-0.037,1.003,-0.002,-0.006,0.004,0.000,0.000,0.000,0.000,0,0,0,0,7,255,0,250,0,0,2.111,-0.043,-0.001,2.111,-0.043,-0.001
10675.811,1.000,0.018,-0.000,0.000,89,101,59,79,25,0,49,31,0,0.000,0,0,0.069,0.006,0.040,0.040,0.040,-0.001,-0.038,1.003,-0.002,-0.006,0.004,0.000,0.000,0.000,0.000,0,0,0,0,7,255,0,250,0,0,2.111,-0.043,-0.001,2.111,-0.043,-0.001
10680.811,1.000,0.018,-0.000,0.000,88,86,58,72,33,0,45,49,0,0.000,0,0,0.060,0.006,0.040,-0.020,0.040,-0.001,-0.037,1.002,-0.002,-0.006,0.004,0.000,0.000,0.000,0.000,0,0,0,0,7,255,0,250,0,0,2.111,-0.043,-0.001,2.111,-0.043,-0.001
10685.811,1.000,0.018,-0.000,0.000,57,74,77,40,37,0,68,18,0,0.000,0,0,0.049,0.006,0.040,-0.020,-0.020,-0.001,-0.036,1.003,-0.002,-0.006,0.004,0.000,0.000,0.000,0.000,0,0,0,0,7,255,0,250,0,0,2.111,-0.043,-0.001,2.111,-0.043,-0.001
10690.811,1.000,0.018,-0.000,0.000,77,78,89,73,25,1,47,54,0,0.000,0,0,0.110,0.010,0.100,-0.020,0.040,-0.001,-0.038,1.003,-0.008,-0.006,0.008,0.000,0.000,0.000,0.000,0,0,0,0,7,255,0,250,0,0,2.111,-0.043,-0.001,2.111,-0.043,-0.001
10695.813,1.000,0.018,-0.000,0.000,48,74,85,67,28,2,47,53,0,0.000,0,0,0.069,0.009,0.040,0.040,0.040,-0.001,-0.036,1.003,-0.008,0.004,0.008,0.000,0.000,0.000,0.000,0,0,0,0,7,255,0,250,0,0,2.111,-0.043,-0.001,2.111,-0.043,-0.001
10700.811,1.000,0.018,-0.000,0.000,91,99,61,47,45,13,45,19,0,0.000,0,0,0.110,0.004,0.100,0.040,-0.020,0.000,-0.036,1.003,-0.002,0.004,0.008,0.000,0.000,0.000,0.000,0,0,0,0,7,255,0,250,0,0,2.111,-0.043,-0.001,2.111,-0.043,-0.001
10705.811,1.000,0.018,-0.000,0.000,82,99,59,67,37,0,39,17,0,0.000,0,0,0.104,0.004,0.100,-0.020,-0.020,-0.001,-0.037,1.003,-0.002,0.004,0.008,0.000,0.000,0.000,0.000,0,0,0,0,7,255,0,250,0,0,2.111,-0.043,-0.001,2.111,-0.043,-0.001
10710.811,1.000,0.018,-0.000,0.000,89,72,88,71,23,0,57,48,0,0.000,0,0,0.060,0.003,0.040,-0.020,0.040,-0.001,-0.037,1.002,-0.002,-0.002,0.004,0.000,0.000,0.000,0.000,0,0,0,0,7,255,0,250,0,0,2.111,-0.043,-0.001,2.111,-0.043,-0.001
10715.811,1.000,0.018,-0.000,0.000,91,100,58,79,21,0,42,26,0,0.000,0,0,0.110,0.006,0.100,-0.020,0.040,-0.001,-0.037,1.002,-0.002,-0.006,-0.002,0.000,0.000,0.000,0.000,0,0,0,0,7,255,0,250,0,0,2.111,-0.043,-0.001,2.111,-0.043,-0.001
10720.811,1.000,0.018,-0.000,0.000,83,89,86,69,31,2,48,6,0,0.000,0,0,0.069,0.006,0.040,0.040,0.040,-0.001,-0.036,1.002,-0.002,-0.006,-0.002,0.000,0.000,0.000,0.000,0,0,0,0,7,255,0,250,0,0,2.111,-0.043,-0.001,2.111,-0.043,-0.001
10725.811,1.000,0.018,-0.000,0.000,79,92,54,63,38,0,44,24,0,0.000,0,0,0.115,0.004,0.100,0.040,0.040,-0.001,-0.035,1.003,-0.002,0.004,-0.002,0.000,0.000,0.000,0.000,0,0,0,0,7,255,0,250,0,0,2.111,-0.043,-0.001,2.111,-0.043,-0.001
10730.811,1.000,0.018,-0.000,0.000,59,76,89,51,49,5,71,21,0,0.000,0,0,0.110,0.004,0.100,-0.020,0.040,0.000,-0.037,1.003,-0.002,0.004,0.002,0.000,0.000,0.000,0.000,0,0,0,0,7,255,0,250,0,0,2.111,-0.043,-0.001,2.111,-0.043,-0.001
10735.811,1.000,0.018,-0.000,0.000,77,71,83,67,22,0,45,40,0,0.000,0,0,0.110,0.003,0.100,-0.020,0.040,-0.001,-0.037,1.002,-0.002,-0.002,0.002,0.000,0.000,0.000,0.000,0,0,0,0,7,255,0,250,0,0,2.111,-0.043,-0.001,2.111,-0.043,-0.001
10740.811,1.000,0.018,-0.000,0.000,84,93,57,69,30,0,39,53,0,0.000,0,0,0.060,0.003,0.040,-0.020,0.040,0.000,-0.037,1.002,0.002,-0.002,-0.002,0.000,0.000,0.000,0.000,0,0,0,0,7,255,0,250,0,0,2.111,-0.043,-0.001,2.111,-0.043,-0.001
10745.811,1.000,0.018,-0.000,0.000,59,99,89,46,43,5,71,24,0,0.000,0,0,0.110,0.006,0.100,-0.020,0.040,0.000,-0.037,1.003,0.002,-0.006,-0.002,0.000,0.000,0.000,0.000,0,0,0,0,7,255,0,250,0,0,2.111,-0.043,-0.001,2.111,-0.043,-0.001
10750.811,1.000,0.018,-0.000,0.000,83,91,69,43,35,0,42,19,0,0.000,0,0,0.110,0.006,0.100,-0.020,0.040,0.000,-0.036,1.002,0.002,-0.006,-0.002,0.000,0.000,0.000,0.000,0,0,0,0,7,255,0,250,0,0,2.111,-0.043,-0.001,2.111,-0.043,-0.001
10755.813,1.000,0.018,-0.000,0.000,85,91,54,45,37,1,56,19,0,0.000,0,0,0.110,0.003,0.100,-0.020,0.040,-0.001,-0.037,1.003,0.002,-0.002,0.008,0.000,0.000,0.000,0.000,0,0,0,0,7,255,0,250,0,0,2.111,-0.043,-0.001,2.111,-0.043,-0.001
10760.811,1.000,0.018,-0.000,0.000,77,96,61,45,26,0,39,19,0,0.000,0,0,0.110,0.003,0.100,-0.020,0.040,0.000,-0.036,1.001,0.002,0.002,-0.002,0.000,0.000,0.000,0.000,0,0,0,0,7,255,0,250,0,0,2.111,-0.043,-0.001,2.111,-0.043,-0.001
10765.811,1.000,0.018,-0.000,0.000,57,78,59,39,33,1,63,20,0,0.000,0,0,0.115,0.003,0.100,0.040,0.040,0.000,-0.036,1.003,0.002,0.002,0.008,0.000,0.000,0.000,0.000,0,0,0,0,7,255,0,250,0,0,2.111,-0.043,-0.001,2.111,-0.043,-0.001
10770.813,1.000,0.018,-0.000,0.000,52,75,73,47,49,0,60,13,0,0.000,0,0,0.110,0.003,0.100,-0.020,0.040,-0.001,-0.037,1.004,0.002,0.002,0.008,0.000,0.000,0.000,0.000,0,0,0,0,7,255,0,250,0,0,2.111,-0.043,-0.001,2.111,-0.043,-0.001
10775.811,1.000,0.018,-0.000,0.000,79,70,101,87,16,0,49,55,0,0.000,0,0,0.110,0.003,0.100,-0.020,0.040,-0.001,-0.037,1.003,-0.002,-0.002,0.008,0.000,0.000,0.000,0.000,0,0,0,0,7,255,0,250,0,0,2.111,-0.043,-0.001,2.111,-0.043,-0.001
10780.811,1.000,0.018,-0.000,0.000,78,95,72,55,35,12,72,19,0,0.000,0,0,0.115,0.003,0.100,0.040,0.040,0.000,-0.036,1.003,-0.002,-0.002,0.004,0.000,0.000,0.000,0.000,0,0,0,0,7,255,0,250,0,0,2.111,-0.043,-0.001,2.111,-0.043,-0.001
10785.811,1.000,0.018,-0.000,0.000,61,92,64,51,46,1,61,24,0,0.000,0,0,0.060,0.003,0.040,-0.020,0.040,0.000,-0.037,1.003,0.002,-0.002,0.002,0.000,0.000,0.000,0.000,0,0,0,0,7,255,0,250,0,0,2.111,-0.043,-0.001,2.111,-0.043,-0.001
10790.811,1.000,0.018,-0.000,0.000,60,103,67,43,25,0,43,18,0,0.000,0,0,0.069,0.003,0.040,0.040,0.040,0.000,-0.036,1.002,0.002,0.002,0.002,0.000,0.000,0.000,0.000,0,0,0,0,7,255,0,250,0,0,2.111,-0.043,-0.001,2.111,-0.043,-0.001
10795.811,1.000,0.018,-0.000,0.000,59,61,95,47,37,13,84,40,0,0.000,0,0,0.069,0.003,0.040,0.040,0.040,0.000,-0.038,1.002,0.002,-0.002,-0.006,0.000,0.000,0.000,0.000,0,0,0,0,7,255,0,250,0,0,2.111,-0.043,-0.001,2.111,-0.043,-0.001
10800.812,1.000,0.018,-0.000,0.000,87,97,76,71,30,4,61,51,0,0.000,0,0,0.060,0.003,0.040,-0.020,0.040,0.000,-0.037,1.002,0.002,-0.002,-0.006,0.000,0.000,0.000,0.000,0,0,0,0,7,255,0,250,0,0,2.111,-0.043,-0.001,2.111,-0.043,-0.001
10805.811,1.000,0.018,-0.000,0.000,72,69,87,74,26,0,47,57,0,0.000,0,0,0.069,0.006,0.040,0.040,0.040,-0.001,-0.037,1.002,0.002,-0.006,-0.006,0.000,0.000,0.000,0.000,0,0,0,0,7,255,0,250,0,0,2.111,-0.043,-0.001,2.111,-0.043,-0.001
10810.811,1.000,0.018,-0.000,0.000,82,95,61,68,17,11,43,41,0,0.000,0,0,0.060,0.003,0.040,-0.020,0.040,0.000,-0.036,1.002,0.002,-0.002,-0.002,0.000,0.000,0.000,0.000,0,0,0,0,7,255,0,250,0,0,2.111,-0.043,-0.001,2.111,-0.043,-0.001
10815.811,1.000,0.018,-0.000,0.000,80,100,59,73,19,0,45,46,0,0.000,0,0,0.069,0.003,0.040,0.040,0.040,0.000,-0.037,1.002,0.002,-0.002,-0.002,0.000,0.000,0.000,0.000,0,0,0,0,7,255,0,250,0,0,2.111,-0.043,-0.001,2.111,-0.043,-0.001
10820.811,1.000,0.018,-0.000,0.000,59,61,91,47,29,0,73,43,0,0.000,0,0,0.147,0.004,0.100,0.040,0.100,-0.001,-0.036,1.002,0.002,0.004,-0.002,0.000,0.000,0.000,0.000,0,0,0,0,7,255,0,250,0,0,2.111,-0.043,-0.001,2.111,-0.043,-0.001
10825.811,1.000,0.018,-0.000,0.000,85,91,62,63,30,0,45,60,0,0.000,0,0,0.069,0.008,0.040,0.040,0.040,0.000,-0.036,1.003,0.002,0.008,-0.002,0.000,0.000,0.000,0.000,0,0,0,0,7,255,0,250,0,0,2.111,-0.043,-0.001,2.111,-0.043,-0.001
10830.811,1.000,0.018,-0.000,0.000,63,91,81,43,43,6,83,23,0,0.000,0,0,0.104,0.008,0.100,-0.020,-0.020,-0.001,-0.037,1.003,-0.002,0.008,0.002,0.000,0.000,0.000,0.000,0,0,0,0,7,255,0,250,0,0,2.111,-0.043,-0.001,2.111,-0.043,-0.001
10835.811,1.000,0.018,-0.000,0.000,51,71,92,37,55,10,84,16,0,0.000,0,0,0.110,0.008,0.100,0.040,-0.020,-0.001,-0.037,1.003,-0.008,-0.002,0.004,0.000,0.000,0.000,0.000,0,0,0,0,7,255,0,250,0,0,2.111,-0.043,-0.001,2.111,-0.043,-0.001
10840.811,1.000,0.018,-0.000,0.000,65,73,88,48,29,0,75,42,0,0.000,0,0,0.115,0.008,0.100,0.040,0.040,-0.001,-0.037,1.003,-0.008,-0.002,0.004,0.000,0.000,0.000,0.000,0,0,0,0,7,255,0,250,0,0,2.111,-0.043,-0.001,2.111,-0.043,-0.001
10845.811,1.000,0.018,-0.000,0.000,87,93,53,71,39,0,53,35,0,0.000,0,0,0.130,0.008,0.100,-0.080,-0.020,-0.002,-0.037,1.002,-0.008,-0.002,0.004,0.000,0.000,0.000,0.000,0,0,0,0,7,255,0,250,0,0,2.111,-0.043,-0.001,2.111,-0.043,-0.001
10850.811,1.000,0.018,-0.000,0.000,78,62,89,75,25,0,45,53,0,0.000,0,0,0.069,0.003,0.040,0.040,0.040,0.000,-0.036,1.001,-0.002,-0.002,-0.006,0.000,0.000,0.000,0.000,0,0,0,0,7,255,0,250,0,0,2.111,-0.043,-0.001,2.111,-0.043,-0.001
10855.811,1.000,0.018,-0.000,0.000,57,91,61,9,42,5,44,26,0,0.000,0,0,0.110,0.006,0.100,-0.020,0.040,-0.001,-0.036,1.002,-0.006,0.002,-0.006,0.000,0.000,0.000,0.000,0,0,0,0,7,255,0,250,0,0,2.111,-0.043,-0.001,2.111,-0.043,-0.001
10860.812,1.000,0.018,-0.000,0.000,67,95,61,49,52,9,57,17,0,0.000,0,0,0.170,0.003,0.160,0.040,0.040,-0.001,-0.037,1.002,-0.002,0.002,-0.002,0.000,0.000,0.000,0.000,0,0,0,0,7,255,0,250,0,0,2.111,-0.043,-0.001,2.111,-0.043,-0.001
10865.811,1.000,0.018,-0.000,0.000,62,91,59,45,47,0,54,12,0,0.000,0,0,0.049,0.004,0.020,-0.020,0.040,0.000,-0.036,1.002,-0.002,0.004,-0.002,0.000,0.000,0.000,0.000,0,0,0,0,7,255,0,250,0,0,2.111,-0.043,-0.001,2.111,-0.043,-0.001
10870.811,1.000,0.018,-0.000,0.000,79,89,56,63,36,1,36,21,0,0.000,0,0,0.060,0.004,0.020,0.040,0.040,-0.001,-0.036,1.003,-0.002,0.004,-0.002,0.000,0.000,0.000,0.000,0,0,0,0,7,255,0,250,0,0,2.111,-0.043,-0.001,2.111,-0.043,-0.001
10875.811,1.000,0.018,-0.000,0.000,87,88,49,59,34,8,35,27,0,0.000,0,0,0.049,0.004,0.020,-0.020,0.040,-0.001,-0.037,1.002,-0.002,0.004,-0.002,0.000,0.000,0.000,0.000,0,0,0,0,7,255,0,250,0,0,2.111,-0.043,-0.001,2.111,-0.043,-0.001
10880.811,1.000,0.018,-0.000,0.000,58,95,74,43,36,3,61,26,0,0.000,0,0,0.049,0.004,0.020,-0.020,0.040,-0.001,-0.036,1.002,-0.002,0.004,-0.002,0.000,0.000,0.000,0.000,0,0,0,0,7,255,0,250,0,0,2.111,-0.043,-0.001,2.111,-0.043,-0.001
10885.811,1.000,0.018,-0.000,0.000,85,90,71,59,24,0,52,51,0,0.000,0,0,0.035,0.004,0.020,-0.020,-0.020,0.000,-0.036,1.003,-0.002,0.004,-0.002,0.000,0.000,0.000,0.000,0,0,0,0,7,255,0,250,0,0,2.111,-0.043,-0.001,2.111,-0.043,-0.001
10890.811,1.000,0.018,-0.000,0.000,57,69,99,73,35,5,48,53,0,0.000,0,0,0.035,0.004,0.020,-0.020,-0.020,0.000,-0.036,1.003,0.002,0.004,0.004,0.000,0.000,0.000,0.000,0,0,0,0,7,255,0,250,0,0,2.111,-0.043,-0.001,2.111,-0.043,-0.001
10895.811,1.000,0.018,-0.000,0.000,62,91,64,49,43,0,59,23,0,0.000,0,0,0.049,0.004,0.020,-0.020,0.040,0.000,-0.036,1.002,0.002,0.004,0.004,0.000,0.000,0.000,0.000,0,0,0,0,7,255,0,250,0,0,2.111,-0.043,-0.001,2.111,-0.043,-0.001
10900.812,1.000,0.018,-0.000,0.000,79,91,61,58,21,0,37,31,0,0.000,0,0,0.049,0.004,0.020,-0.020,0.040,-0.002,-0.036,1.002,0.002,0.004,-0.002,0.000,0.000,0.000,0.000,0,0,0,0,7,255,0,250,0,0,2.111,-0.043,-0.001,2.111,-0.043,-0.001
10905.811,1.000,0.018,-0.000,0.000,84,93,67,69,29,0,45,53,0,0.000,0,0,0.060,0.003,0.020,0.040,0.040,-0.001,-0.037,1.001,-0.002,0.002,-0.006,0.000,0.000,0.000,0.000,0,0,0,0,7,255,0,250,0,0,2.111,-0.043,-0.001,2.111,-0.043,-0.001
10910.811,1.000,0.018,-0.000,0.000,77,69,70,75,23,0,47,49,0,0.000,0,0,0.092,0.006,0.080,-0.020,0.040,-0.001,-0.037,1.002,-0.006,-0.002,-0.006,0.000,0.000,0.000,0.000,0,0,0,0,7,255,0,250,0,0,2.111,-0.043,-0.001,2.111,-0.043,-0.001
10915.811,1.000,0.018,-0.000,0.000,81,87,91,59,29,0,46,51,0,0.000,0,0,0.092,0.003,0.080,-0.020,0.040,0.000,-0.037,1.002,-0.002,-0.002,-0.006,0.000,0.000,0.000,0.000,0,0,0,0,7,255,0,250,0,0,2.111,-0.043,-0.001,2.111,-0.043,-0.001
10920.811,1.000,0.018,-0.000,0.000,72,97,89,43,51,2,77,20,0,0.000,0,0,0.134,0.006,0.080,0.040,0.100,-0.001,-0.037,1.003,-0.006,-0.002,-0.006,0.000,0.000,0.000,0.000,0,0,0,0,7,255,0,250,0,0,2.111,-0.043,-0.001,2.111,-0.043,-0.001
10925.811,1.000,0.018,-0.000,0.000,69,95,56,52,43,4,64,21,0,0.000,0,0,0.049,0.003,0.020,-0.020,0.040,-0.001,-0.036,1.002,-0.002,-0.002,-0.002,0.000,0.000,0.000,0.000,0,0,0,0,7,255,0,250,0,0,2.111,-0.043,-0.001,2.111,-0.043,-0.001
10930.811,1.000,0.018,-0.000,0.000,59,81,99,63,33,0,91,48,0,0.000,0,0,0.092,0.003,0.080,-0.020,0.040,-0.001,-0.037,1.002,-0.002,-0.002,-0.002,0.000,0.000,0.000,0.000,0,0,0,0,7,255,0,250,0,0,2.111,-0.043,-0.001,2.111,-0.043,-0.001
10935.811,1.000,0.018,-0.000,0.000,59,81,92,55,35,8,68,48,0,0.000,0,0,0.049,0.003,0.020,-0.020,0.040,-0.001,-0.038,1.002,-0.002,-0.002,-0.002,0.000,0.000,0.000,0.000,0,0,0,0,7,255,0,250,0,0,2.111,-0.043,-0.001,2.111,-0.043,-0.001
10940.811,1.000,0.018,-0.000,0.000,85,96,59,63,30,6,43,33,0,0.000,0,0,0.092,0.012,0.080,0.040,-0.020,0.000,-0.038,1.002,-0.002,-0.012,-0.002,0.000,0.000,0.000,0.000,0,0,0,0,7,255,0,250,0,0,2.111,-0.043,-0.001,2.111,-0.043,-0.001
10945.811,1.000,0.018,-0.000,0.000,70,61,84,20,43,5,75,45,0,0.000,0,0,0.049,0.012,0.020,-0.020,0.040,-0.001,-0.037,1.001,-0.002,-0.012,-0.006,0.000,0.000,0.000,0.000,0,0,0,0,7,255,0,250,0,0,2.111,-0.043,-0.001,2.111,-0.043,-0.001
10950.811,1.000,0.018,-0.000,0.000,79,99,57,69,23,11,47,25,0,0.000,0,0,0.092,0.003,0.080,-0.020,0.040,-0.001,-0.036,1.003,-0.002,-0.002,-0.006,0.000,0.000,0.000,0.000,0,0,0,0,7,255,0,250,0,0,2.111,-0.043,-0.001,2.111,-0.043,-0.001
10955.812,1.000,0.018,-0.000,0.000,79,99,79,75,28,0,44,44,0,0.000,0,0,0.092,0.003,0.080,-0.020,0.040,-0.001,-0.037,1.003,-0.002,-0.002,0.008,0.000,0.000,0.000,0.000,0,0,0,0,7,255,0,250,0,0,2.111,-0.043,-0.001,2.111,-0.043,-0.001
10960.812,1.000,0.018,-0.000,0.000,79,97,57,63,40,18,51,13,0,0.000,0,0,0.049,0.004,0.020,0.040,-0.020,-0.001,-0.036,1.002,-0.002,0.004,0.008,0.000,0.000,0.000,0.000,0,0,0,0,7,255,0,250,0,0,2.111,-0.043,-0.001,2.111,-0.043,-0.001
10965.812,1.000,0.018,-0.000,0.000,77,75,89,70,29,0,55,45,0,0.000,0,0,0.049,0.006,0.020,-0.020,0.040,0.000,-0.037,1.003,-0.002,-0.006,0.004,0.000,0.000,0.000,0.000,0,0,0,0,7,255,0,250,0,0,2.111,-0.043,-0.001,2.111,-0.043,-0.001
10970.812,1.000,0.018,-0.000,0.000,86,101,55,55,46,10,47,21,0,0.000,0,0,0.060,0.004,0.020,0.040,0.040,-0.001,-0.036,1.002,-0.002,0.004,-0.002,0.000,0.000,0.000,0.000,0,0,0,0,7,255,0,250,0,0,2.111,-0.043,-0.001,2.111,-0.043,-0.001
10975.811,1.000,0.018,-0.000,0.000,57,69,87,42,45,0,75,25,0,0.000,0,0,0.049,0.006,0.020,-0.020,0.040,0.000,-0.037,1.003,0.002,-0.006,0.004,0.000,0.000,0.000,0.000,0,0,0,0,7,255,0,250,0,0,2.111,-0.043,-0.001,2.111,-0.043,-0.001
10980.811,1.000,0.018,-0.000,0.000,83,99,59,69,39,0,44,26,0,0.000,0,0,0.049,0.003,0.020,-0.020,0.040,-0.001,-0.037,1.002,-0.002,-0.002,-0.002,0.000,0.000,0.000,0.000,0,0,0,0,7,255,0,250,0,0,2.111,-0.043,-0.001,2.111,-0.043,-0.001
10985.811,1.000,0.018,-0.000,0.000,85,91,62,74,27,0,43,43,0,0.000,0,0,0.049,0.003,0.020,-0.020,0.040,-0.001,-0.036,1.003,-0.002,-0.002,0.004,0.000,0.000,0.000,0.000,0,0,0,0,7,255,0,250,0,0,2.111,-0.043,-0.001,2.111,-0.043,-0.001
10990.811,1.000,0.018,-0.000,0.000,88,104,74,73,34,0,51,51,0,0.000,0,0,0.098,0.003,0.080,0.040,0.040,0.000,-0.037,1.001,-0.002,-0.002,-0.002,0.000,0.000,0.000,0.000,0,0,0,0,7,255,0,250,0,0,2.111,-0.043,-0.001,2.111,-0.043,-0.001
10995.811,1.000,0.018,-0.000,0.000,83,93,62,69,35,0,45,45,0,0.000,0,0,0.049,0.004,0.020,-0.020,0.040,-0.001,-0.036,1.002,-0.002,0.004,-0.002,0.000,0.000,0.000,0.000,0,0,0,0,7,255,0,250,0,0,2.111,-0.043,-0.001,2.111,-0.043,-0.001
11000.812,1.000,0.018,-0.000,0.000,61,93,56,43,43,5,59,19,0,0.000,0,0,0.069,0.008,-0.040,0.040,0.040,0.000,-0.037,1.002,0.008,-0.002,-0.002,0.000,0.000,0.000,0.000,0,0,0,0,7,255,0,250,0,0,2.111,-0.043,-0.001,2.111,-0.043,-0.001
11005.811,1.000,0.018,-0.000,0.000,83,91,81,69,27,0,55,3,0,0.000,0,0,0.049,0.008,0.020,-0.020,0.040,0.000,-0.037,1.003,0.008,-0.002,-0.002,0.000,0.000,0.000,0.000,0,0,0,0,7,255,0,250,0,0,2.111,-0.043,-0.001,2.111,-0.043,-0.001
11010.811,1.000,0.018,-0.000,0.000,79,81,57,73,29,0,55,47,0,0.000,0,0,0.049,0.008,0.020,-0.020,0.040,0.000,-0.037,1.003,0.008,-0.002,0.004,0.000,0.000,0.000,0.000,0,0,0,0,7,255,0,250,0,0,2.111,-0.043,-0.001,2.111,-0.043,-0.001
11015.811,1.000,0.018,-0.000,0.000,61,81,95,71,29,0,76,55,0,0.000,0,0,0.092,0.010,0.080,-0.020,0.040,0.000,-0.037,1.003,0.008,-0.006,0.004,0.000,0.000,0.000,0.000,0,0,0,0,7,255,0,250,0,0,2.111,-0.043,-0.001,2.111,-0.043,-0.001
11020.811,1.000,0.018,-0.000,0.000,80,100,61,67,40,0,39,22,0,0.000,0,0,0.049,0.008,0.020,-0.020,0.040,0.000,-0.035,1.002,0.008,0.000,0.004,0.000,0.000,0.000,0.000,0,0,0,0,7,255,0,250,0,0,2.111,-0.043,-0.001,2.111,-0.043,-0.001
11025.811,1.000,0.018,-0.000,0.000,83,105,69,71,20,0,37,43,0,0.000,0,0,0.092,0.012,0.080,-0.020,0.040,-0.001,-0.035,1.003,0.002,0.012,0.002,0.000,0.000,0.000,0.000,0,0,0,0,7,255,0,250,0,0,2.111,-0.043,-0.001,2.111,-0.043,-0.001
11030.811,1.000,0.018,-0.000,0.000,77,63,89,75,18,0,73,51,0,0.000,0,0,0.049,0.012,0.020,-0.020,0.040,-0.001,-0.037,1.003,-0.002,0.012,0.002,0.000,0.000,0.000,0.000,0,0,0,0,7,255,0,250,0,0,2.111,-0.043,-0.001,2.111,-0.043,-0.001
11035.811,1.000,0.018,-0.000,0.000,77,101,62,63,35,5,33,22,0,0.000,0,0,0.049,0.003,0.020,-0.020,0.040,0.000,-0.037,1.002,-0.002,-0.002,0.002,0.000,0.000,0.000,0.000,0,0,0,0,7,255,0,250,0,0,2.111,-0.043,-0.001,2.111,-0.043,-0.001
11040.811,1.000,0.018,-0.000,0.000,87,101,59,63,45,0,50,24,0,0.000,0,0,0.049,0.006,0.020,-0.020,0.040,-0.001,-0.038,1.002,-0.002,-0.006,-0.002,0.000,0.000,0.000,0.000,0,0,0,0,7,255,0,250,0,0,2.111,-0.043,-0.001,2.111,-0.043,-0.001
11045.811,1.000,0.018,-0.000,0.000,85,101,53,56,40,18,46,13,0,0.000,0,0,0.151,0.006,0.140,0.040,-0.040,-0.001,-0.037,1.003,-0.002,-0.006,-0.002,0.000,0.000,0.000,0.000,0,0,0,0,7,255,0,250,0,0,2.111,-0.043,-0.001,2.111,-0.043,-0.001
11050.811,1.000,0.018,-0.000,0.000,77,91,57,38,39,4,51,0,0,0.000,0,0,0.092,0.006,0.080,-0.020,0.040,0.000,-0.037,1.002,-0.002,-0.006,-0.002,0.000,0.000,0.000,0.000,0,0,0,0,7,255,0,250,0,0,2.111,-0.043,-0.001,2.111,-0.043,-0.001
11055.811,1.000,0.018,-0.000,0.000,83,97,61,74,29,16,45,51,0,0.000,0,0,0.092,0.006,0.080,-0.020,-0.040,0.000,-0.037,1.003,0.002,-0.006,0.004,0.000,0.000,0.000,0.000,0,0,0,0,7,255,0,250,0,0,2.111,-0.043,-0.001,2.111,-0.043,-0.001
11060.811,1.000,0.018,-0.000,0.000,58,91,84,41,40,6,71,21,0,0.000,0,0,0.049,0.003,0.020,-0.020,0.040,-0.001,-0.037,1.002,0.002,-0.002,-0.002,0.000,0.000,0.000,0.000,0,0,0,0,7,255,0,250,0,0,2.111,-0.043,-0.001,2.111,-0.043,-0.001
11065.813,1.000,0.018,-0.000,0.000,84,89,56,47,39,5,55,20,0,0.000,0,0,0.060,0.002,0.020,0.040,0.040,-0.001,-0.036,1.002,-0.002,0.000,-0.002,0.000,0.000,0.000,0.000,0,0,0,0,7,255,0,250,0,0,2.111,-0.043,-0.001,2.111,-0.043,-0.001
11070.811,1.000,0.018,-0.000,0.000,69,93,60,43,40,7,61,20,0,0.000,0,0,0.098,0.003,0.080,0.040,0.040,0.000,-0.037,1.002,-0.002,-0.002,-0.002,0.000,0.000,0.000,0.000,0,0,0,0,7,255,0,250,0,0,2.111,-0.043,-0.001,2.111,-0.043,-0.001
11075.811,1.000,0.018,-0.000,0.000,48,71,91,44,39,6,81,29,0,0.000,0,0,0.092,0.009,0.080,-0.020,0.040,0.000,-0.036,1.002,0.008,0.004,-0.002,0.000,0.000,0.000,0.000,0,0,0,0,7,255,0,250,0,0,2.111,-0.043,-0.001,2.111,-0.043,-0.001
11080.811,1.000,0.018,-0.000,0.000,77,91,63,59,40,0,33,35,0,0.000,0,0,0.092,0.008,0.080,-0.020,0.040,0.000,-0.037,1.002,0.008,-0.002,-0.002,0.000,0.000,0.000,0.000,0,0,0,0,7,255,0,250,0,0,2.111,-0.043,-0.001,2.111,-0.043,-0.001
11085.811,1.000,0.018,-0.000,0.000,55,75,100,49,37,0,77,53,0,0.000,0,0,0.049,0.003,0.020,-0.020,0.040,-0.001,-0.037,1.003,0.002,-0.002,-0.002,0.000,0.000,0.000,0.000,0,0,0,0,7,255,0,250,0,0,2.111,-0.043,-0.001,2.111,-0.043,-0.001
11090.811,1.000,0.018,-0.000,0.000,87,95,61,75,43,0,45,37,0,0.000,0,0,0.092,0.003,0.080,-0.020,0.040,-0.001,-0.038,1.003,-0.002,-0.002,0.004,0.000,0.000,0.000,0.000,0,0,0,0,7,255,0,250,0,0,2.111,-0.043,-0.001,2.111,-0.043,-0.001
11095.813,1.000,0.018,-0.000,0.000,85,95,61,46,39,0,57,18,0,0.000,0,0,0.049,0.010,0.020,-0.020,0.040,-0.001,-0.038,1.003,-0.002,-0.010,0.004,0.000,0.000,0.000,0.000,0,0,0,0,7,255,0,250,0,0,2.111,-0.043,-0.001,2.111,-0.043,-0.001
11100.811,1.000,0.018,-0.000,0.000,77,89,62,45,47,6,44,21,0,0.000,0,0,0.049,0.010,0.020,-0.020,0.040,-0.001,-0.038,1.003,-0.002,-0.010,0.004,0.000,0.000,0.000,0.000,0,0,0,0,7,255,0,250,0,0,2.111,-0.043,-0.001,2.111,-0.043,-0.001
11105.811,1.000,0.018,-0.000,0.000,81,87,67,64,31,7,43,51,0,0.000,0,0,0.098,0.010,0.080,0.040,0.040,-0.001,-0.036,1.002,-0.002,-0.010,0.004,0.000,0.000,0.000,0.000,0,0,0,0,7,255,0,250,0,0,2.111,-0.043,-0.001,2.111,-0.043,-0.001
11110.811,1.000,0.018,-0.000,0.000,47,63,99,36,39,7,77,23,0,0.000,0,0,0.092,0.004,0.080,-0.020,0.040,-0.001,-0.036,1.003,-0.002,0.004,0.002,0.000,0.000,0.000,0.000,0,0,0,0,7,255,0,250,0,0,2.111,-0.043,-0.001,2.111,-0.043,-0.001
11115.811,1.000,0.018,-0.000,0.000,56,64,87,40,41,5,75,20,0,0.000,0,0,0.049,0.008,0.020,-0.020,0.040,-0.001,-0.036,1.004,-0.002,0.008,0.002,0.000,0.000,0.000,0.000,0,0,0,0,7,255,0,250,0,0,2.111,-0.043,-0.001,2.111,-0.043,-0.001
11120.811,1.000,0.018,-0.000,0.000,87,62,99,71,27,0,55,54,0,0.000,0,0,0.060,0.008,0.020,0.040,0.040,0.000,-0.037,1.003,-0.002,0.008,0.004,0.000,0.000,0.000,0.000,0,0,0,0,7,255,0,250,0,0,2.111,-0.043,-0.001,2.111,-0.043,-0.001
11125.811,1.000,0.018,-0.000,0.000,83,102,59,58,38,0,43,19,0,0.000,0,0,0.049,0.009,0.020,-0.020,-0.040,0.000,-0.036,1.003,0.008,0.004,0.004,0.000,0.000,0.000,0.000,0,0,0,0,7,255,0,250,0,0,2.111,-0.043,-0.001,2.111,-0.043,-0.001
11130.811,1.000,0.018,-0.000,0.000,48,70,89,57,33,5,72,42,0,0.000,0,0,0.049,0.008,0.020,-0.020,-0.040,-0.001,-0.037,1.003,0.008,0.000,0.004,0.000,0.000,0.000,0.000,0,0,0,0,7,255,0,250,0,0,2.111,-0.043,-0.001,2.111,-0.043,-0.001
11135.811,1.000,0.018,-0.000,0.000,63,101,85,41,36,8,75,20,0,0.000,0,0,0.049,0.002,0.020,-0.020,0.040,0.000,-0.037,1.003,0.002,0.000,0.008,0.000,0.000,0.000,0.000,0,0,0,0,7,255,0,250,0,0,2.111,-0.043,-0.001,2.111,-0.043,-0.001
11140.811,1.000,0.018,-0.000,0.000,53,63,89,57,26,3,71,33,0,0.000,0,0,0.060,0.006,0.020,0.040,0.040,-0.001,-0.037,1.003,-0.002,-0.006,0.008,0.000,0.000,0.000,0.000,0,0,0,0,7,255,0,250,0,0,2.111,-0.043,-0.001,2.111,-0.043,-0.001
11145.811,1.000,0.018,-0.000,0.000,55,85,83,45,42,0,71,24,0,0.000,0,0,0.060,0.006,0.020,0.040,0.040,-0.002,-0.037,1.003,-0.006,0.000,0.004,0.000,0.000,0.000,0.000,0,0,0,0,7,255,0,250,0,0,2.111,-0.043,-0.001,2.111,-0.043,-0.001
11150.811,1.000,0.018,-0.000,0.000,78,96,61,57,45,1,46,35,0,0.000,0,0,0.060,0.006,0.020,0.040,0.040,-0.001,-0.036,1.002,-0.006,0.000,0.002,0.000,0.000,0.000,0.000,0,0,0,0,7,255,0,250,0,0,2.111,-0.043,-0.001,2.111,-0.043,-0.001
11155.813,1.000,0.018,-0.000,0.000,83,93,63,44,40,0,63,11,0,0.000,0,0,0.092,0.004,0.080,0.040,0.020,0.000,-0.036,1.002,-0.002,0.004,-0.002,0.000,0.000,0.000,0.000,0,0,0,0,7,255,0,250,0,0,2.111,-0.043,-0.001,2.111,-0.043,-0.001
11160.811,1.000,0.018,-0.000,0.000,53,72,63,39,43,0,43,29,0,0.000,0,0,0.130,0.004,0.080,-0.020,0.100,0.000,-0.036,1.003,0.002,0.004,-0.002,0.000,0.000,0.000,0.000,0,0,0,0,7,255,0,250,0,0,2.111,-0.043,-0.001,2.111,-0.043,-0.001
11165.813,1.000,0.018,-0.000,0.000,59,95,59,37,43,5,73,22,0,0.000,0,0,0.049,0.004,0.020,-0.020,-0.040,-0.001,-0.036,1.001,0.002,0.004,-0.002,0.000,0.000,0.000,0.000,0,0,0,0,7,255,0,250,0,0,2.111,-0.043,-0.001,2.111,-0.043,-0.001
11170.811,1.000,0.018,-0.000,0.000,77,73,85,73,56,16,68,43,0,0.000,0,0,0.035,0.004,0.020,-0.020,0.020,0.000,-0.036,1.003,0.002,0.004,0.002,0.000,0.000,0.000,0.000,0,0,0,0,7,255,0,250,0,0,2.111,-0.043,-0.001,2.111,-0.043,-0.001
11175.811,1.000,0.018,-0.000,0.000,84,101,59,73,24,0,41,48,0,0.000,0,0,0.035,0.004,0.020,-0.020,0.020,-0.001,-0.037,1.002,-0.002,0.004,-0.006,0.000,0.000,0.000,0.000,0,0,0,0,7,255,0,250,0,0,2.111,-0.043,-0.001,2.111,-0.043,-0.001
11180.811,1.000,0.018,-0.000,0.000,87,92,55,69,23,0,38,35,0,0.000,0,0,0.049,0.003,0.020,0.040,0.020,0.000,-0.037,1.002,0.002,-0.002,-0.002,0.000,0.000,0.000,0.000,0,0,0,0,7,255,0,250,0,0,2.111,-0.043,-0.001,2.111,-0.043,-0.001
11185.811,1.000,0.018,-0.000,0.000,73,89,58,55,45,0,40,36,0,0.000,0,0,0.085,0.006,0.080,-0.020,0.020,0.000,-0.038,1.002,0.002,-0.006,-0.006,0.000,0.000,0.000,0.000,0,0,0,0,7,255,0,250,0,0,2.111,-0.043,-0.001,2.111,-0.043,-0.001
11190.811,1.000,0.018,-0.000,0.000,45,75,59,43,39,0,62,22,0,0.000,0,0,0.049,0.006,0.020,0.040,0.020,0.000,-0.037,1.003,0.002,-0.006,-0.002,0.000,0.000,0.000,0.000,0,0,0,0,7,255,0,250,0,0,2.111,-0.043,-0.001,2.111,-0.043,-0.001
11195.813,1.000,0.018,-0.000,0.000,87,101,62,76,26,0,39,45,0,0.000,0,0,0.092,0.002,0.080,-0.020,-0.040,0.000,-0.037,1.004,0.002,0.000,0.002,0.000,0.000,0.000,0.000,0,0,0,0,7,255,0,250,0,0,2.111,-0.043,-0.001,2.111,-0.043,-0.001
11200.811,1.000,0.018,-0.000,0.000,54,63,62,9,22,0,41,25,0,0.000,0,0,0.151,0.002,0.140,0.040,-0.040,0.000,-0.037,1.003,0.002,0.000,0.008,0.000,0.000,0.000,0.000,0,0,0,0,7,255,0,250,0,0,2.111,-0.043,-0.001,2.111,-0.043,-0.001
11205.811,1.000,0.018,-0.000,0.000,91,101,61,69,41,0,42,28,0,0.000,0,0,0.049,0.002,0.020,-0.020,-0.040,0.000,-0.037,1.003,0.002,0.000,0.008,0.000,0.000,0.000,0.000,0,0,0,0,7,255,0,250,0,0,2.111,-0.043,-0.001,2.111,-0.043,-0.001
11210.811,1.000,0.018,-0.000,0.000,61,103,53,43,37,3,56,24,0,0.000,0,0,0.049,0.002,0.020,-0.020,-0.040,0.000,-0.038,1.002,0.002,0.000,0.002,0.000,0.000,0.000,0.000,0,0,0,0,7,255,0,250,0,0,2.111,-0.043,-0.001,2.111,-0.043,-0.001
11215.811,1.000,0.018,-0.000,0.000,82,87,87,58,24,1,55,55,0,0.000,0,0,0.049,0.002,0.020,0.040,0.020,-0.001,-0.037,1.002,0.002,0.000,-0.002,0.000,0.000,0.000,0.000,0,0,0,0,7,255,0,250,0,0,2.111,-0.043,-0.001,2.111,-0.043,-0.001
11220.811,1.000,0.018,-0.000,0.000,44,87,75,43,41,7,75,15,0,0.000,0,0,0.092,0.003,0.080,0.040,0.020,-0.001,-0.037,1.001,-0.002,-0.002,-0.006,0.000,0.000,0.000,0.000,0,0,0,0,7,255,0,250,0,0,2.111,-0.043,-0.001,2.111,-0.043,-0.001
11225.811,1.000,0.018,-0.000,0.000,57,85,87,46,47,16,76,24,0,0.000,0,0,0.085,0.002,0.080,-0.020,0.020,0.000,-0.037,1.004,-0.002,0.000,-0.002,0.000,0.000,0.000,0.000,0,0,0,0,7,255,0,250,0,0,2.111,-0.043,-0.001,2.111,-0.043,-0.001
11230.811,1.000,0.018,-0.000,0.000,83,80,55,45,36,1,70,20,0,0.000,0,0,0.049,0.008,0.020,-0.020,-0.040,-0.001,-0.036,1.003,-0.008,0.000,0.008,0.000,0.000,0.000,0.000,0,0,0,0,7,255,0,250,0,0,2.111,-0.043,-0.001,2.111,-0.043,-0.001
11235.811,1.000,0.018,-0.000,0.000,57,71,89,77,19,0,45,53,0,0.000,0,0,0.035,0.009,0.020,-0.020,0.020,0.000,-0.036,1.002,0.008,0.004,0.008,0.000,0.000,0.000,0.000,0,0,0,0,7,255,0,250,0,0,2.111,-0.043,-0.001,2.111,-0.043,-0.001
11240.811,1.000,0.018,-0.000,0.000,83,89,54,39,55,5,45,9,0,0.000,0,0,0.085,0.009,0.080,-0.020,0.020,0.000,-0.036,1.002,0.008,0.004,-0.006,0.000,0.000,0.000,0.000,0,0,0,0,7,255,0,250,0,0,2.111,-0.043,-0.001,2.111,-0.043,-0.001
11245.811,1.000,0.018,-0.000,0.000,69,87,59,45,57,5,69,22,0,0.000,0,0,0.092,0.009,0.080,-0.020,-0.040,0.000,-0.036,1.002,0.008,0.004,-0.006,0.000,0.000,0.000,0.000,0,0,0,0,7,255,0,250,0,0,2.111,-0.043,-0.001,2.111,-0.043,-0.001
11250.811,1.000,0.018,-0.000,0.000,83,98,57,40,39,3,67,21,0,0.000,0,0,0.130,0.007,0.080,-0.020,0.100,0.000,-0.036,1.002,0.006,0.004,-0.006,0.000,0.000,0.000,0.000,0,0,0,0,7,255,0,250,0,0,2.111,-0.043,-0.001,2.111,-0.043,-0.001
11255.813,1.000,0.018,-0.000,0.000,55,62,91,74,27,0,64,52,0,0.000,0,0,0.049,0.007,0.020,0.040,0.020,0.000,-0.037,1.003,0.006,0.004,-0.006,0.000,0.000,0.000,0.000,0,0,0,0,7,255,0,250,0,0,2.111,-0.043,-0.001,2.111,-0.043,-0.001
11260.811,1.000,0.018,-0.000,0.000,80,88,56,72,18,0,33,55,0,0.000,0,0,0.049,0.007,-0.040,-0.020,0.020,0.000,-0.036,1.002,0.006,0.004,-0.006,0.000,0.000,0.000,0.000,0,0,0,0,7,255,0,250,0,0,2.111,-0.043,-0.001,2.111,-0.043,-0.001
11265.811,1.000,0.018,-0.000,0.000,55,72,91,43,51,13,75,23,0,0.000,0,0,0.092,0.006,0.080,0.040,0.020,0.000,-0.037,1.003,0.006,0.000,0.004,0.000,0.000,0.000,0.000,0,0,0,0,7,255,0,250,0,0,2.111,-0.043,-0.001,2.111,-0.043,-0.001
11270.811,1.000,0.018,-0.000,0.000,91,95,51,71,41,0,50,28,0,0.000,0,0,0.035,0.006,0.020,-0.020,0.020,0.000,-0.037,1.003,0.006,-0.002,0.004,0.000,0.000,0.000,0.000,0,0,0,0,7,255,0,250,0,0,2.111,-0.043,-0.001,2.111,-0.043,-0.001
11275.811,1.000,0.018,-0.000,0.000,85,100,58,75,25,0,50,53,0,0.000,0,0,0.085,0.006,0.080,-0.020,0.020,-0.001,-0.036,1.002,0.006,-0.002,0.004,0.000,0.000,0.000,0.000,0,0,0,0,7,255,0,250,0,0,2.111,-0.043,-0.001,2.111,-0.043,-0.001
11280.811,1.000,0.018,-0.000,0.000,71,90,80,43,45,1,70,21,0,0.000,0,0,0.035,0.003,0.020,-0.020,0.020,-0.001,-0.037,1.003,-0.002,-0.002,0.004,0.000,0.000,0.000,0.000,0,0,0,0,7,255,0,250,0,0,2.111,-0.043,-0.001,2.111,-0.043,-0.001
11285.811,1.000,0.018,-0.000,0.000,74,81,85,39,43,5,71,21,0,0.000,0,0,0.035,0.003,0.020,-0.020,0.020,-0.001,-0.037,1.002,-0.002,-0.002,-0.002,0.000,0.000,0.000,0.000,0,0,0,0,7,255,0,250,0,0,2.111,-0.043,-0.001,2.111,-0.043,-0.001
11290.811,1.000,0.018,-0.000,0.000,53,72,104,53,47,0,71,47,0,0.000,0,0,0.147,0.003,0.140,0.040,0.020,-0.001,-0.037,1.002,-0.002,-0.002,-0.002,0.000,0.000,0.000,0.000,0,0,0,0,7,255,0,250,0,0,2.111,-0.043,-0.001,2.111,-0.043,-0.001
11295.812,1.000,0.018,-0.000,0.000,89,93,59,73,39,0,40,18,0,0.000,0,0,0.035,0.003,0.020,-0.020,0.020,-0.001,-0.036,1.003,-0.002,-0.002,-0.002,0.000,0.000,0.000,0.000,0,0,0,0,7,255,0,250,0,0,2.111,-0.043,-0.001,2.111,-0.043,-0.001
11300.811,1.000,0.018,-0.000,0.000,88,93,63,75,27,0,39,55,0,0.000,0,0,0.098,0.009,0.080,0.040,-0.040,-0.001,-0.036,1.002,-0.008,0.004,-0.002,0.000,0.000,0.000,0.000,0,0,0,0,7,255,0,250,0,0,2.111,-0.043,-0.001,2.111,-0.043,-0.001
11305.811,1.000,0.018,-0.000,0.000,78,89,62,56,39,0,39,26,0,0.000,0,0,0.085,0.004,0.080,-0.020,0.020,0.000,-0.037,1.002,-0.002,0.004,-0.002,0.000,0.000,0.000,0.000,0,0,0,0,7,255,0,250,0,0,2.111,-0.043,-0.001,2.111,-0.043,-0.001
11310.811,1.000,0.018,-0.000,0.000,79,91,71,73,28,0,44,47,0,0.000,0,0,0.085,0.003,0.080,-0.020,0.020,0.000,-0.038,1.002,0.002,-0.002,-0.002,0.000,0.000,0.000,0.000,0,0,0,0,7,255,0,250,0,0,2.111,-0.043,-0.001,2.111,-0.043,-0.001
11315.811,1.000,0.018,-0.000,0.000,83,101,71,75,29,0,44,45,0,0.000,0,0,0.092,0.003,0.080,-0.020,-0.040,0.000,-0.037,1.002,0.002,-0.002,-0.002,0.000,0.000,0.000,0.000,0,0,0,0,7,255,0,250,0,0,2.111,-0.043,-0.001,2.111,-0.043,-0.001
11320.811,1.000,0.018,-0.000,0.000,57,85,81,33,33,11,71,18,0,0.000,0,0,0.085,0.003,0.080,-0.020,0.020,0.000,-0.036,1.003,0.002,-0.002,-0.002,0.000,0.000,0.000,0.000,0,0,0,0,7,255,0,250,0,0,2.111,-0.043,-0.001,2.111,-0.043,-0.001
11325.811,1.000,0.018,-0.000,0.000,76,98,57,63,41,0,33,24,0,0.000,0,0,0.092,0.003,0.080,-0.020,-0.040,-0.001,-0.037,1.002,0.002,-0.002,-0.002,0.000,0.000,0.000,0.000,0,0,0,0,7,255,0,250,0,0,2.111,-0.043,-0.001,2.111,-0.043,-0.001
11330.811,1.000,0.018,-0.000,0.000,57,73,87,79,21,0,45,39,0,0.000,0,0,0.085,0.004,0.080,-0.020,0.020,-0.001,-0.036,1.002,-0.002,0.004,-0.002,0.000,0.000,0.000,0.000,0,0,0,0,7,255,0,250,0,0,2.111,-0.043,-0.001,2.111,-0.043,-0.001
11335.811,1.000,0.018,-0.000,0.000,86,93,63,54,22,0,42,55,0,0.000,0,0,0.092,0.004,-0.040,-0.020,0.080,0.000,-0.036,1.003,-0.002,0.004,-0.002,0.000,0.000,0.000,0.000,0,0,0,0,7,255,0,250,0,0,2.111,-0.043,-0.001,2.111,-0.043,-0.001
11340.811,1.000,0.018,-0.000,0.000,49,76,77,43,21,0,73,41,0,0.000,0,0,0.085,0.004,0.080,-0.020,0.020,-0.001,-0.037,1.001,-0.002,0.004,-0.002,0.000,0.000,0.000,0.000,0,0,0,0,7,255,0,250,0,0,2.111,-0.043,-0.001,2.111,-0.043,-0.001
11345.811,1.000,0.018,-0.000,0.000,47,84,59,41,45,6,57,21,0,0.000,0,0,0.085,0.004,0.080,-0.020,0.020,0.000,-0.036,1.003,0.002,0.004,0.002,0.000,0.000,0.000,0.000,0,0,0,0,7,255,0,250,0,0,2.111,-0.043,-0.001,2.111,-0.043,-0.001
11350.811,1.000,0.018,-0.000,0.000,54,56,87,41,30,0,81,47,0,0.000,0,0,0.035,0.009,0.020,-0.020,0.020,-0.002,-0.036,1.002,-0.008,0.004,-0.006,0.000,0.000,0.000,0.000,0,0,0,0,7,255,0,250,0,0,2.111,-0.043,-0.001,2.111,-0.043,-0.001
11355.813,1.000,0.018,-0.000,0.000,84,101,71,72,25,0,51,51,0,0.000,0,0,0.143,0.009,0.140,-0.020,0.020,-0.001,-0.037,1.003,-0.008,0.004,0.002,0.000,0.000,0.000,0.000,0,0,0,0,7,255,0,250,0,0,2.111,-0.043,-0.001,2.111,-0.043,-0.001
11360.811,1.000,0.018,-0.000,0.000,56,69,95,46,55,7,77,21,0,0.000,0,0,0.049,0.008,0.020,0.040,0.020,-0.001,-0.037,1.003,-0.008,-0.002,0.004,0.000,0.000,0.000,0.000,0,0,0,0,7,255,0,250,0,0,2.111,-0.043,-0.001,2.111,-0.043,-0.001
11365.813,1.000,0.018,-0.000,0.000,88,96,72,74,26,13,43,51,0,0.000,0,0,0.035,0.003,0.020,-0.020,0.020,0.000,-0.036,1.003,-0.002,-0.002,0.004,0.000,0.000,0.000,0.000,0,0,0,0,7,255,0,250,0,0,2.111,-0.043,-0.001,2.111,-0.043,-0.001
11370.811,1.000,0.018,-0.000,0.000,56,63,91,71,35,0,71,54,0,0.000,0,0,0.035,0.003,0.020,-0.020,0.020,0.000,-0.037,1.003,0.002,-0.002,0.004,0.000,0.000,0.000,0.000,0,0,0,0,7,255,0,250,0,0,2.111,-0.043,-0.001,2.111,-0.043,-0.001
11375.811,1.000,0.018,-0.000,0.000,57,64,91,44,47,3,73,39,0,0.000,0,0,0.049,0.004,0.020,0.040,0.020,-0.001,-0.036,1.003,0.002,0.004,0.002,0.000,0.000,0.000,0.000,0,0,0,0,7,255,0,250,0,0,2.111,-0.043,-0.001,2.111,-0.043,-0.001
11380.811,1.000,0.018,-0.000,0.000,76,105,67,61,41,6,44,18,0,0.000,0,0,0.035,0.003,0.020,-0.020,0.020,-0.001,-0.037,1.002,-0.002,-0.002,0.002,0.000,0.000,0.000,0.000,0,0,0,0,7,255,0,250,0,0,2.111,-0.043,-0.001,2.111,-0.043,-0.001
11385.811,1.000,0.018,-0.000,0.000,58,77,85,41,37,3,61,22,0,0.000,0,0,0.060,0.006,-0.040,0.040,0.020,0.000,-0.037,1.002,-0.002,-0.006,-0.002,0.000,0.000,0.000,0.000,0,0,0,0,7,255,0,250,0,0,2.111,-0.043,-0.001,2.111,-0.043,-0.001
11390.811,1.000,0.018,-0.000,0.000,87,91,59,47,37,0,62,13,0,0.000,0,0,0.085,0.008,0.080,-0.020,0.020,0.000,-0.037,1.003,0.006,-0.006,-0.002,0.000,0.000,0.000,0.000,0,0,0,0,7,255,0,250,0,0,2.111,-0.043,-0.001,2.111,-0.043,-0.001
11395.813,1.000,0.018,-0.000,0.000,80,92,55,63,20,0,39,28,0,0.000,0,0,0.035,0.006,0.020,-0.020,0.020,0.000,-0.036,1.002,0.006,0.000,-0.002,0.000,0.000,0.000,0.000,0,0,0,0,7,255,0,250,0,0,2.111,-0.043,-0.001,2.111,-0.043,-0.001
11400.811,1.000,0.018,-0.000,0.000,57,97,75,40,48,13,72,24,0,0.000,0,0,0.049,0.007,0.020,0.040,0.020,0.000,-0.036,1.002,0.006,0.004,-0.002,0.000,0.000,0.000,0.000,0,0,0,0,7,255,0,250,0,0,2.111,-0.043,-0.001,2.111,-0.043,-0.001
11405.811,1.000,0.018,-0.000,0.000,83,93,55,70,35,0,39,38,0,0.000,0,0,0.092,0.007,0.020,0.040,0.080,0.000,-0.036,1.002,0.006,0.004,-0.002,0.000,0.000,0.000,0.000,0,0,0,0,7,255,0,250,0,0,2.111,-0.043,-0.001,2.111,-0.043,-0.001
11410.811,1.000,0.018,-0.000,0.000,61,57,88,40,43,4,72,16,0,0.000,0,0,0.092,0.004,0.080,-0.020,-0.040,-0.001,-0.036,1.001,0.002,0.004,-0.006,0.000,0.000,0.000,0.000,0,0,0,0,7,255,0,250,0,0,2.111,-0.043,-0.001,2.111,-0.043,-0.001
11415.811,1.000,0.018,-0.000,0.000,57,72,87,72,42,0,75,46,0,0.000,0,0,0.092,0.004,0.080,-0.020,-0.040,0.000,-0.036,1.002,0.002,0.004,-0.006,0.000,0.000,0.000,0.000,0,0,0,0,7,255,0,250,0,0,2.111,-0.043,-0.001,2.111,-0.043,-0.001
11420.811,1.000,0.018,-0.000,0.000,83,71,59,71,24,0,37,47,0,0.000,0,0,0.035,0.003,0.020,-0.020,0.020,-0.001,-0.037,1.002,-0.002,0.002,-0.006,0.000,0.000,0.000,0.000,0,0,0,0,7,255,0,250,0,0,2.111,-0.043,-0.001,2.111,-0.043,-0.001
11425.811,1.000,0.018,-0.000,0.000,77,90,55,40,33,0,38,29,0,0.000,0,0,0.092,0.004,0.080,0.040,0.020,-0.001,-0.036,1.002,-0.002,0.004,-0.006,0.000,0.000,0.000,0.000,0,0,0,0,7,255,0,250,0,0,2.111,-0.043,-0.001,2.111,-0.043,-0.001
11430.811,1.000,0.018,-0.000,0.000,83,99,56,71,40,5,42,21,0,0.000,0,0,0.085,0.009,0.080,-0.020,0.020,-0.002,-0.036,1.003,-0.008,0.004,-0.006,0.000,0.000,0.000,0.000,0,0,0,0,7,255,0,250,0,0,2.111,-0.043,-0.001,2.111,-0.043,-0.001
11435.811,1.000,0.018,-0.000,0.000,82,103,61,75,41,0,37,26,0,0.000,0,0,0.049,0.009,0.020,-0.020,-0.040,0.000,-0.037,1.002,-0.008,0.004,-0.002,0.000,0.000,0.000,0.000,0,0,0,0,7,255,0,250,0,0,2.111,-0.043,-0.001,2.111,-0.043,-0.001
11440.811,1.000,0.018,-0.000,0.000,77,101,58,71,37,4,40,17,0,0.000,0,0,0.085,0.003,0.080,-0.020,0.020,-0.001,-0.037,1.003,-0.002,-0.002,0.004,0.000,0.000,0.000,0.000,0,0,0,0,7,255,0,250,0,0,2.111,-0.043,-0.001,2.111,-0.043,-0.001
11445.811,1.000,0.018,-0.000,0.000,91,95,53,81,19,0,42,29,0,0.000,0,0,0.049,0.003,0.020,0.040,0.020,0.000,-0.037,1.002,0.002,-0.002,-0.002,0.000,0.000,0.000,0.000,0,0,0,0,7,255,0,250,0,0,2.111,-0.043,-0.001,2.111,-0.043,-0.001
11450.811,1.000,0.018,-0.000,0.000,85,74,84,76,28,0,45,45,0,0.000,0,0,0.035,0.006,0.020,-0.020,0.020,0.000,-0.036,1.002,0.006,-0.002,-0.002,0.000,0.000,0.000,0.000,0,0,0,0,7,255,0,250,0,0,2.111,-0.043,-0.001,2.111,-0.043,-0.001
11455.813,1.000,0.018,-0.000,0.000,69,93,59,47,31,0,39,13,0,0.000,0,0,0.092,0.006,0.080,0.040,0.020,-0.001,-0.037,1.002,0.006,-0.002,-0.006,0.000,0.000,0.000,0.000,0,0,0,0,7,255,0,250,0,0,2.111,-0.043,-0.001,2.111,-0.043,-0.001
11460.811,1.000,0.018,-0.000,0.000,61,69,88,61,25,0,71,53,0,0.000,0,0,0.049,0.004,0.020,0.040,0.020,-0.001,-0.036,1.004,-0.002,0.004,-0.006,0.000,0.000,0.000,0.000,0,0,0,0,7,255,0,250,0,0,2.111,-0.043,-0.001,2.111,-0.043,-0.001
11465.811,1.000,0.018,-0.000,0.000,68,98,81,42,39,10,73,21,0,0.000,0,0,0.143,0.004,0.140,-0.020,0.020,0.000,-0.036,1.002,-0.002,0.004,-0.002,0.000,0.000,0.000,0.000,0,0,0,0,7,255,0,250,0,0,2.111,-0.043,-0.001,2.111,-0.043,-0.001
11470.811,1.000,0.018,-0.000,0.000,70,92,54,44,49,0,67,20,0,0.000,0,0,0.035,0.004,0.020,-0.020,0.020,-0.001,-0.037,1.002,-0.002,0.004,-0.002,0.000,0.000,0.000,0.000,0,0,0,0,7,255,0,250,0,0,2.111,-0.043,-0.001,2.111,-0.043,-0.001
11475.811,1.000,0.018,-0.000,0.000,78,101,67,70,17,1,44,26,0,0.000,0,0,0.035,0.003,0.020,-0.020,0.020,0.000,-0.037,1.002,0.002,-0.002,-0.002,0.000,0.000,0.000,0.000,0,0,0,0,7,255,0,250,0,0,2.111,-0.043,-0.001,2.111,-0.043,-0.001
11480.811,1.000,0.018,-0.000,0.000,57,69,86,52,31,0,75,46,0,0.000,0,0,0.049,0.003,0.020,0.040,0.020,-0.001,-0.037,1.003,-0.002,-0.002,-0.002,0.000,0.000,0.000,0.000,0,0,0,0,7,255,0,250,0,0,2.111,-0.043,-0.001,2.111,-0.043,-0.001
11485.811,1.000,0.018,-0.000,0.000,83,91,68,48,43,8,62,19,0,0.000,0,0,0.085,0.003,0.080,-0.020,0.020,0.000,-0.036,1.003,0.002,-0.002,0.004,0.000,0.000,0.000,0.000,0,0,0,0,7,255,0,250,0,0,2.111,-0.043,-0.001,2.111,-0.043,-0.001
11490.811,1.000,0.018,-0.000,0.000,85,91,58,71,26,0,44,44,0,0.000,0,0,0.085,0.004,0.080,-0.020,0.020,-0.001,-0.036,1.003,-0.002,0.004,0.004,0.000,0.000,0.000,0.000,0,0,0,0,7,255,0,250,0,0,2.111,-0.043,-0.001,2.111,-0.043,-0.001
11495.813,1.000,0.018,-0.000,0.000,87,103,57,71,47,0,46,21,0,0.000,0,0,0.085,0.007,0.080,-0.020,0.020,0.000,-0.037,1.002,0.006,0.004,0.004,0.000,0.000,0.000,0.000,0,0,0,0,7,255,0,250,0,0,2.111,-0.043,-0.001,2.111,-0.043,-0.001
11500.811,1.000,0.018,-0.000,0.000,55,69,87,46,53,9,55,45,0,0.000,0,0,0.092,0.003,0.080,0.040,0.020,0.000,-0.037,1.003,0.002,-0.002,0.004,0.000,0.000,0.000,0.000,0,0,0,0,7,255,0,250,0,0,2.111,-0.043,-0.001,2.111,-0.043,-0.001
11505.811,1.000,0.018,-0.000,0.000,55,87,63,43,40,6,73,21,0,0.000,0,0,0.035,0.003,0.020,-0.020,0.020,-0.002,-0.035,1.001,0.002,-0.002,-0.006,0.000,0.000,0.000,0.000,0,0,0,0,7,255,0,250,0,0,2.111,-0.043,-0.001,2.111,-0.043,-0.001
11510.811,1.000,0.018,-0.000,0.000,57,79,88,43,21,1,73,40,0,0.000,0,0,0.049,0.012,-0.040,-0.020,0.020,-0.002,-0.037,1.002,-0.012,-0.002,-0.002,0.000,0.000,0.000,0.000,0,0,0,0,7,255,0,250,0,0,2.111,-0.043,-0.001,2.111,-0.043,-0.001
11515.811,1.000,0.018,-0.000,0.000,58,81,97,39,51,0,83,25,0,0.000,0,0,0.049,0.012,0.020,0.040,0.020,0.000,-0.037,1.001,-0.012,-0.002,-0.010,0.000,0.000,0.000,0.000,0,0,0,0,7,255,0,250,0,0,2.111,-0.043,-0.001,2.111,-0.043,-0.001
11520.811,1.000,0.018,-0.000,0.000,55,69,84,47,43,7,77,20,0,0.000,0,0,0.092,0.008,0.080,0.040,0.020,-0.001,-0.036,1.002,-0.008,-0.002,-0.002,0.000,0.000,0.000,0.000,0,0,0,0,7,255,0,250,0,0,2.111,-0.043,-0.001,2.111,-0.043,-0.001
11525.811,1.000,0.018,-0.000,0.000,88,89,59,75,27,11,46,51,0,0.000,0,0,0.035,0.004,0.020,-0.020,0.020,-0.001,-0.036,1.003,-0.002,0.004,-0.002,0.000,0.000,0.000,0.000,0,0,0,0,7,255,0,250,0,0,2.111,-0.043,-0.001,2.111,-0.043,-0.001
11530.811,1.000,0.018,-0.000,0.000,87,95,57,69,23,1,41,25,0,0.000,0,0,0.092,0.004,0.020,0.040,0.080,0.000,-0.037,1.002,-0.002,0.004,-0.002,0.000,0.000,0.000,0.000,0,0,0,0,7,255,0,250,0,0,2.111,-0.043,-0.001,2.111,-0.043,-0.001
11535.811,1.000,0.018,-0.000,0.000,59,77,91,44,43,2,73,17,0,0.000,0,0,0.092,0.003,0.080,-0.020,-0.040,-0.001,-0.038,1.001,-0.002,-0.002,-0.002,0.000,0.000,0.000,0.000,0,0,0,0,7,255,0,250,0,0,2.111,-0.043,-0.001,2.111,-0.043,-0.001
11540.811,1.000,0.018,-0.000,0.000,87,93,54,71,40,0,44,22,0,0.000,0,0,0.035,0.006,0.020,-0.020,0.020,-0.001,-0.037,1.002,-0.002,-0.006,-0.002,0.000,0.000,0.000,0.000,0,0,0,0,7,255,0,250,0,0,2.111,-0.043,-0.001,2.111,-0.043,-0.001
11545.811,1.000,0.018,-0.000,0.000,75,107,61,50,39,4,71,22,0,0.000,0,0,0.049,0.006,0.020,0.040,0.020,0.000,-0.037,1.002,-0.002,-0.006,-0.002,0.000,0.000,0.000,0.000,0,0,0,0,7,255,0,250,0,0,2.111,-0.043,-0.001,2.111,-0.043,-0.001
11550.811,1.000,0.018,-0.000,0.000,83,89,89,71,23,0,45,43,0,0.000,0,0,0.060,0.006,-0.040,0.040,0.020,0.000,-0.037,1.002,0.006,-0.002,-0.002,0.000,0.000,0.000,0.000,0,0,0,0,7,255,0,250,0,0,2.111,-0.043,-0.001,2.111,-0.043,-0.001
11555.813,1.000,0.018,-0.000,0.000,73,75,91,75,25,0,51,57,0,0.000,0,0,0.035,0.006,0.020,-0.020,0.020,-0.001,-0.036,1.002,0.006,-0.002,-0.002,0.000,0.000,0.000,0.000,0,0,0,0,7,255,0,250,0,0,2.111,-0.043,-0.001,2.111,-0.043,-0.001
11560.811,1.000,0.018,-0.000,0.000,77,63,88,43,39,0,77,43,0,0.000,0,0,0.049,0.003,0.020,-0.020,-0.040,-0.001,-0.037,1.002,-0.002,-0.002,-0.002,0.000,0.000,0.000,0.000,0,0,0,0,7,255,0,250,0,0,2.111,-0.043,-0.001,2.111,-0.043,-0.001
11565.813,1.000,0.018,-0.000,0.000,87,91,61,77,27,0,45,47,0,0.000,0,0,0.092,0.004,0.080,-0.020,-0.040,0.000,-0.036,1.004,-0.002,0.004,0.000,0.000,0.000,0.000,0.000,0,0,0,0,7,255,0,250,0,0,2.111,-0.043,-0.001,2.111,-0.043,-0.001
11570.811,1.000,0.018,-0.000,0.000,69,75,89,63,31,5,59,55,0,0.000,0,0,0.035,0.003,0.020,-0.020,0.020,0.000,-0.037,1.003,0.002,-0.002,0.004,0.000,0.000,0.000,0.000,0,0,0,0,7,255,0,250,0,0,2.111,-0.043,-0.001,2.111,-0.043,-0.001
11575.811,1.000,0.018,-0.000,0.000,61,93,59,40,48,0,43,20,0,0.000,0,0,0.085,0.004,0.020,-0.080,0.020,0.000,-0.036,1.002,0.002,0.004,0.004,0.000,0.000,0.000,0.000,0,0,0,0,7,255,0,250,0,0,2.111,-0.043,-0.001,2.111,-0.043,-0.001
11580.811,1.000,0.018,-0.000,0.000,79,87,55,41,23,0,41,14,0,0.000,0,0,0.085,0.003,0.080,-0.020,0.020,-0.001,-0.037,1.002,0.002,-0.002,-0.002,0.000,0.000,0.000,0.000,0,0,0,0,7,255,0,250,0,0,2.111,-0.043,-0.001,2.111,-0.043,-0.001
11585.811,1.000,0.018,-0.000,0.000,121,99,59,75,19,0,38,45,0,0.000,0,0,0.049,0.003,0.020,0.040,0.020,0.000,-0.037,1.003,0.002,-0.002,-0.002,0.000,0.000,0.000,0.000,0,0,0,0,7,255,0,250,0,0,2.111,-0.043,-0.001,2.111,-0.043,-0.001
11590.811,1.000,0.018,-0.000,0.000,63,96,55,58,43,3,59,31,0,0.000,0,0,0.092,0.003,0.020,0.040,0.080,-0.001,-0.037,1.003,-0.002,-0.002,0.008,0.000,0.000,0.000,0.000,0,0,0,0,7,255,0,250,0,0,2.111,-0.043,-0.001,2.111,-0.043,-0.001
11595.813,1.000,0.018,-0.000,0.000,61,79,87,41,39,9,75,24,0,0.000,0,0,0.092,0.003,0.020,0.040,0.080,-0.001,-0.037,1.003,-0.002,-0.002,0.008,0.000,0.000,0.000,0.000,0,0,0,0,7,255,0,250,0,0,2.111,-0.043,-0.001,2.111,-0.043,-0.001
11600.811,1.000,0.018,-0.000,0.000,81,94,58,75,18,0,45,40,0,0.000,0,0,0.049,0.006,0.020,0.040,0.020,-0.001,-0.037,1.002,-0.002,-0.006,0.004,0.000,0.000,0.000,0.000,0,0,0,0,7,255,0,250,0,0,2.111,-0.043,-0.001,2.111,-0.043,-0.001
11605.811,1.000,0.018,-0.000,0.000,87,99,71,67,24,2,41,31,0,0.000,0,0,0.092,0.003,0.020,0.040,0.080,0.000,-0.036,1.003,-0.002,-0.002,0.004,0.000,0.000,0.000,0.000,0,0,0,0,7,255,0,250,0,0,2.111,-0.043,-0.001,2.111,-0.043,-0.001
11610.811,1.000,0.018,-0.000,0.000,78,73,63,75,34,0,51,47,0,0.000,0,0,0.085,0.004,0.080,-0.020,0.020,0.000,-0.036,1.002,0.002,0.004,-0.002,0.000,0.000,0.000,0.000,0,0,0,0,7,255,0,250,0,0,2.111,-0.043,-0.001,2.111,-0.043,-0.001
11615.811,1.000,0.018,-0.000,0.000,89,95,67,81,37,0,41,34,0,0.000,0,0,0.049,0.004,0.020,0.040,0.020,-0.001,-0.037,1.001,0.002,0.004,-0.002,0.000,0.000,0.000,0.000,0,0,0,0,7,255,0,250,0,0,2.111,-0.043,-0.001,2.111,-0.043,-0.001
11620.811,1.000,0.018,-0.000,0.000,52,73,89,45,35,0,76,41,0,0.000,0,0,0.035,0.008,0.020,-0.020,0.020,-0.001,-0.037,1.002,-0.008,-0.002,-0.002,0.000,0.000,0.000,0.000,0,0,0,0,7,255,0,250,0,0,2.111,-0.043,-0.001,2.111,-0.043,-0.001
11625.811,1.000,0.018,-0.000,0.000,93,88,83,75,20,0,51,55,0,0.000,0,0,0.085,0.008,0.080,-0.020,0.020,0.000,-0.038,1.001,-0.008,-0.002,-0.010,0.000,0.000,0.000,0.000,0,0,0,0,7,255,0,250,0,0,2.111,-0.043,-0.001,2.111,-0.043,-0.001
11630.811,1.000,0.018,-0.000,0.000,57,66,88,57,24,0,60,51,0,0.000,0,0,0.035,0.006,0.020,-0.020,0.020,-0.001,-0.037,1.002,-0.002,-0.006,-0.002,0.000,0.000,0.000,0.000,0,0,0,0,7,255,0,250,0,0,2.111,-0.043,-0.001,2.111,-0.043,-0.001
11635.811,1.000,0.018,-0.000,0.000,83,94,59,54,21,0,43,40,0,0.000,0,0,0.035,0.006,0.020,-0.020,0.020,-0.001,-0.037,1.004,-0.002,-0.006,0.000,0.000,0.000,0.000,0.000,0,0,0,0,7,255,0,250,0,0,2.111,-0.043,-0.001,2.111,-0.043,-0.001
11640.811,1.000,0.018,-0.000,0.000,56,91,85,41,43,5,75,15,0,0.000,0,0,0.049,0.006,-0.040,-0.020,0.020,-0.001,-0.038,1.003,-0.002,-0.006,0.004,0.000,0.000,0.000,0.000,0,0,0,0,7,255,0,250,0,0,2.111,-0.043,-0.001,2.111,-0.043,-0.001
11645.811,1.000,0.018,-0.000,0.000,59,77,67,40,39,5,73,21,0,0.000,0,0,0.035,0.002,0.020,-0.020,0.020,0.000,-0.036,1.003,-0.002,0.000,0.004,0.000,0.000,0.000,0.000,0,0,0,0,7,255,0,250,0,0,2.111,-0.043,-0.001,2.111,-0.043,-0.001
11650.811,1.000,0.018,-0.000,0.000,60,75,87,42,47,11,82,22,0,0.000,0,0,0.092,0.008,0.080,-0.020,-0.040,-0.001,-0.037,1.002,-0.008,-0.002,0.004,0.000,0.000,0.000,0.000,0,0,0,0,7,255,0,250,0,0,2.111,-0.043,-0.001,2.111,-0.043,-0.001
11655.813,1.000,0.018,-0.000,0.000,80,100,55,67,39,0,41,24,0,0.000,0,0,0.085,0.008,0.080,-0.020,0.020,0.000,-0.038,1.002,0.008,-0.002,-0.002,0.000,0.000,0.000,0.000,0,0,0,0,7,255,0,250,0,0,2.111,-0.043,-0.001,2.111,-0.043,-0.001
11660.811,1.000,0.018,-0.000,0.000,57,81,89,47,28,0,75,56,0,0.000,0,0,0.049,0.003,0.020,0.040,0.020,-0.001,-0.036,1.002,-0.002,-0.002,-0.002,0.000,0.000,0.000,0.000,0,0,0,0,7,255,0,250,0,0,2.111,-0.043,-0.001,2.111,-0.043,-0.001
11665.811,1.000,0.018,-0.000,0.000,64,95,55,47,52,0,67,19,0,0.000,0,0,0.085,0.003,0.080,-0.020,0.020,0.000,-0.037,1.003,0.002,-0.002,-0.002,0.000,0.000,0.000,0.000,0,0,0,0,7,255,0,250,0,0,2.111,-0.043,-0.001,2.111,-0.043,-0.001
11670.811,1.000,0.018,-0.000,0.000,77,88,61,41,41,4,39,22,0,0.000,0,0,0.035,0.003,0.020,-0.020,0.020,-0.001,-0.037,1.002,-0.002,-0.002,-0.002,0.000,0.000,0.000,0.000,0,0,0,0,7,255,0,250,0,0,2.111,-0.043,-0.001,2.111,-0.043,-0.001
11675.811,1.000,0.018,-0.000,0.000,53,91,59,53,43,8,69,19,0,0.000,0,0,0.035,0.003,0.020,-0.020,0.020,0.000,-0.037,1.002,0.002,-0.002,-0.002,0.000,0.000,0.000,0.000,0,0,0,0,7,255,0,250,0,0,2.111,-0.043,-0.001,2.111,-0.043,-0.001
11680.811,1.000,0.018,-0.000,0.000,57,73,87,42,52,0,75,43,0,0.000,0,0,0.035,0.003,0.020,-0.020,0.020,0.000,-0.037,1.003,0.002,-0.002,-0.002,0.000,0.000,0.000,0.000,0,0,0,0,7,255,0,250,0,0,2.111,-0.043,-0.001,2.111,-0.043,-0.001
11685.811,1.000,0.018,-0.000,0.000,57,89,47,43,41,3,43,20,0,0.000,0,0,0.120,0.003,0.080,0.040,0.080,-0.001,-0.037,1.002,0.002,-0.002,-0.002,0.000,0.000,0.000,0.000,0,0,0,0,7,255,0,250,0,0,2.111,-0.043,-0.001,2.111,-0.043,-0.001
11690.811,1.000,0.018,-0.000,0.000,53,87,83,40,19,0,61,37,0,0.000,0,0,0.098,0.003,-0.040,0.040,0.080,-0.001,-0.036,1.003,-0.002,-0.002,0.004,0.000,0.000,0.000,0.000,0,0,0,0,7,255,0,250,0,0,2.111,-0.043,-0.001,2.111,-0.043,-0.001
11695.812,1.000,0.018,-0.000,0.000,73,75,83,77,20,0,48,57,0,0.000,0,0,0.035,0.003,0.020,-0.020,0.020,0.000,-0.037,1.002,-0.002,-0.002,-0.002,0.000,0.000,0.000,0.000,0,0,0,0,7,255,0,250,0,0,2.111,-0.043,-0.001,2.111,-0.043,-0.001
11700.811,1.000,0.018,-0.000,0.000,79,86,62,75,23,0,40,44,0,0.000,0,0,0.049,0.008,0.020,0.040,0.020,0.000,-0.037,1.002,0.008,-0.002,-0.002,0.000,0.000,0.000,0.000,0,0,0,0,7,255,0,250,0,0,2.111,-0.043,-0.001,2.111,-0.043,-0.001
11705.811,1.000,0.018,-0.000,0.000,73,101,55,52,43,6,59,43,0,0.000,0,0,0.060,0.008,-0.040,0.040,0.020,0.000,-0.037,1.001,0.008,-0.002,-0.006,0.000,0.000,0.000,0.000,0,0,0,0,7,255,0,250,0,0,2.111,-0.043,-0.001,2.111,-0.043,-0.001
11710.811,1.000,0.018,-0.000,0.000,56,19,85,45,23,0,81,33,0,0.000,0,0,0.035,0.006,0.020,-0.020,0.020,0.000,-0.037,1.000,0.006,-0.002,-0.010,0.000,0.000,0.000,0.000,0,0,0,0,7,255,0,250,0,0,2.111,-0.043,-0.001,2.111,-0.043,-0.001
11715.811,1.000,0.018,-0.000,0.000,48,72,79,45,49,3,67,30,0,0.000,0,0,0.147,0.003,0.140,0.040,0.020,0.000,-0.037,1.004,0.002,-0.002,-0.010,0.000,0.000,0.000,0.000,0,0,0,0,7,255,0,250,0,0,2.111,-0.043,-0.001,2.111,-0.043,-0.001
11720.811,1.000,0.018,-0.000,0.000,73,71,93,73,28,0,43,45,0,0.000,0,0,0.085,0.003,0.020,-0.020,0.080,-0.002,-0.039,1.002,0.002,-0.002,0.000,0.000,0.000,0.000,0.000,0,0,0,0,7,255,0,250,0,0,2.111,-0.043,-0.001,2.111,-0.043,-0.001
11725.811,1.000,0.018,-0.000,0.000,77,69,87,47,23,3,61,52,0,0.000,0,0,0.092,0.003,0.080,0.040,0.020,0.000,-0.037,1.001,0.002,-0.002,0.000,0.000,0.000,0.000,0.000,0,0,0,0,7,255,0,250,0,0,2.111,-0.043,-0.001,2.111,-0.043,-0.001
11730.811,1.000,0.018,-0.000,0.000,77,69,86,77,28,0,43,53,0,0.000,0,0,0.049,0.010,0.020,0.040,0.020,-0.001,-0.037,1.002,-0.008,-0.006,0.000,0.000,0.000,0.000,0.000,0,0,0,0,7,255,0,250,0,0,2.111,-0.043,-0.001,2.111,-0.043,-0.001
11735.811,1.000,0.018,-0.000,0.000,70,107,67,51,51,4,69,23,0,0.000,0,0,0.035,0.008,0.020,-0.020,0.020,-0.001,-0.037,1.003,-0.008,-0.002,0.000,0.000,0.000,0.000,0.000,0,0,0,0,7,255,0,250,0,0,2.111,-0.043,-0.001,2.111,-0.043,-0.001
11740.811,1.000,0.018,-0.000,0.000,60,87,89,47,42,9,75,20,0,0.000,0,0,0.092,0.008,0.080,0.040,0.020,-0.001,-0.037,1.004,-0.008,0.000,0.004,0.000,0.000,0.000,0.000,0,0,0,0,7,255,0,250,0,0,2.111,-0.043,-0.001,2.111,-0.043,-0.001
11745.811,1.000,0.018,-0.000,0.000,55,93,55,37,37,5,62,21,0,0.000,0,0,0.035,0.008,0.020,-0.020,0.020,0.000,-0.036,1.004,-0.008,0.000,0.014,0.000,0.000,0.000,0.000,0,0,0,0,7,255,0,250,0,0,2.111,-0.043,-0.001,2.111,-0.043,-0.001
11750.811,1.000,0.018,-0.000,0.000,77,81,79,77,29,0,83,44,0,0.000,0,0,0.085,0.009,0.080,-0.020,0.020,-0.002,-0.036,1.002,-0.008,0.004,0.014,0.000,0.000,0.000,0.000,0,0,0,0,7,255,0,250,0,0,2.111,-0.043,-0.001,2.111,-0.043,-0.001
11755.813,1.000,0.018,-0.000,0.000,67,87,85,49,40,2,79,22,0,0.000,0,0,0.035,0.014,0.020,-0.020,0.020,0.000,-0.036,1.001,0.012,0.008,-0.002,0.000,0.000,0.000,0.000,0,0,0,0,7,255,0,250,0,0,2.111,-0.043,-0.001,2.111,-0.043,-0.001
11760.811,1.000,0.018,-0.000,0.000,85,101,68,54,41,0,43,19,0,0.000,0,0,0.092,0.011,-0.040,-0.080,0.020,-0.001,-0.037,1.002,-0.008,0.008,-0.002,0.000,0.000,0.000,0.000,0,0,0,0,7,255,0,250,0,0,2.111,-0.043,-0.001,2.111,-0.043,-0.001
11765.811,1.000,0.018,-0.000,0.000,57,63,83,81,28,0,45,44,0,0.000,0,0,0.180,0.012,0.080,-0.080,0.140,0.001,-0.037,1.004,0.012,0.000,0.000,0.000,0.000,0.000,0.000,0,0,0,0,7,255,0,250,0,0,2.111,-0.043,-0.001,2.111,-0.043,-0.001
11770.812,1.000,0.018,-0.000,0.000,77,99,65,49,43,10,40,13,0,0.000,0,0,0.180,0.008,-0.160,-0.020,0.080,-0.002,-0.036,1.002,-0.008,0.000,0.000,0.000,0.000,0.000,0.000,0,0,0,0,7,255,0,250,0,0,2.111,-0.043,-0.001,2.111,-0.043,-0.001
11775.811,1.000,0.018,-0.000,0.000,87,97,61,72,41,4,39,28,0,0.000,0,0,0.222,0.008,-0.100,-0.140,0.140,0.000,-0.037,1.003,0.008,0.000,0.008,0.000,0.000,0.000,0.000,0,0,0,0,7,255,0,250,0,0,2.111,-0.043,-0.001,2.111,-0.043,-0.001
11780.811,1.000,0.018,-0.000,0.000,59,64,85,39,39,5,73,10,0,0.000,0,0,0.196,0.008,-0.160,-0.080,0.080,-0.001,-0.037,1.003,-0.008,0.000,0.008,0.000,0.000,0.000,0.000,0,0,0,0,7,255,0,250,0,0,2.111,-0.043,-0.001,2.111,-0.043,-0.001
11785.811,1.000,0.018,-0.000,0.000,86,99,69,81,20,0,45,55,0,0.000,0,0,0.247,0.003,-0.040,-0.200,0.140,-0.001,-0.037,1.002,-0.002,-0.002,0.008,0.000,0.000,0.000,0.000,0,0,0,0,7,255,0,250,0,0,2.111,-0.043,-0.001,2.111,-0.043,-0.001
11790.811,1.000,0.018,-0.000,0.000,55,69,97,73,28,2,77,52,0,0.000,0,0,0.199,0.002,0.020,-0.140,0.140,-0.001,-0.036,1.003,-0.002,0.000,0.008,0.000,0.000,0.000,0.000,0,0,0,0,7,255,0,250,0,0,2.111,-0.043,-0.001,2.111,-0.043,-0.001
11795.811,1.000,0.018,-0.000,0.000,81,73,83,75,20,0,47,52,0,0.000,0,0,0.202,0.003,-0.040,-0.140,0.140,0.000,-0.038,1.001,-0.002,-0.002,-0.002,0.000,0.000,0.000,0.000,0,0,0,0,7,255,0,250,0,0,2.111,-0.043,-0.001,2.111,-0.043,-0.001
11800.812,1.000,0.018,-0.000,0.000,70,59,88,25,47,9,77,29,0,0.000,0,0,0.219,0.004,-0.040,-0.200,0.080,-0.002,-0.036,1.001,-0.002,0.004,-0.016,0.000,0.000,0.000,0.000,0,0,0,0,7,255,0,250,0,0,2.111,-0.043,-0.001,2.111,-0.043,-0.001
11805.811,1.000,0.018,-0.000,0.000,56,84,57,43,40,7,64,11,0,0.000,0,0,0.413,0.006,0.080,-0.380,0.140,-0.001,-0.037,1.004,-0.006,0.000,-0.016,0.000,0.000,0.000,0.000,0,0,0,0,7,255,0,250,0,0,2.111,-0.043,-0.001,2.111,-0.043,-0.001
11810.811,1.000,0.018,-0.000,-0.000,79,100,52,42,11,0,37,18,0,0.000,0,0,0.705,0.014,-0.100,-0.620,0.320,-0.003,-0.036,1.004,-0.012,0.008,0.012,0.000,0.000,0.000,0.000,0,0,0,0,7,255,0,250,0,0,2.111,-0.040,-0.001,2.111,-0.040,-0.001
11815.811,1.000,0.018,-0.000,-0.000,46,67,89,31,41,5,71,43,0,0.000,0,0,1.772,0.026,0.020,-1.420,1.060,-0.006,-0.038,1.001,-0.026,0.000,0.012,0.000,0.000,0.000,0.000,0,0,0,0,7,255,0,250,0,0,2.111,-0.035,0.005,2.111,-0.035,0.005
11820.811,1.000,0.018,-0.000,-0.000,56,69,83,41,40,6,75,39,0,0.000,0,0,2.400,0.026,0.440,-0.800,2.220,0.010,-0.036,1.001,-0.026,0.004,-0.012,0.000,0.000,0.000,0.000,0,0,0,0,7,255,0,250,0,0,2.111,-0.028,0.016,2.111,-0.028,0.016
11825.811,1.000,0.018,-0.000,-0.000,63,99,63,50,40,5,59,25,0,0.000,0,0,3.909,0.052,1.600,1.140,3.380,-0.031,-0.017,1.005,-0.052,0.004,-0.012,0.000,0.000,0.000,0.000,0,0,0,0,7,255,0,250,0,0,2.097,-0.043,0.032,2.097,-0.043,0.032
11830.811,1.000,0.018,-0.001,-0.000,89,103,61,75,26,0,44,25,0,0.000,0,0,7.534,0.294,5.500,1.580,4.900,-0.117,-0.060,1.002,-0.294,0.004,0.004,0.000,0.000,0.000,0.000,0,0,0,0,7,255,0,250,0,0,2.076,-0.083,0.056,2.076,-0.083,0.056
11835.811,1.000,0.018,-0.001,-0.001,57,71,76,41,45,3,69,25,0,0.000,0,0,10.955,1.103,1.240,-0.320,10.880,-0.114,-0.022,1.000,-1.096,0.128,0.004,0.000,0.000,0.000,0.000,0,0,0,0,7,255,0,250,0,0,2.066,-0.117,0.109,2.066,-0.117,0.109
11840.811,1.000,0.018,-0.001,-0.001,86,91,60,77,21,0,47,36,0,0.000,0,0,5.041,1.096,1.720,-0.860,4.660,-0.089,-0.039,1.001,-1.096,-0.032,-0.012,0.000,0.000,0.000,0.000,0,0,0,0,7,255,0,250,0,0,2.057,-0.137,0.131,2.057,-0.137,0.131
11845.811,1.000,0.018,-0.001,-0.001,49,61,89,21,45,5,60,26,0,0.000,0,0,4.721,1.032,0.940,0.780,-4.560,-0.107,0.000,1.006,-1.024,0.128,-0.012,0.000,0.000,0.000,0.000,0,0,0,0,7,255,0,250,0,0,2.042,-0.169,0.107,2.042,-0.169,0.107
11850.811,1.000,0.018,-0.002,-0.000,60,75,59,51,37,0,69,17,0,0.000,0,0,17.009,1.079,-1.320,0.780,-16.940,-0.114,0.001,1.012,-1.024,0.340,0.028,0.000,0.000,0.000,0.000,0,0,0,0,7,255,0,250,0,0,2.039,-0.198,0.022,2.039,-0.198,0.022
11855.813,1.000,0.018,-0.002,0.001,59,87,64,39,39,2,60,16,0,0.000,0,0,30.232,1.085,1.060,0.900,-30.200,-0.103,0.007,0.995,-1.024,0.358,0.028,0.000,0.000,0.000,0.000,0,0,0,0,7,255,0,250,0,0,2.026,-0.215,-0.130,2.026,-0.215,-0.130
11860.811,1.000,0.018,-0.002,0.003,55,71,61,38,49,5,61,23,0,0.000,0,0,39.668,1.036,-3.400,6.520,-38.980,-0.008,-0.041,1.021,-0.972,0.358,0.080,0.000,0.000,0.000,0.000,0,0,0,0,7,255,0,250,0,0,2.043,-0.240,-0.326,2.043,-0.240,-0.326
11865.811,1.000,0.018,-0.002,0.005,85,75,87,71,25,4,55,53,0,0.000,0,0,41.473,0.059,5.260,-7.220,-40.500,0.262,-0.104,0.957,-0.040,-0.044,-0.084,0.000,0.000,0.000,0.000,0,0,0,0,7,255,0,250,0,0,2.025,-0.171,-0.526,2.025,-0.171,-0.526
11870.811,1.000,0.018,-0.001,0.006,77,91,57,77,38,0,44,19,0,0.000,0,0,28.400,2.680,1.060,-1.060,-28.360,0.431,-0.102,1.030,2.588,-0.696,0.178,0.000,0.000,0.000,0.000,0,0,0,0,7,255,0,250,0,0,2.027,-0.117,-0.667,2.027,-0.117,-0.667
11875.811,1.000,0.018,-0.001,0.006,93,102,55,71,40,1,42,31,0,0.000,0,0,14.662,2.686,0.620,5.780,-13.460,0.154,-0.117,1.018,2.588,-0.720,0.172,0.000,0.000,0.000,0.000,0,0,0,0,7,255,0,250,0,0,2.046,-0.105,-0.734,2.046,-0.105,-0.734
11880.811,1.000,0.018,-0.001,0.006,79,93,59,39,40,6,73,21,0,0.000,0,0,11.322,1.727,-2.060,0.540,11.120,0.014,-0.272,0.994,1.522,-0.816,0.172,0.000,0.000,0.000,0.000,0,0,0,0,7,255,0,250,0,0,2.120,-0.103,-0.679,2.120,-0.103,-0.679
11885.811,1.000,0.019,-0.001,0.004,123,102,54,74,19,0,39,43,0,0.000,0,0,34.687,2.245,-0.040,-0.680,34.680,-0.042,-0.264,0.942,0.124,-2.242,0.002,0.000,0.000,0.000,0.000,0,0,0,0,7,255,0,250,0,0,2.154,-0.112,-0.505,2.154,-0.112,-0.505
11890.811,1.000,0.019,-0.001,0.003,75,75,57,73,30,0,45,42,0,0.000,0,0,37.262,2.281,2.640,-7.520,36.400,-0.098,-0.103,1.032,-0.418,-2.242,0.002,0.000,0.000,0.000,0.000,0,0,0,0,7,255,0,250,0,0,2.148,-0.091,-0.323,2.148,-0.091,-0.323
11895.813,1.000,0.018,-0.001,0.002,87,77,92,76,27,0,61,57,0,0.000,0,0,17.110,1.132,2.520,-0.320,16.920,-0.119,0.068,1.021,-0.944,-0.624,0.140,0.000,0.000,0.000,0.000,0,0,0,0,7,255,0,250,0,0,2.108,-0.123,-0.239,2.108,-0.123,-0.239
