t_ms,L_q0,L_q1,L_q2,L_q3,L_heel1,L_mid1,L_fore1,L_heel2,L_fore3,L_mid2,L_fore4,L_fore2,L_cadence,L_speed,L_steps,L_zupt,L_gyroNorm,L_accH,L_gyro_x,L_gyro_y,L_gyro_z,L_acc_x,L_acc_y,L_acc_z,L_nav_ax,L_nav_ay,L_nav_az,L_stepVel,L_stepVelj,L_stepDispRaw,L_stepDispZUPT,L_gaitEvent,L_motorMode,L_motorActive,L_motorAlignment,L_motorRegionMask,L_motorAmplitude,L_motorIntervalMs,L_motorDurationMs,L_motorPhaseMs,L_motorCycleMs,L_roll,L_pitch,L_yaw,L_relativeRoll,L_relativePitch,L_relativeYaw
87279.815,0.832,0.019,-0.053,0.553,275,0,933,1094,745,460,691,1055,42,0.000,13,0,22.201,0.320,-15.140,-13.140,-9.540,-0.066,-0.052,1.042,0.320,0.014,0.160,0.052,0.046,0.654,0.619,3,0,0,0,7,255,0,250,0,0,5.234,-3.875,-67.385,5.234,-3.875,-67.385
87284.815,0.831,0.020,-0.053,0.553,183,0,939,979,745,424,687,1050,42,0.000,13,0,24.817,0.335,-18.300,-14.180,-8.940,-0.088,-0.061,1.041,0.320,0.098,0.350,0.062,0.054,0.654,0.619,3,0,0,0,7,255,0,250,0,0,5.323,-3.803,-67.424,5.323,-3.803,-67.424
87289.816,0.831,0.021,-0.053,0.553,152,0,935,917,739,384,703,1055,42,0.000,13,0,28.267,0.264,-21.000,-14.980,-11.560,-0.084,-0.080,1.025,0.174,0.198,0.350,0.070,0.064,0.654,0.619,3,0,0,0,7,255,0,250,0,0,5.431,-3.725,-67.475,5.431,-3.725,-67.475
87294.815,0.831,0.022,-0.053,0.553,83,0,949,819,742,375,723,1061,42,0.000,13,0,26.527,0.198,-17.820,-16.820,-10.160,-0.074,-0.107,1.007,0.014,0.198,0.214,0.084,0.074,0.654,0.619,3,0,0,0,7,255,0,250,0,0,5.527,-3.637,-67.517,5.527,-3.637,-67.517
87299.815,0.831,0.023,-0.053,0.554,47,0,947,731,745,364,745,1042,42,0.000,13,0,23.615,0.200,-12.820,-18.940,-5.880,-0.074,-0.129,1.019,-0.198,0.028,0.198,0.096,0.088,0.654,0.619,3,0,0,0,7,255,0,250,0,0,5.600,-3.541,-67.538,5.600,-3.541,-67.538
87304.815,0.831,0.024,-0.052,0.554,4,0,947,660,751,350,731,1019,42,0.000,13,0,23.143,0.283,-8.420,-21.500,-1.560,-0.093,-0.119,1.090,-0.282,0.028,0.198,0.116,0.106,0.654,0.619,3,0,0,0,7,255,0,250,0,0,5.646,-3.436,-67.535,5.646,-3.436,-67.535
87309.816,0.831,0.025,-0.052,0.553,0,0,941,570,759,334,736,1033,42,0.000,13,0,28.070,0.337,-10.380,-25.540,5.280,-0.099,-0.072,1.171,-0.282,0.184,0.894,0.134,0.126,0.654,0.619,3,0,0,0,7,255,0,250,0,0,5.694,-3.313,-67.496,5.694,-3.313,-67.496
87314.815,0.831,0.027,-0.051,0.553,0,0,973,489,767,328,760,1029,42,0.000,13,0,40.810,0.384,-25.380,-29.620,12.000,-0.079,-0.062,1.188,0.212,0.320,1.640,0.156,0.146,0.654,0.619,3,0,0,0,7,255,0,250,0,0,5.817,-3.171,-67.422,5.817,-3.171,-67.422
87319.815,0.832,0.029,-0.051,0.552,0,0,973,412,776,334,778,1031,42,0.000,13,0,50.018,0.384,-36.980,-29.560,16.140,-0.070,-0.097,1.121,0.212,0.320,1.640,0.176,0.166,0.654,0.619,3,0,0,0,7,255,0,250,0,0,5.998,-3.032,-67.326,5.998,-3.032,-67.326
87324.817,0.832,0.031,-0.051,0.551,0,0,967,366,793,325,777,1019,42,0.000,13,0,51.606,0.295,-38.020,-29.500,18.640,-0.089,-0.119,1.021,0.072,0.286,1.156,0.200,0.190,0.654,0.619,3,0,0,0,7,255,0,250,0,0,6.185,-2.895,-67.217,6.185,-2.895,-67.217
87329.816,0.833,0.033,-0.051,0.551,0,0,984,328,791,325,805,1019,42,0.000,13,0,48.483,0.409,-31.300,-31.400,19.620,-0.119,-0.142,0.978,-0.292,0.286,0.208,0.224,0.214,0.654,0.619,3,0,0,0,7,255,0,250,0,0,6.339,-2.752,-67.103,6.339,-2.752,-67.103
87334.815,0.833,0.034,-0.050,0.550,0,0,1001,288,805,301,813,1031,42,0.000,13,0,44.259,0.813,-19.520,-35.480,17.860,-0.158,-0.188,0.991,-0.644,0.496,0.024,0.252,0.242,0.654,0.619,3,0,0,0,7,255,0,250,0,0,6.440,-2.593,-66.995,6.440,-2.593,-66.995
87339.815,0.833,0.036,-0.049,0.549,0,0,1015,244,824,304,823,1019,42,0.000,13,0,41.893,0.939,-13.840,-38.060,10.720,-0.132,-0.141,1.044,-0.644,0.684,0.024,0.280,0.270,0.654,0.619,3,0,0,0,7,255,0,250,0,0,6.509,-2.415,-66.920,6.509,-2.415,-66.920
87344.816,0.834,0.037,-0.048,0.549,0,0,1015,221,838,307,837,1015,42,0.000,13,0,44.524,0.914,-18.860,-39.880,6.020,-0.096,-0.123,1.063,-0.606,0.684,0.476,0.310,0.300,0.654,0.619,3,0,0,0,7,255,0,250,0,0,6.603,-2.223,-66.868,6.603,-2.223,-66.868
87349.816,0.834,0.039,-0.047,0.549,0,0,1023,191,841,287,855,1015,42,0.000,13,0,48.927,0.553,-21.780,-42.560,10.400,-0.064,-0.124,1.099,-0.284,0.474,0.620,0.342,0.330,0.654,0.619,3,0,0,0,7,255,0,250,0,0,6.711,-2.017,-66.791,6.711,-2.017,-66.791
87354.815,0.834,0.041,-0.046,0.548,0,0,1039,169,845,279,884,1002,42,0.000,13,0,51.871,0.343,-21.000,-43.840,18.100,-0.058,-0.096,1.083,-0.124,0.320,0.778,0.376,0.366,0.654,0.619,3,0,0,0,7,255,0,250,0,0,6.814,-1.810,-66.676,6.814,-1.810,-66.676
87359.815,0.835,0.043,-0.045,0.547,0,0,1037,118,861,274,909,1013,42,0.000,13,0,55.996,0.343,-23.620,-46.040,21.400,-0.085,-0.112,1.050,-0.124,0.320,0.778,0.406,0.396,0.654,0.619,3,0,0,0,7,255,0,250,0,0,6.930,-1.594,-66.542,6.930,-1.594,-66.542
87364.817,0.836,0.045,-0.044,0.546,0,0,1049,101,869,259,909,1006,42,0.000,13,0,57.260,0.561,-20.740,-48.600,22.060,-0.109,-0.146,1.031,-0.158,0.538,0.480,0.446,0.434,0.654,0.619,3,0,0,0,7,255,0,250,0,0,7.032,-1.365,-66.403,7.032,-1.365,-66.403
87369.816,0.836,0.047,-0.042,0.545,0,0,1061,58,884,249,927,1003,42,0.000,13,0,58.252,0.876,-16.660,-52.020,20.240,-0.112,-0.163,1.031,-0.576,0.660,0.350,0.484,0.474,0.654,0.619,3,0,0,0,7,255,0,250,0,0,7.114,-1.119,-66.270,7.114,-1.119,-66.270
87374.815,0.837,0.048,-0.040,0.544,0,0,1068,10,885,223,935,1001,42,0.000,13,0,59.967,0.980,-14.040,-55.260,18.580,-0.099,-0.166,1.036,-0.724,0.660,0.350,0.528,0.518,0.654,0.619,3,0,0,0,7,255,0,250,0,0,7.184,-0.856,-66.143,7.184,-0.856,-66.143
87379.815,0.837,0.050,-0.039,0.543,0,0,1072,7,895,217,952,1015,42,0.000,13,0,64.503,0.948,-14.520,-59.540,20.120,-0.083,-0.179,1.050,-0.744,0.588,0.400,0.568,0.556,0.654,0.619,3,0,0,0,7,255,0,250,0,0,7.257,-0.572,-66.006,7.257,-0.572,-66.006
87384.816,0.838,0.052,-0.037,0.542,0,0,1108,3,915,203,972,1007,42,0.000,13,0,71.269,0.933,-13.840,-65.880,23.400,-0.105,-0.134,1.013,-0.724,0.588,0.400,0.604,0.592,0.654,0.619,3,0,0,0,7,255,0,250,0,0,7.326,-0.260,-65.848,7.326,-0.260,-65.848
87389.819,0.838,0.056,-0.035,0.541,0,0,1120,0,934,203,999,1019,42,0.000,13,0,87.020,1.003,-38.500,-75.100,21.220,-0.086,-0.106,1.081,-0.516,0.860,0.544,0.630,0.620,0.654,0.619,3,0,0,0,7,255,0,250,0,0,7.521,0.100,-65.694,7.521,0.100,-65.694
87394.815,0.839,0.058,-0.033,0.540,0,0,1105,0,965,183,1016,1023,42,0.000,13,0,80.881,1.003,-22.880,-72.720,27.020,-0.041,-0.256,1.159,-0.516,0.860,0.748,0.662,0.650,0.654,0.619,3,0,0,0,7,255,0,250,0,0,7.638,0.443,-65.513,7.638,0.443,-65.513
87399.815,0.840,0.060,-0.030,0.539,0,0,1115,0,970,182,1021,1043,42,0.000,13,0,78.627,0.812,0.380,-71.000,33.780,-0.064,-0.158,1.072,-0.522,0.622,0.748,0.692,0.682,0.654,0.619,3,0,0,0,7,255,0,250,0,0,7.642,0.773,-65.298,7.642,0.773,-65.298
87404.816,0.841,0.062,-0.028,0.537,0,0,1130,0,987,167,1049,1017,42,0.000,13,0,88.089,0.812,-8.720,-78.700,38.600,-0.057,-0.151,1.056,-0.522,0.622,0.716,0.732,0.720,0.654,0.619,3,0,0,0,7,255,0,250,0,0,7.692,1.137,-65.054,7.692,1.137,-65.054
87409.815,0.842,0.064,-0.025,0.535,0,0,1129,0,1006,173,1051,1019,42,0.000,13,0,92.137,0.812,-16.900,-82.300,37.820,-0.047,-0.191,1.071,-0.522,0.622,0.716,0.770,0.758,0.654,0.619,3,0,0,0,7,255,0,250,0,0,7.783,1.520,-64.811,7.783,1.520,-64.811
87414.815,0.843,0.066,-0.022,0.534,0,0,1109,0,1007,151,1039,1016,42,0.000,13,0,89.286,0.779,8.360,-80.220,38.300,-0.037,-0.163,1.015,-0.592,0.506,0.552,0.810,0.798,0.654,0.619,3,0,0,0,7,255,0,250,0,0,7.751,1.892,-64.567,7.751,1.892,-64.567
87419.815,0.844,0.067,-0.019,0.532,0,0,1105,0,1032,139,1053,1000,42,0.000,13,0,95.988,0.779,12.640,-85.780,41.180,-0.034,-0.145,1.056,-0.592,0.506,0.530,0.848,0.836,0.654,0.619,3,0,0,0,7,255,0,250,0,0,7.699,2.290,-64.305,7.699,2.290,-64.305
87424.817,0.845,0.069,-0.015,0.530,0,0,1097,0,1041,128,1067,1019,42,0.000,13,0,98.439,0.774,18.980,-87.060,41.840,-0.027,-0.123,1.063,-0.424,0.648,0.530,0.882,0.870,0.654,0.619,3,0,0,0,7,255,0,250,0,0,7.617,2.695,-64.039,7.617,2.695,-64.039
87429.815,0.846,0.070,-0.012,0.528,0,0,1103,0,1051,127,1091,1000,42,0.000,13,0,101.831,0.704,18.860,-90.120,43.500,-0.009,-0.123,1.074,-0.244,0.660,0.570,0.916,0.904,0.654,0.619,3,0,0,0,7,255,0,250,0,0,7.539,3.113,-63.764,7.539,3.113,-63.764
87434.815,0.847,0.071,-0.008,0.526,0,0,1115,0,1067,128,1109,991,42,0.000,13,0,105.966,0.757,20.700,-93.100,46.180,-0.001,-0.110,1.092,-0.202,0.730,0.684,0.942,0.932,0.654,0.619,3,0,0,0,7,255,0,250,0,0,7.454,3.545,-63.474,7.454,3.545,-63.474
87439.815,0.848,0.073,-0.004,0.524,0,0,1112,0,1243,126,1133,989,42,0.000,13,0,109.884,0.736,22.580,-95.920,48.620,-0.012,-0.087,1.103,-0.094,0.730,0.842,0.964,0.952,0.654,0.619,3,0,0,0,7,255,0,250,0,0,7.363,3.990,-63.170,7.363,3.990,-63.170
87444.816,0.850,0.074,-0.000,0.522,0,0,1117,0,1261,104,1157,1001,42,0.000,13,0,111.803,0.996,23.020,-98.100,48.440,-0.004,-0.043,1.129,0.008,0.996,0.902,0.974,0.962,0.654,0.619,3,0,0,0,7,255,0,250,0,0,7.272,4.446,-62.866,7.272,4.446,-62.866
87449.815,0.851,0.076,0.004,0.520,0,0,1111,0,1269,83,1176,969,42,0.000,13,0,112.988,1.280,19.660,-100.980,46.720,0.004,-0.015,1.128,0.386,1.220,1.058,0.976,0.964,0.654,0.619,3,0,0,0,7,255,0,250,0,0,7.200,4.918,-62.570,7.200,4.918,-62.570
87454.815,0.852,0.078,0.008,0.518,0,0,1111,0,1287,51,1193,982,42,0.000,13,0,112.763,1.479,18.740,-102.620,42.820,0.017,0.009,1.133,0.608,1.348,1.080,0.976,0.964,0.654,0.619,3,0,0,0,7,255,0,250,0,0,7.133,5.401,-62.292,7.133,5.401,-62.292
87459.816,0.853,0.079,0.012,0.516,0,0,1113,0,1290,37,1235,973,42,0.000,13,0,113.378,1.652,18.200,-103.960,41.420,0.012,0.020,1.147,0.816,1.436,1.080,0.976,0.964,0.654,0.619,3,0,0,0,7,255,0,250,0,0,7.071,5.892,-62.021,7.071,5.892,-62.021
87464.817,0.854,0.081,0.017,0.515,0,0,1121,0,1306,33,1245,971,42,0.000,13,0,113.993,1.821,20.260,-106.040,36.600,-0.023,-0.029,1.166,0.816,1.628,1.200,0.974,0.962,0.654,0.619,3,0,0,0,7,255,0,250,0,0,6.998,6.397,-61.773,6.998,6.397,-61.773
87469.815,0.854,0.083,0.021,0.513,0,0,1124,0,1311,20,1270,970,42,0.000,13,0,115.424,1.831,18.560,-109.400,31.780,-0.039,-0.057,1.189,0.196,1.820,1.390,0.974,0.962,0.654,0.619,3,0,0,0,7,255,0,250,0,0,6.933,6.921,-61.548,6.933,6.921,-61.548
87474.815,0.855,0.085,0.025,0.512,0,0,1119,0,1325,16,1291,965,42,0.000,13,0,115.463,1.960,16.860,-111.840,23.220,-0.087,-0.093,1.219,-0.178,1.952,1.618,0.984,0.972,0.654,0.619,3,0,0,0,7,255,0,250,0,0,6.874,7.463,-61.364,6.874,7.463,-61.364
87479.816,0.855,0.087,0.030,0.511,0,0,1105,0,1331,6,1289,939,42,0.000,13,0,117.813,2.460,16.240,-116.000,12.660,-0.108,-0.086,1.289,-0.770,2.336,1.870,1.010,0.996,0.654,0.619,3,0,0,0,7,255,0,250,0,0,6.812,8.032,-61.230,6.812,8.032,-61.230
87484.816,0.855,0.089,0.035,0.510,0,0,1064,0,1337,9,1320,927,42,0.000,13,0,120.913,2.894,4.700,-120.820,-0.520,-0.122,-0.093,1.312,-0.852,2.766,2.482,1.038,1.024,0.654,0.619,3,0,0,0,7,255,0,250,0,0,6.801,8.632,-61.158,6.801,8.632,-61.158
87489.815,0.854,0.092,0.039,0.510,0,0,1047,0,1339,0,1317,907,42,0.000,13,0,126.925,3.146,-2.000,-126.240,-13.020,-0.101,-0.091,1.328,-0.986,2.988,2.656,1.070,1.056,0.654,0.619,3,0,0,0,7,255,0,250,0,0,6.814,9.267,-61.148,6.814,9.267,-61.148
87494.815,0.853,0.095,0.044,0.511,0,0,1013,0,1327,10,1341,876,42,0.000,13,0,133.890,3.146,-5.000,-131.860,-22.680,-0.051,-0.039,1.344,-0.986,2.988,2.812,1.098,1.084,0.654,0.619,3,0,0,0,7,255,0,250,0,0,6.836,9.936,-61.182,6.836,9.936,-61.182
87499.816,0.852,0.099,0.049,0.511,0,0,999,0,1317,13,1343,823,42,0.000,13,0,140.299,3.038,-16.220,-136.200,-29.500,-0.046,-0.057,1.353,-0.550,2.988,2.948,1.124,1.110,0.654,0.619,3,0,0,0,7,255,0,250,0,0,6.907,10.630,-61.248,6.907,10.630,-61.248
87504.815,0.851,0.103,0.054,0.512,0,0,975,0,1323,1,1354,800,42,0.000,13,0,148.365,3.057,-17.880,-143.640,-32.560,-0.083,-0.029,1.402,-0.534,3.010,3.032,1.148,1.132,0.654,0.619,3,0,0,0,7,255,0,250,0,0,6.984,11.363,-61.324,6.984,11.363,-61.324
87509.815,0.850,0.107,0.059,0.513,0,0,947,0,1298,6,1352,774,42,0.000,13,0,157.050,3.750,-21.120,-150.180,-40.800,-0.131,0.037,1.501,-0.534,3.712,3.358,1.172,1.156,0.654,0.619,3,0,0,0,7,255,0,250,0,0,7.068,12.134,-61.437,7.068,12.134,-61.437
87514.815,0.848,0.111,0.065,0.514,0,0,889,0,1269,0,1357,741,42,0.000,13,0,169.433,4.836,-34.180,-157.380,-52.640,-0.172,-0.023,1.547,-0.534,4.806,4.072,1.190,1.174,0.654,0.619,3,0,0,0,7,255,0,250,0,0,7.204,12.948,-61.605,7.204,12.948,-61.605
87519.816,0.846,0.117,0.070,0.515,0,0,856,0,1243,0,1369,699,42,0.000,13,0,183.439,5.293,-43.820,-169.340,-55.260,-0.187,-0.031,1.584,-0.996,5.198,4.424,1.206,1.190,0.654,0.619,3,0,0,0,7,255,0,250,0,0,7.386,13.824,-61.776,7.386,13.824,-61.776
87524.817,0.844,0.122,0.076,0.517,0,0,829,0,1223,0,1367,711,42,0.000,13,0,194.136,5.688,-47.300,-179.400,-57.160,-0.239,0.031,1.639,-0.996,5.600,4.662,1.216,1.200,0.654,0.619,3,0,0,0,7,255,0,250,0,0,7.582,14.751,-61.948,7.582,14.751,-61.948
87529.815,0.842,0.129,0.082,0.518,0,0,800,0,1214,0,1325,723,42,0.000,13,0,210.577,6.792,-60.480,-192.100,-61.500,-0.281,-0.021,1.669,-1.174,6.690,4.872,1.226,1.208,0.654,0.619,3,0,0,0,7,255,0,250,0,0,7.838,15.744,-62.130,7.838,15.744,-62.130
87534.815,0.839,0.135,0.088,0.520,0,0,757,0,1196,0,1309,629,42,0.000,13,0,226.750,7.320,-67.620,-205.220,-68.760,-0.269,-0.013,1.697,-1.494,7.166,4.992,1.234,1.216,0.654,0.619,3,0,0,0,7,255,0,250,0,0,8.120,16.809,-62.336,8.120,16.809,-62.336
87539.816,0.836,0.143,0.095,0.521,0,0,683,0,1146,0,1279,649,42,0.000,13,0,239.600,7.634,-66.160,-219.880,-68.440,-0.241,-0.065,1.740,-1.584,7.468,5.128,1.240,1.224,0.654,0.619,3,0,0,0,7,255,0,250,0,0,8.396,17.947,-62.525,8.396,17.947,-62.525
87544.815,0.833,0.150,0.103,0.522,0,0,612,0,1097,0,1252,620,42,0.000,13,0,259.825,7.633,-64.380,-245.020,-57.700,-0.217,-0.034,1.786,-1.568,7.470,5.520,1.248,1.230,0.654,0.619,3,0,0,0,7,255,0,250,0,0,8.685,19.202,-62.634,8.685,19.202,-62.634
87549.815,0.831,0.158,0.112,0.522,0,0,558,0,1051,0,1205,612,42,0.000,13,0,277.872,8.054,-59.200,-268.400,-40.860,-0.251,0.082,1.802,-1.568,7.900,5.520,1.258,1.240,0.654,0.619,3,0,0,0,7,255,0,250,0,0,8.985,20.560,-62.630,8.985,20.560,-62.630
87554.816,0.828,0.167,0.121,0.521,0,0,491,0,1007,0,1144,523,42,0.000,13,0,300.179,9.101,-55.540,-293.780,-26.760,-0.308,0.282,1.946,-0.780,9.068,5.802,1.268,1.250,0.654,0.619,3,0,0,0,7,255,0,250,0,0,9.304,22.032,-62.521,9.304,22.032,-62.521
87559.816,0.825,0.175,0.132,0.520,0,0,416,0,940,0,1081,457,42,0.000,13,0,314.991,11.147,-44.420,-309.660,-36.840,-0.256,0.105,2.076,-0.780,11.120,6.012,1.280,1.262,0.654,0.619,3,0,0,0,7,255,0,250,0,0,9.558,23.590,-62.442,9.558,23.590,-62.442
87564.817,0.822,0.184,0.143,0.519,0,0,395,0,865,0,1039,440,42,0.000,13,0,332.047,11.159,-46.500,-327.060,-33.540,-0.203,0.018,2.122,-0.928,11.120,7.340,1.294,1.274,0.654,0.619,3,0,0,0,7,255,0,250,0,0,9.843,25.231,-62.321,9.843,25.231,-62.321
87569.815,0.819,0.193,0.154,0.518,0,0,309,0,775,0,969,435,42,0.000,13,0,342.745,11.212,-39.180,-339.200,-29.700,-0.139,0.042,2.224,-1.430,11.120,7.770,1.310,1.290,0.654,0.619,3,0,0,0,7,255,0,250,0,0,10.113,26.927,-62.157,10.113,26.927,-62.157
87574.816,0.816,0.202,0.166,0.516,0,0,248,0,698,0,901,427,42,0.000,13,0,347.236,11.713,-23.920,-344.760,-33.780,-0.145,0.011,2.391,-1.664,11.594,8.564,1.324,1.304,0.654,0.619,3,0,0,0,7,255,0,250,0,0,10.308,28.654,-61.999,10.308,28.654,-61.999
87579.816,0.812,0.210,0.178,0.514,0,0,244,0,601,0,872,410,42,0.000,13,0,352.884,13.023,-33.200,-349.880,-31.760,-0.147,-0.137,2.469,-2.052,12.860,9.648,1.344,1.322,0.654,0.619,3,0,0,0,7,255,0,250,0,0,10.567,30.404,-61.814,10.567,30.404,-61.814
87584.815,0.808,0.220,0.190,0.513,0,0,181,0,493,0,817,409,42,0.000,13,0,367.905,13.373,-56.880,-361.420,-38.660,-0.143,-0.236,2.331,-3.668,12.860,9.648,1.362,1.340,0.654,0.619,3,0,0,0,7,255,0,250,0,0,10.942,32.215,-61.642,10.942,32.215,-61.642
87589.817,0.803,0.231,0.202,0.511,0,0,140,0,417,0,717,436,42,0.000,13,0,385.213,13.544,-75.920,-376.620,-27.980,-0.078,-0.306,1.947,-4.618,12.732,8.714,1.382,1.360,0.654,0.619,3,0,0,0,7,255,0,250,0,0,11.474,34.091,-61.368,11.474,34.091,-61.368
87594.816,0.799,0.242,0.214,0.507,0,0,100,0,280,0,587,389,42,0.000,13,0,388.346,11.501,-58.960,-383.820,-4.300,0.011,-0.476,1.543,-4.812,10.446,5.662,1.400,1.380,0.654,0.619,3,0,0,0,7,255,0,250,0,0,12.029,35.974,-60.917,12.029,35.974,-60.917
87599.816,0.795,0.251,0.227,0.503,0,0,79,0,219,0,424,372,42,0.000,13,0,390.504,9.318,-16.600,-389.560,21.460,0.127,-0.560,1.241,-5.774,7.314,2.928,1.422,1.400,0.654,0.619,3,0,0,0,7,255,0,250,0,0,12.504,37.855,-60.268,12.504,37.855,-60.268
87604.815,0.793,0.259,0.242,0.496,0,0,65,0,117,0,301,345,42,0.000,13,0,411.395,7.630,45.960,-406.280,45.500,0.137,-0.381,1.145,-5.774,4.988,1.190,1.440,1.418,0.654,0.619,3,0,0,0,7,255,0,250,0,0,12.813,39.787,-59.412,12.813,39.787,-59.412
87609.815,0.791,0.265,0.258,0.488,0,0,41,0,53,0,247,310,42,0.000,13,0,435.997,6.639,100.400,-419.880,60.940,0.180,-0.042,1.313,-4.382,4.988,0.700,1.460,1.438,0.654,0.619,3,0,0,0,7,255,0,250,0,0,12.973,41.766,-58.401,12.973,41.766,-58.401
87614.816,0.789,0.270,0.275,0.479,0,0,27,0,0,0,195,303,42,0.000,13,0,465.597,7.953,154.360,-434.360,65.460,0.028,-0.018,1.711,-3.080,7.332,0.700,1.478,1.454,0.654,0.619,3,0,0,0,7,255,0,250,0,0,12.949,43.810,-57.302,12.949,43.810,-57.302
87619.815,0.788,0.275,0.293,0.468,0,0,9,0,30,0,124,313,42,0.000,13,0,493.995,11.710,166.380,-451.620,111.300,-0.233,-0.259,2.118,-3.080,11.298,2.124,1.494,1.472,0.654,0.619,3,0,0,0,7,255,0,250,0,0,13.166,45.884,-55.819,13.166,45.884,-55.819
87624.817,0.786,0.282,0.309,0.455,0,0,0,0,17,0,62,295,42,0.000,13,0,505.497,16.696,124.220,-466.940,148.540,-0.317,-0.198,2.226,-7.494,14.920,2.290,1.510,1.486,0.654,0.619,3,0,0,0,7,255,0,250,0,0,13.904,47.981,-53.961,13.904,47.981,-53.961
87629.815,0.783,0.290,0.325,0.443,0,0,0,0,0,0,49,303,42,0.000,13,0,502.034,18.259,75.880,-472.080,153.040,-0.264,0.057,2.113,-7.494,16.650,2.290,1.526,1.502,0.654,0.619,3,0,0,0,7,255,0,250,0,0,15.059,50.075,-51.931,15.059,50.075,-51.931
87634.816,0.780,0.300,0.340,0.431,0,0,0,0,26,0,27,287,42,0.000,13,0,491.457,17.642,38.760,-461.520,164.400,-0.158,0.546,1.781,-5.832,16.650,0.866,1.538,1.516,0.654,0.619,3,0,0,0,7,255,0,250,0,0,16.627,52.071,-49.670,16.627,52.071,-49.670
87639.815,0.777,0.311,0.353,0.419,0,0,0,0,28,0,0,296,42,0.362,13,0,483.439,16.421,11.960,-447.720,181.980,-0.331,0.640,1.422,-0.736,16.404,-1.774,1.554,1.530,0.654,0.619,4,0,0,0,7,255,0,250,0,0,18.619,53.930,-47.103,18.619,53.930,-47.103
87644.815,0.774,0.321,0.365,0.405,0,0,0,0,21,0,0,281,42,0.362,13,0,483.668,15.116,33.640,-437.900,202.600,-0.599,0.357,1.254,-0.736,15.098,-5.914,1.566,1.542,0.654,0.619,4,0,0,0,7,255,0,250,0,0,20.852,55.649,-44.167,20.852,55.649,-44.167
87649.815,0.772,0.331,0.375,0.393,0,0,0,0,5,0,0,265,42,0.362,13,0,436.894,13.820,-7.800,-382.540,210.900,-0.360,0.790,1.129,0.074,13.820,-8.968,1.580,1.554,0.654,0.619,4,0,0,0,7,255,0,250,0,0,23.443,57.024,-41.104,23.443,57.024,-41.104
87654.816,0.768,0.343,0.379,0.387,0,0,0,0,11,0,0,245,42,0.362,13,0,327.509,13.758,-149.960,-252.520,144.940,0.643,1.511,0.349,1.570,13.668,-8.968,1.592,1.568,0.654,0.619,4,0,0,0,7,255,0,250,0,0,26.055,57.868,-38.898,26.055,57.868,-38.898
87659.815,0.763,0.353,0.378,0.388,0,0,0,0,23,0,0,241,42,0.362,13,0,267.857,16.003,-245.720,-104.280,22.240,1.248,1.468,-0.380,14.098,7.572,-6.384,1.604,1.580,0.654,0.619,4,0,0,0,7,255,0,250,0,0,27.823,58.283,-38.263,27.823,58.283,-38.263
87664.817,0.762,0.359,0.372,0.390,0,0,0,0,21,0,0,237,42,0.362,13,0,197.469,14.113,-178.640,51.800,66.320,0.655,-0.008,-0.747,14.098,-0.654,-6.384,1.616,1.592,0.654,0.619,4,0,0,0,7,255,0,250,0,0,28.990,57.898,-37.944,28.990,57.898,-37.944
87669.816,0.767,0.361,0.366,0.384,0,0,0,0,26,0,0,218,42,0.362,13,0,238.135,5.917,26.320,92.620,217.800,-0.506,-0.639,-0.302,4.644,-3.666,-7.844,1.628,1.604,0.654,0.619,4,0,0,0,7,255,0,250,0,0,29.987,56.959,-36.606,29.987,56.959,-36.606
87674.816,0.775,0.358,0.360,0.376,0,0,0,0,26,0,0,220,42,0.362,13,0,282.656,7.680,112.920,117.280,231.060,-1.226,-0.023,0.903,-6.748,-3.666,-13.746,1.640,1.616,0.654,0.619,4,0,0,0,7,255,0,250,0,0,30.484,55.872,-35.335,30.484,55.872,-35.335
87679.815,0.780,0.355,0.354,0.374,0,0,0,0,28,0,0,231,42,0.362,13,0,193.546,12.983,62.140,158.920,91.340,-1.364,0.611,1.422,-6.748,11.092,-15.502,1.652,1.626,0.654,0.619,4,0,0,0,7,255,0,250,0,0,30.165,54.956,-35.347,30.165,54.956,-35.347
87684.815,0.781,0.353,0.348,0.379,0,0,0,0,30,0,0,227,42,0.362,13,0,196.273,16.786,-37.220,189.300,-36.100,-0.752,0.613,1.325,-5.334,15.916,-15.502,1.660,1.636,0.654,0.619,4,0,0,0,7,255,0,250,0,0,29.471,54.225,-36.429,29.471,54.225,-36.429
87689.815,0.783,0.352,0.340,0.384,0,0,0,0,26,0,0,214,42,0.362,13,0,214.895,16.054,-81.100,197.120,-27.320,-0.051,0.265,0.821,-2.098,15.916,-10.996,1.668,1.644,0.654,0.619,4,0,0,0,7,255,0,250,0,0,29.057,53.432,-37.447,29.057,53.432,-37.447
87694.816,0.786,0.352,0.331,0.386,0,0,0,0,33,0,0,213,42,0.362,13,0,219.961,7.892,-73.420,189.860,83.340,0.116,0.065,0.496,-0.238,7.888,-6.862,1.674,1.648,0.654,0.619,0,0,0,0,7,255,0,250,0,0,29.296,52.401,-37.610,29.296,52.401,-37.610
87699.815,0.790,0.354,0.321,0.383,0,0,0,0,31,0,0,211,42,0.362,13,0,258.480,4.664,-63.340,175.260,179.120,-0.310,0.068,0.408,-0.238,4.658,-6.862,1.678,1.652,0.654,0.619,0,0,0,0,7,255,0,250,0,0,30.052,51.197,-37.053,30.052,51.197,-37.053
87704.815,0.795,0.356,0.312,0.380,0,0,0,0,35,0,0,211,42,0.362,13,0,257.987,5.063,-63.840,170.380,182.900,-0.760,0.256,0.312,-1.984,4.658,-10.302,1.680,1.654,0.654,0.619,0,0,0,0,7,255,0,250,0,0,30.808,50.000,-36.490,30.808,50.000,-36.490
87709.816,0.798,0.357,0.303,0.379,0,0,0,0,36,0,0,231,42,0.362,13,0,221.573,5.907,-65.600,168.620,127.900,-0.819,0.372,0.101,-1.984,5.564,-14.750,1.678,1.652,0.654,0.619,0,0,0,0,7,255,0,250,0,0,31.271,48.948,-36.316,31.271,48.948,-36.316
87714.816,0.801,0.357,0.295,0.380,0,0,0,0,38,0,0,213,42,0.362,13,0,193.114,5.774,-49.620,168.500,80.240,-0.595,0.339,-0.138,-1.542,5.564,-16.168,1.672,1.646,0.654,0.619,0,0,0,0,7,255,0,250,0,0,31.413,48.020,-36.459,31.413,48.020,-36.459
87719.815,0.804,0.356,0.287,0.380,0,0,0,0,37,0,0,211,42,0.362,13,0,184.135,2.768,-11.280,167.020,76.700,-0.348,0.137,-0.230,-0.418,2.736,-16.168,1.664,1.638,0.654,0.619,0,0,0,0,7,255,0,250,0,0,31.354,47.108,-36.618,31.354,47.108,-36.618
87724.817,0.808,0.354,0.280,0.379,0,0,0,0,29,0,0,221,42,0.362,13,0,196.764,0.462,23.080,167.760,100.200,-0.312,-0.042,-0.125,-0.418,0.196,-14.184,1.654,1.628,0.654,0.619,0,0,0,0,7,255,0,250,0,0,31.233,46.131,-36.629,31.233,46.131,-36.629
87729.816,0.813,0.351,0.273,0.377,0,0,0,0,37,0,0,244,42,0.362,13,0,209.685,1.892,36.320,170.940,115.880,-0.466,-0.097,0.037,-1.882,0.196,-12.686,1.642,1.616,0.654,0.619,0,0,0,0,7,255,0,250,0,0,31.108,45.101,-36.552,31.108,45.101,-36.552
87734.815,0.817,0.348,0.266,0.375,0,0,0,0,41,0,0,218,42,0.362,13,0,210.711,3.906,38.700,177.840,106.180,-0.616,-0.025,0.095,-3.500,1.734,-12.686,1.628,1.602,0.654,0.619,0,0,0,0,7,255,0,250,0,0,30.914,44.066,-36.556,30.914,44.066,-36.556
87739.815,0.821,0.344,0.259,0.374,0,0,0,0,34,0,0,238,42,0.362,13,0,208.897,4.723,48.340,185.100,83.900,-0.651,0.057,0.081,-3.508,3.162,-13.438,1.614,1.586,0.654,0.619,0,0,0,0,7,255,0,250,0,0,30.567,43.057,-36.711,30.567,43.057,-36.711
87744.815,0.825,0.339,0.252,0.374,0,0,0,0,35,0,0,216,42,0.362,13,0,215.304,5.051,68.120,192.900,67.120,-0.612,0.076,0.117,-3.508,3.634,-13.456,1.598,1.570,0.654,0.619,0,0,0,0,7,255,0,250,0,0,30.048,42.055,-36.978,30.048,42.055,-36.978
87749.816,0.830,0.334,0.245,0.374,0,0,0,0,39,0,0,231,42,0.362,13,0,227.537,5.234,85.520,202.000,60.460,-0.601,0.061,0.238,-3.508,3.884,-13.456,1.580,1.554,0.654,0.619,0,0,0,0,7,255,0,250,0,0,29.411,41.029,-37.296,29.411,41.029,-37.296
87754.815,0.834,0.327,0.238,0.374,0,0,0,0,37,0,0,209,42,0.362,13,0,238.226,5.857,92.360,212.620,54.900,-0.646,0.046,0.378,-3.514,4.686,-12.452,1.562,1.534,0.654,0.619,0,0,0,0,7,255,0,250,0,0,28.715,39.967,-37.659,28.715,39.967,-37.659
87759.815,0.839,0.321,0.231,0.375,0,0,0,0,39,0,0,241,42,0.362,13,0,246.588,7.166,91.320,224.960,43.120,-0.684,0.025,0.471,-4.128,5.858,-11.640,1.542,1.514,0.654,0.619,0,0,0,0,7,255,0,250,0,0,27.978,38.875,-38.104,27.978,38.875,-38.104
87764.817,0.843,0.314,0.223,0.376,0,0,0,0,39,0,0,245,42,0.362,13,0,255.867,8.092,91.440,237.460,26.820,-0.684,0.017,0.503,-4.668,6.610,-11.022,1.520,1.492,0.654,0.619,0,0,0,0,7,255,0,250,0,0,27.182,37.761,-38.653,27.182,37.761,-38.653
87769.816,0.847,0.306,0.215,0.378,0,0,0,0,39,0,0,245,42,0.362,13,0,267.466,8.298,96.440,249.180,12.120,-0.661,0.008,0.532,-4.738,6.812,-10.592,1.496,1.468,0.654,0.619,0,0,0,0,7,255,0,250,0,0,26.317,36.622,-39.289,26.317,36.622,-39.289
87774.815,0.850,0.298,0.208,0.381,0,0,0,0,37,0,0,236,42,0.362,13,0,279.450,8.370,102.480,259.980,0.580,-0.647,-0.006,0.587,-4.782,6.870,-10.034,1.470,1.444,0.654,0.619,0,0,0,0,7,255,0,250,0,0,25.397,35.452,-39.986,25.397,35.452,-39.986
87779.815,0.854,0.290,0.199,0.384,0,0,0,0,38,0,0,237,42,0.362,13,0,290.382,8.576,106.320,270.000,-10.840,-0.647,-0.010,0.647,-4.814,7.098,-9.322,1.446,1.418,0.654,0.619,0,0,0,0,7,255,0,250,0,0,24.437,34.251,-40.739,24.437,34.251,-40.739
87784.816,0.857,0.281,0.191,0.387,0,0,0,0,41,0,0,256,42,0.362,13,0,300.679,8.890,108.460,279.400,-24.080,-0.638,-0.010,0.695,-4.826,7.466,-8.660,1.414,1.388,0.654,0.619,0,0,0,0,7,255,0,250,0,0,23.446,33.023,-41.552,23.446,33.023,-41.552
87789.817,0.860,0.271,0.183,0.391,0,0,0,0,41,0,0,244,42,0.362,13,0,310.958,9.082,111.220,287.940,-37.620,-0.607,-0.004,0.729,-4.826,7.694,-8.032,1.384,1.356,0.654,0.619,0,0,0,0,7,255,0,250,0,0,22.426,31.771,-42.421,22.426,31.771,-42.421
87794.815,0.863,0.262,0.174,0.395,0,0,0,0,37,0,0,253,42,0.362,13,0,320.920,8.987,116.040,295.140,-49.160,-0.581,0.003,0.771,-4.578,7.734,-7.398,1.350,1.322,0.654,0.619,0,0,0,0,7,255,0,250,0,0,21.378,30.495,-43.330,21.378,30.495,-43.330
87799.815,0.866,0.251,0.166,0.400,0,0,0,0,43,0,0,251,42,0.362,13,0,330.094,8.934,121.900,300.940,-59.480,-0.559,0.009,0.835,-4.332,7.814,-6.732,1.314,1.286,0.654,0.619,0,0,0,0,7,255,0,250,0,0,20.304,29.195,-44.267,20.304,29.195,-44.267
87804.816,0.868,0.241,0.157,0.405,0,0,0,0,43,0,0,281,42,0.362,13,0,337.874,9.023,125.680,305.640,-70.340,-0.530,0.013,0.909,-4.134,8.020,-5.896,1.274,1.246,0.654,0.619,0,0,0,0,7,255,0,250,0,0,19.216,27.876,-45.232,19.216,27.876,-45.232
87809.816,0.870,0.230,0.148,0.411,0,0,0,0,33,0,0,269,42,0.362,13,0,343.321,8.919,125.620,309.180,-80.600,-0.476,0.024,0.947,-3.902,8.020,-4.928,1.236,1.208,0.654,0.619,0,0,0,0,7,255,0,250,0,0,18.139,26.541,-46.218,18.139,26.541,-46.218
87814.815,0.871,0.219,0.140,0.416,0,0,0,0,41,0,0,255,42,0.362,13,0,348.725,8.672,126.600,312.660,-88.460,-0.396,-0.005,0.937,-3.422,7.968,-4.154,1.190,1.162,0.654,0.619,0,0,0,0,7,255,0,250,0,0,17.075,25.186,-47.211,17.075,25.186,-47.211
87819.815,0.873,0.208,0.131,0.422,0,0,0,0,43,0,0,250,42,0.362,13,0,353.799,7.742,132.260,315.040,-91.820,-0.343,-0.035,0.916,-3.068,7.108,-3.590,1.148,1.120,0.654,0.619,0,0,0,0,7,255,0,250,0,0,16.011,23.807,-48.187,16.011,23.807,-48.187
87824.817,0.874,0.196,0.122,0.427,0,0,0,0,38,0,0,264,42,0.362,13,0,360.558,6.969,144.100,317.180,-92.920,-0.323,-0.063,0.935,-2.914,6.330,-3.268,1.102,1.074,0.654,0.619,0,0,0,0,7,255,0,250,0,0,14.920,22.403,-49.134,14.920,22.403,-49.134
87829.816,0.875,0.183,0.114,0.433,0,0,0,0,44,0,0,253,42,0.362,13,0,369.075,6.604,158.880,319.000,-95.980,-0.289,-0.071,0.993,-2.874,5.946,-2.766,1.058,1.030,0.654,0.619,0,0,0,0,7,255,0,250,0,0,13.786,20.978,-50.059,13.786,20.978,-50.059
87834.815,0.876,0.170,0.106,0.438,0,0,0,0,37,0,0,255,42,0.362,13,0,376.969,6.321,171.340,320.160,-101.220,-0.184,-0.095,1.042,-2.724,5.704,-1.924,1.010,0.982,0.654,0.619,0,0,0,0,7,255,0,250,0,0,12.614,19.536,-50.974,12.614,19.536,-50.974
87839.815,0.877,0.157,0.098,0.444,0,0,0,0,39,0,0,268,42,0.362,13,0,382.424,5.286,182.620,320.160,-101.960,-0.067,-0.064,1.083,-2.266,4.776,-0.912,0.966,0.938,0.654,0.619,0,0,0,0,7,255,0,250,0,0,11.420,18.077,-51.853,11.420,18.077,-51.853
87844.816,0.878,0.143,0.090,0.449,0,0,0,0,37,0,0,283,42,0.362,13,0,387.463,4.337,194.960,320.160,-98.060,0.021,0.098,1.164,-1.312,4.134,-0.082,0.918,0.888,0.654,0.619,0,0,0,0,7,255,0,250,0,0,10.203,16.597,-52.671,10.203,16.597,-52.671
87849.815,0.878,0.128,0.082,0.453,0,0,0,0,43,0,0,288,42,0.362,13,0,392.439,4.162,207.900,320.480,-89.880,0.049,0.168,1.289,0.480,4.134,0.760,0.874,0.846,0.654,0.619,0,0,0,0,7,255,0,250,0,0,8.964,15.093,-53.409,8.964,15.093,-53.409
87854.815,0.879,0.113,0.075,0.457,0,0,0,0,30,0,0,275,42,0.362,13,0,393.529,4.162,215.340,320.040,-77.900,0.017,0.091,1.441,0.480,4.134,2.032,0.824,0.796,0.654,0.619,0,0,0,0,7,255,0,250,0,0,7.732,13.567,-54.046,7.732,13.567,-54.046
87859.815,0.880,0.098,0.067,0.461,0,0,0,0,37,0,0,299,42,0.362,13,0,392.337,4.140,217.900,319.120,-67.900,-0.076,-0.045,1.612,0.360,4.124,3.636,0.782,0.754,0.654,0.619,0,0,0,0,7,255,0,250,0,0,6.522,12.026,-54.595,6.522,12.026,-54.595
87864.817,0.880,0.083,0.059,0.464,0,0,0,0,41,0,0,301,42,0.362,13,0,390.634,4.322,213.620,319.740,-68.760,-0.205,-0.073,1.792,-1.294,4.124,5.356,0.736,0.708,0.654,0.619,0,0,0,0,7,255,0,250,0,0,5.355,10.472,-55.112,5.355,10.472,-55.112
87869.815,0.880,0.069,0.051,0.468,0,0,0,0,30,0,0,301,42,0.362,13,0,385.830,5.130,196.660,321.440,-82.860,-0.276,0.016,1.922,-1.938,4.750,7.014,0.694,0.666,0.654,0.619,0,0,0,0,7,255,0,250,0,0,4.280,8.906,-55.667,4.280,8.906,-55.667
87874.815,0.879,0.056,0.043,0.472,0,0,0,0,36,0,0,313,42,0.362,13,0,380.799,5.497,179.520,320.780,-99.400,-0.248,0.084,2.001,-1.938,5.144,8.240,0.650,0.622,0.654,0.619,0,0,0,0,7,255,0,250,0,0,3.299,7.340,-56.275,3.299,7.340,-56.275
87879.816,0.877,0.043,0.034,0.477,0,0,0,0,36,0,0,308,42,0.362,13,0,377.579,5.276,159.680,324.500,-108.480,-0.063,0.273,2.077,-1.174,5.144,9.176,0.606,0.578,0.654,0.619,0,0,0,0,7,255,0,250,0,0,2.431,5.747,-56.902,2.431,5.747,-56.902
87884.816,0.876,0.031,0.024,0.481,0,0,0,0,44,0,0,320,42,0.362,13,0,366.745,4.376,125.500,328.700,-103.480,0.088,0.292,1.935,1.446,4.130,9.176,0.566,0.538,0.654,0.619,0,0,0,0,7,255,0,250,0,0,1.755,4.124,-57.481,1.755,4.124,-57.481
87889.815,0.875,0.019,0.014,0.484,0,0,0,0,45,0,0,288,42,0.362,13,0,357.056,2.673,118.960,326.880,-80.540,0.071,0.007,1.804,1.446,2.248,8.996,0.528,0.502,0.654,0.619,0,0,0,0,7,255,0,250,0,0,1.137,2.501,-57.926,1.137,2.501,-57.926
87894.815,0.873,0.008,0.005,0.487,0,0,0,0,44,0,0,295,42,0.362,13,0,353.355,0.392,127.200,322.980,-66.060,-0.071,-0.113,1.842,0.238,0.312,8.166,0.490,0.462,0.654,0.619,0,0,0,0,7,255,0,250,0,0,0.492,0.892,-58.279,0.492,0.892,-58.279
87899.816,0.872,-0.004,-0.005,0.490,0,0,0,0,37,0,0,283,42,0.362,13,0,352.527,0.370,127.820,319.980,-74.500,-0.140,0.061,1.932,-0.198,0.312,8.166,0.454,0.428,0.654,0.619,0,0,0,0,7,255,0,250,0,0,-0.146,-0.706,-58.656,-0.146,-0.706,-58.656
87904.816,0.870,-0.016,-0.014,0.493,0,0,0,0,43,0,0,296,42,0.362,13,0,352.790,0.647,127.320,316.860,-88.600,-0.022,0.249,1.991,-0.198,0.616,9.068,0.416,0.390,0.654,0.619,0,0,0,0,7,255,0,250,0,0,-0.769,-2.293,-59.087,-0.769,-2.293,-59.087
87909.815,0.868,-0.027,-0.023,0.496,0,0,0,0,47,0,0,296,42,0.362,13,0,349.845,2.171,129.760,313.580,-84.980,0.171,0.293,2.056,2.082,0.616,9.654,0.382,0.356,0.654,0.619,0,0,0,0,7,255,0,250,0,0,-1.395,-3.868,-59.483,-1.395,-3.868,-59.483
87914.815,0.866,-0.039,-0.032,0.498,0,0,0,0,39,0,0,285,42,0.362,13,0,341.859,3.801,128.660,309.860,-65.580,0.294,0.283,2.129,3.522,-1.430,10.172,0.346,0.322,0.654,0.619,0,0,0,0,7,255,0,250,0,0,-2.013,-5.426,-59.765,-2.013,-5.426,-59.765
87919.816,0.864,-0.050,-0.041,0.500,0,0,0,0,42,0,0,287,42,0.362,13,0,333.307,5.218,125.000,305.400,-46.900,0.349,0.293,2.138,4.128,-3.192,10.606,0.314,0.290,0.654,0.619,0,0,0,0,7,255,0,250,0,0,-2.618,-6.960,-59.939,-2.618,-6.960,-59.939
87924.817,0.862,-0.061,-0.050,0.501,0,0,0,0,40,0,0,295,42,0.362,13,0,330.396,6.203,124.580,303.500,-39.100,0.395,0.344,2.180,4.556,-4.210,10.698,0.282,0.260,0.654,0.619,0,0,0,0,7,255,0,250,0,0,-3.223,-8.485,-60.058,-3.223,-8.485,-60.058
87929.815,0.860,-0.073,-0.059,0.501,0,0,0,0,41,0,0,299,42,0.362,13,0,331.287,7.295,125.060,304.840,-34.400,0.533,0.339,2.185,5.300,-5.012,10.606,0.252,0.232,0.654,0.619,0,0,0,0,7,255,0,250,0,0,-3.834,-10.016,-60.137,-3.834,-10.016,-60.137
87934.815,0.859,-0.084,-0.068,0.501,0,0,0,0,39,0,0,299,42,0.362,13,0,329.023,9.067,121.780,305.220,-16.320,0.638,0.321,2.225,5.990,-6.806,10.462,0.224,0.204,0.654,0.619,0,0,0,0,7,255,0,250,0,0,-4.446,-11.543,-60.108,-4.446,-11.543,-60.108
87939.816,0.857,-0.095,-0.076,0.500,0,0,0,0,43,0,0,292,42,0.362,13,0,325.826,10.596,118.900,303.260,7.660,0.646,0.421,2.269,6.422,-8.428,10.462,0.194,0.178,0.654,0.619,0,0,0,0,7,255,0,250,0,0,-5.075,-13.051,-59.940,-5.075,-13.051,-59.940
87944.815,0.856,-0.105,-0.085,0.498,0,0,0,0,44,0,0,299,42,0.362,13,0,318.199,11.417,106.520,298.620,27.020,0.608,0.483,2.287,7.424,-8.674,10.614,0.168,0.156,0.654,0.619,0,0,0,0,7,255,0,250,0,0,-5.673,-14.524,-59.657,-5.673,-14.524,-59.657
87949.815,0.856,-0.116,-0.094,0.496,0,0,0,0,45,0,0,299,42,0.362,13,0,312.327,11.727,99.060,293.240,41.780,0.588,0.479,2.306,7.872,-8.692,10.620,0.146,0.138,0.654,0.619,0,0,0,0,7,255,0,250,0,0,-6.264,-15.960,-59.284,-6.264,-15.960,-59.284
87954.815,0.855,-0.126,-0.102,0.493,0,0,0,0,45,0,0,295,42,0.362,13,0,308.942,12.039,93.380,290.140,50.440,0.586,0.494,2.341,7.884,-9.098,10.666,0.124,0.122,0.654,0.619,0,0,0,0,7,255,0,250,0,0,-6.854,-17.371,-58.850,-6.854,-17.371,-58.850
87959.816,0.855,-0.135,-0.111,0.489,0,0,0,0,43,0,0,301,42,0.362,13,0,302.614,12.604,78.980,286.220,58.440,0.608,0.488,2.346,8.144,-9.620,10.620,0.108,0.114,0.654,0.619,0,0,0,0,7,255,0,250,0,0,-7.399,-18.755,-58.358,-7.399,-18.755,-58.358
87964.817,0.854,-0.143,-0.120,0.485,0,0,0,0,48,0,0,297,42,0.362,13,0,292.150,13.269,57.500,278.480,67.040,0.678,0.547,2.308,8.358,-10.306,10.370,0.092,0.106,0.654,0.619,0,0,0,0,7,255,0,250,0,0,-7.868,-20.090,-57.810,-7.868,-20.090,-57.810
87969.815,0.854,-0.151,-0.129,0.481,0,0,0,0,45,0,0,288,42,0.362,13,0,286.527,14.337,39.200,273.480,75.960,0.823,0.553,2.170,9.360,-10.860,9.564,0.074,0.092,0.654,0.619,0,0,0,0,7,255,0,250,0,0,-8.276,-21.389,-57.203,-8.276,-21.389,-57.203
87974.815,0.854,-0.158,-0.137,0.476,0,0,0,0,41,0,0,287,42,0.362,13,0,279.914,15.614,31.560,261.820,93.840,0.940,0.487,1.950,10.244,-11.784,7.500,0.054,0.070,0.654,0.619,0,0,0,0,7,255,0,250,0,0,-8.698,-22.614,-56.494,-8.698,-22.614,-56.494
87979.816,0.855,-0.165,-0.145,0.470,0,0,0,0,44,0,0,300,42,0.362,13,0,276.064,15.923,39.800,249.120,112.100,0.977,0.449,1.740,10.244,-12.190,4.672,0.036,0.042,0.654,0.619,0,0,0,0,7,255,0,250,0,0,-9.215,-23.757,-55.681,-9.215,-23.757,-55.681
87984.815,0.855,-0.173,-0.151,0.464,0,0,0,0,41,0,0,304,42,0.362,13,0,272.287,15.884,54.700,234.540,127.040,0.981,0.411,1.569,10.184,-12.190,2.308,0.040,0.020,0.654,0.619,0,0,0,0,7,255,0,250,0,0,-9.857,-24.807,-54.781,-9.857,-24.807,-54.781
87989.817,0.856,-0.181,-0.157,0.458,0,0,0,0,40,0,0,299,42,0.362,13,0,270.800,15.407,69.900,220.860,140.240,0.994,0.362,1.450,9.882,-11.820,0.456,0.056,0.020,0.654,0.619,0,0,0,0,7,255,0,250,0,0,-10.624,-25.769,-53.800,-10.624,-25.769,-53.800
87994.815,0.857,-0.189,-0.162,0.451,0,0,0,0,41,0,0,301,42,0.362,13,0,273.791,15.133,88.620,205.720,157.440,0.988,0.290,1.326,9.566,-11.726,-0.958,0.074,0.040,0.654,0.619,0,0,0,0,7,255,0,250,0,0,-11.542,-26.626,-52.719,-11.542,-26.626,-52.719
87999.816,0.858,-0.198,-0.165,0.443,0,0,0,0,39,0,0,315,42,0.362,13,0,279.702,14.599,109.080,190.640,173.180,0.941,0.209,1.270,8.926,-11.552,-2.342,0.104,0.070,0.654,0.619,0,0,0,0,7,255,0,250,0,0,-12.619,-27.376,-51.545,-12.619,-27.376,-51.545
88004.815,0.859,-0.208,-0.168,0.436,0,0,0,0,31,0,0,327,42,0.362,13,0,283.880,13.982,126.540,176.480,182.840,0.907,0.167,1.235,8.064,-11.422,-2.956,0.140,0.110,0.654,0.619,0,0,0,0,7,255,0,250,0,0,-13.822,-28.026,-50.313,-13.822,-28.026,-50.313
88009.815,0.861,-0.218,-0.170,0.428,0,0,0,0,43,0,0,327,42,0.362,13,0,287.823,13.709,140.080,162.580,191.800,0.882,0.070,1.257,7.582,-11.422,-3.348,0.186,0.156,0.654,0.619,0,0,0,0,7,255,0,250,0,0,-15.130,-28.572,-49.027,-15.130,-28.572,-49.027
88014.815,0.862,-0.228,-0.171,0.420,0,0,0,0,40,0,0,327,42,0.362,13,0,293.227,13.597,152.420,150.540,200.220,0.834,-0.013,1.255,6.766,-11.794,-3.428,0.224,0.194,0.654,0.619,0,0,0,0,7,255,0,250,0,0,-16.533,-29.023,-47.694,-16.533,-29.023,-47.694
88019.816,0.863,-0.238,-0.171,0.412,0,0,0,0,45,0,0,332,42,0.362,13,0,296.746,13.342,162.480,139.680,205.300,0.757,-0.139,1.216,5.898,-11.968,-3.580,0.248,0.216,0.654,0.619,0,0,0,0,7,255,0,250,0,0,-18.007,-29.385,-46.334,-18.007,-29.385,-46.334
88024.817,0.864,-0.248,-0.170,0.404,0,0,0,0,47,0,0,333,42,0.362,13,0,298.075,12.814,170.180,129.060,207.920,0.644,-0.349,1.122,4.484,-12.004,-4.024,0.258,0.224,0.654,0.619,0,0,0,0,7,255,0,250,0,0,-19.531,-29.661,-44.964,-19.531,-29.661,-44.964
88029.815,0.864,-0.258,-0.169,0.397,0,0,0,0,43,0,0,331,42,0.362,13,0,299.494,12.196,178.780,117.660,209.500,0.490,-0.624,0.988,2.156,-12.004,-5.006,0.262,0.226,0.654,0.619,0,0,0,0,7,255,0,250,0,0,-21.101,-29.848,-43.598,-21.101,-29.848,-43.598
88034.816,0.865,-0.269,-0.168,0.389,0,0,0,0,45,0,0,333,42,0.362,13,0,303.968,11.939,199.900,104.840,203.580,0.295,-0.869,0.876,-0.936,-11.902,-6.362,0.260,0.224,0.654,0.619,0,0,0,0,7,255,0,250,0,0,-22.754,-29.953,-42.283,-22.754,-29.953,-42.283
88039.816,0.865,-0.281,-0.165,0.383,0,0,0,0,45,0,0,335,42,0.362,13,0,313.795,12.304,236.400,90.360,185.520,0.085,-0.969,0.984,-4.038,-11.622,-6.362,0.252,0.216,0.654,0.619,0,0,0,0,7,255,0,250,0,0,-24.529,-29.995,-41.093,-24.529,-29.995,-41.093
88044.815,0.863,-0.293,-0.161,0.378,0,0,0,0,47,0,0,333,42,0.362,13,0,317.927,13.093,270.140,75.960,149.440,-0.074,-0.900,1.357,-6.030,-11.622,-6.126,0.238,0.202,0.654,0.619,0,0,0,0,7,255,0,250,0,0,-26.361,-30.016,-40.126,-26.361,-30.016,-40.126
88049.815,0.861,-0.306,-0.158,0.375,0,0,0,0,46,0,0,339,42,0.362,13,0,301.673,14.118,276.800,64.240,101.300,-0.095,-0.733,1.859,-6.030,-12.766,-2.600,0.214,0.178,0.654,0.619,0,0,0,0,7,255,0,250,0,0,-28.088,-30.070,-39.437,-28.088,-30.070,-39.437
88054.816,0.858,-0.316,-0.155,0.374,0,0,0,0,47,0,0,330,42,0.362,13,0,254.195,15.972,242.020,54.780,55.140,0.031,-0.535,2.297,-5.268,-15.078,1.564,0.186,0.150,0.654,0.619,0,0,0,0,7,255,0,250,0,0,-29.513,-30.176,-39.005,-29.513,-30.176,-39.005
88059.815,0.856,-0.323,-0.154,0.374,0,0,0,0,42,0,0,333,42,0.362,13,0,181.941,18.010,174.820,47.040,18.100,0.228,-0.345,2.505,-3.084,-17.744,4.660,0.156,0.120,0.654,0.619,0,0,0,0,7,255,0,250,0,0,-30.499,-30.334,-38.779,-30.499,-30.334,-38.779
88064.817,0.854,-0.327,-0.154,0.375,0,0,0,0,43,0,0,328,42,0.362,13,0,99.941,19.382,90.220,41.360,-11.740,0.463,-0.199,2.490,-0.552,-19.374,4.962,0.134,0.100,0.654,0.619,0,0,0,0,7,255,0,250,0,0,-30.981,-30.541,-38.715,-30.981,-30.541,-38.715
88069.815,0.853,-0.328,-0.156,0.375,0,0,0,0,41,0,0,329,42,0.362,13,0,52.610,19.474,8.300,37.760,-35.680,0.690,-0.171,2.194,1.972,-19.374,4.962,0.120,0.086,0.654,0.619,0,0,0,0,7,255,0,250,0,0,-30.987,-30.795,-38.780,-30.987,-30.795,-38.780
88074.816,0.852,-0.326,-0.159,0.376,0,0,0,0,44,0,0,331,42,0.362,13,0,75.860,19.405,-47.300,31.100,-50.500,0.865,-0.251,1.766,3.632,-19.062,1.740,0.114,0.082,0.654,0.619,0,0,0,0,7,255,0,250,0,0,-30.667,-31.057,-38.940,-30.667,-31.057,-38.940
88079.815,0.852,-0.323,-0.161,0.378,0,0,0,0,49,0,0,333,42,0.362,13,0,96.094,18.017,-72.620,20.900,-59.360,1.002,-0.333,1.430,4.168,-17.528,-2.592,0.114,0.082,0.654,0.619,0,0,0,0,7,255,0,250,0,0,-30.179,-31.297,-39.178,-30.179,-31.297,-39.178
88084.815,0.852,-0.320,-0.164,0.380,0,0,0,0,44,0,0,334,42,0.362,13,0,103.230,17.003,-79.700,7.120,-65.220,1.112,-0.346,1.150,4.414,-16.420,-6.052,0.116,0.084,0.654,0.619,0,0,0,0,7,255,0,250,0,0,-29.616,-31.490,-39.489,-29.616,-31.490,-39.489
88089.817,0.852,-0.317,-0.166,0.382,0,0,0,0,49,0,0,332,42,0.362,13,0,100.276,16.001,-74.520,-5.640,-66.860,1.196,-0.314,0.959,4.956,-15.214,-8.666,0.112,0.082,0.654,0.619,0,0,0,0,7,255,0,250,0,0,-29.054,-31.628,-39.847,-29.054,-31.628,-39.847
88094.816,0.852,-0.314,-0.167,0.384,0,0,0,0,49,0,0,341,42,0.362,13,0,88.317,15.330,-65.300,-17.000,-56.980,1.247,-0.327,0.818,5.646,-14.252,-10.320,0.106,0.076,0.654,0.619,0,0,0,0,7,255,0,250,0,0,-28.546,-31.691,-40.189,-28.546,-31.691,-40.189
88099.815,0.853,-0.311,-0.167,0.385,0,0,0,0,43,0,0,341,42,0.362,13,0,67.796,14.805,-47.240,-29.020,-39.020,1.169,-0.299,0.711,5.646,-13.686,-11.626,0.094,0.068,0.654,0.619,0,0,0,0,7,255,0,250,0,0,-28.160,-31.655,-40.472,-28.160,-31.655,-40.472
88104.815,0.853,-0.309,-0.167,0.386,0,0,0,0,46,0,0,333,42,0.362,13,0,49.869,13.581,-23.740,-37.500,-22.740,0.979,-0.309,0.706,5.430,-12.448,-11.626,0.080,0.060,0.654,0.619,0,0,0,0,7,255,0,250,0,0,-27.919,-31.537,-40.696,-27.919,-31.537,-40.696
88109.816,0.853,-0.308,-0.165,0.387,0,0,0,0,46,0,0,331,42,0.362,13,0,48.592,12.172,-1.400,-45.500,-17.000,0.718,-0.322,0.823,4.136,-11.448,-10.914,0.068,0.054,0.654,0.619,0,0,0,0,7,255,0,250,0,0,-27.780,-31.356,-40.920,-27.780,-31.356,-40.920
88114.816,0.853,-0.308,-0.163,0.389,0,0,0,0,41,0,0,331,42,0.362,13,0,59.131,11.112,10.020,-52.820,-24.620,0.493,-0.313,1.009,2.400,-10.850,-8.720,0.058,0.050,0.654,0.619,0,0,0,0,7,255,0,250,0,0,-27.687,-31.179,-41.192,-27.687,-31.179,-41.192
88119.815,0.853,-0.306,-0.161,0.391,0,0,0,0,45,0,0,333,42,0.362,13,0,71.594,10.899,7.200,-60.020,-38.360,0.347,-0.294,1.168,1.070,-10.846,-6.122,0.054,0.050,0.654,0.619,0,0,0,0,7,255,0,250,0,0,-27.535,-31.002,-41.553,-27.535,-31.002,-41.553
88124.817,0.852,-0.305,-0.160,0.394,0,0,0,0,41,0,0,338,42,0.362,13,0,84.644,10.758,-4.880,-66.920,-51.600,0.250,-0.266,1.264,0.300,-10.754,-4.088,0.050,0.050,0.654,0.619,0,0,0,0,7,255,0,250,0,0,-27.279,-30.823,-42.000,-27.279,-30.823,-42.000
88129.816,0.852,-0.302,-0.158,0.397,0,0,0,0,39,0,0,334,42,0.362,13,0,99.914,10.745,-19.340,-74.300,-63.940,0.188,-0.236,1.294,-0.124,-10.744,-2.724,0.048,0.048,0.654,0.619,0,0,0,0,7,255,0,250,0,0,-26.910,-30.637,-42.528,-26.910,-30.637,-42.528
88134.816,0.851,-0.299,-0.157,0.401,0,0,0,0,49,0,0,336,42,0.362,13,0,116.507,10.387,-32.900,-80.780,-77.240,0.168,-0.211,1.286,-0.308,-10.382,-2.002,0.044,0.044,0.654,0.619,0,0,0,0,7,255,0,250,0,0,-26.433,-30.449,-43.140,-26.433,-30.449,-43.140
88139.815,0.851,-0.295,-0.155,0.405,0,0,0,0,42,0,0,333,42,0.362,13,0,133.959,10.043,-45.160,-86.200,-92.060,0.192,-0.175,1.246,-0.308,-10.038,-2.002,0.038,0.040,0.654,0.619,0,0,0,0,7,255,0,250,0,0,-25.852,-30.264,-43.839,-25.852,-30.264,-43.839
88144.815,0.850,-0.291,-0.154,0.410,0,0,0,0,43,0,0,334,42,0.362,13,0,148.751,9.684,-53.400,-90.900,-104.940,0.266,-0.139,1.183,0.060,-9.684,-2.002,0.034,0.034,0.654,0.619,0,0,0,0,7,255,0,250,0,0,-25.194,-30.080,-44.613,-25.194,-30.080,-44.613
88149.816,0.850,-0.286,-0.153,0.415,0,0,0,0,45,0,0,331,42,0.362,13,0,157.967,9.517,-58.220,-94.880,-112.080,0.361,-0.110,1.112,0.736,-9.488,-2.626,0.032,0.030,0.654,0.619,0,0,0,0,7,255,0,250,0,0,-24.492,-29.884,-45.431,-24.492,-29.884,-45.431
88154.816,0.849,-0.282,-0.152,0.420,0,0,0,0,43,0,0,331,42,0.362,13,0,160.672,9.600,-58.460,-98.540,-112.640,0.412,-0.142,1.069,1.462,-9.488,-3.448,0.030,0.026,0.654,0.619,0,0,0,0,7,255,0,250,0,0,-23.789,-29.664,-46.255,-23.789,-29.664,-46.255
88159.815,0.849,-0.286,-0.142,0.420,0,0,0,0,43,0,0,301,42,0.362,13,0,249.820,9.699,175.420,-162.020,73.400,-1.106,-1.421,2.635,1.462,-9.588,-3.448,0.028,0.022,0.654,0.619,0,0,0,0,7,255,0,250,0,0,-24.665,-28.775,-46.253,-24.665,-28.775,-46.253
88164.817,0.858,-0.301,-0.115,0.400,0,0,0,0,39,0,0,295,42,0.362,13,0,837.860,9.627,447.700,-268.520,655.340,-0.110,0.246,0.392,0.870,-9.588,-4.050,0.026,0.020,0.654,0.619,0,0,0,0,7,255,0,250,0,0,-28.232,-25.998,-43.364,-28.232,-25.998,-43.364
88169.816,0.871,-0.288,-0.109,0.382,29,0,0,0,48,0,0,275,42,0.362,13,0,610.332,1.003,-342.400,-138.520,485.880,-0.151,0.306,0.278,0.870,-0.500,-5.354,0.022,0.020,0.654,0.619,0,0,0,0,7,255,0,250,0,0,-27.374,-24.252,-41.349,-27.374,-24.252,-41.349
88174.815,0.877,-0.269,-0.114,0.381,593,0,0,467,51,5,0,274,42,0.362,13,0,476.214,1.249,-470.340,-74.480,-3.560,-2.223,1.079,1.137,0.870,0.896,-5.354,0.022,0.020,0.654,0.619,0,0,0,0,7,255,0,250,0,0,-24.941,-23.925,-41.547,-24.941,-23.925,-41.547
88179.815,0.881,-0.249,-0.120,0.384,1387,0,0,1579,53,12,0,273,42,0.362,13,0,488.011,12.978,-464.340,-99.140,-112.760,-0.869,1.579,-1.094,1.018,12.938,-5.822,0.022,0.020,0.654,0.619,0,0,0,0,7,255,0,250,0,0,-22.302,-23.697,-42.328,-22.302,-23.697,-42.328
88184.815,0.881,-0.241,-0.121,0.390,2073,0,0,2233,53,19,0,295,42,0.362,13,0,230.078,13.996,-155.820,-76.200,-151.160,0.297,1.786,-0.491,5.338,12.938,-9.386,0.022,0.020,0.654,0.619,0,0,0,0,7,255,0,250,0,0,-21.151,-23.622,-43.249,-21.151,-23.622,-43.249
88189.817,0.880,-0.241,-0.117,0.391,2365,0,0,2489,55,43,0,293,42,0.362,13,0,87.964,18.314,41.380,-77.360,-6.380,0.694,1.597,0.585,14.782,10.812,-9.386,0.022,0.020,0.654,0.619,0,0,0,0,7,255,0,250,0,0,-21.283,-23.272,-43.434,-21.283,-23.272,-43.434
88194.815,0.884,-0.241,-0.111,0.385,2577,0,0,2600,61,42,0,296,42,0.362,13,0,199.693,14.887,16.060,-104.220,169.580,0.103,1.445,1.898,14.782,1.766,-2.456,0.020,0.024,0.654,0.619,0,0,0,0,7,255,0,250,0,0,-21.614,-22.477,-42.785,-21.614,-22.477,-42.785
88199.815,0.890,-0.234,-0.108,0.377,2700,0,0,2701,59,69,0,297,42,0.362,13,0,304.782,11.352,-172.240,-99.320,231.000,-0.932,1.319,2.413,11.220,1.724,10.530,0.018,0.026,0.654,0.619,0,0,0,0,7,255,0,250,0,0,-21.113,-21.593,-41.820,-21.113,-21.593,-41.820
88204.815,0.896,-0.219,-0.109,0.371,2825,0,0,2772,59,56,0,288,42,0.362,13,0,394.286,3.713,-363.580,-81.140,129.180,-1.399,0.932,1.679,3.288,1.724,12.352,0.018,0.030,0.654,0.619,0,0,0,0,7,255,0,250,0,0,-19.474,-20.988,-41.321,-19.474,-20.988,-41.321
88209.816,0.901,-0.202,-0.112,0.368,2985,0,0,2968,63,77,0,291,42,0.362,13,0,410.518,5.739,-401.060,-75.340,44.720,-1.696,-0.612,0.287,-2.640,5.096,12.352,0.018,0.034,0.654,0.619,0,0,0,0,7,255,0,250,0,0,-17.502,-20.559,-41.223,-17.502,-20.559,-41.223
88214.815,0.904,-0.189,-0.113,0.366,3104,0,0,3131,73,93,0,288,42,0.362,13,0,322.746,16.683,-308.280,-94.500,14.080,-1.300,-1.421,-0.766,-15.886,5.096,-3.232,0.020,0.036,0.654,0.619,0,0,0,0,7,255,0,250,0,0,-15.934,-20.086,-41.296,-15.934,-20.086,-41.296
88219.815,0.904,-0.179,-0.112,0.373,3205,0,0,3215,73,93,0,299,42,0.362,13,0,276.458,17.265,-179.440,-136.140,-160.300,-0.903,-1.568,0.094,-17.164,1.868,-9.758,0.022,0.040,0.654,0.619,0,0,0,0,7,255,0,250,0,0,-14.690,-19.641,-42.309,-14.690,-19.641,-42.309
88224.817,0.901,-0.174,-0.110,0.381,3252,0,0,3299,71,103,0,299,42,0.362,13,0,225.864,17.850,-51.080,-111.100,-189.900,0.217,-1.041,0.823,-17.164,-4.902,-9.758,0.022,0.042,0.654,0.619,0,0,0,0,7,255,0,250,0,0,-14.058,-19.337,-43.432,-14.058,-19.337,-43.432
88229.816,0.900,-0.171,-0.108,0.387,3263,0,0,3343,81,100,0,297,42,0.362,13,0,171.190,12.506,-15.680,-92.920,-142.920,0.652,-0.515,1.802,-5.488,-11.238,-5.554,0.024,0.044,0.654,0.619,0,0,0,0,7,255,0,250,0,0,-13.698,-19.057,-44.284,-13.698,-19.057,-44.284
88234.815,0.900,-0.165,-0.107,0.390,3292,0,0,3383,77,105,0,299,42,0.362,13,0,136.224,14.018,-97.520,-79.180,-52.700,0.635,-0.356,2.011,1.636,-13.922,3.114,0.024,0.046,0.654,0.619,0,0,0,0,7,255,0,250,0,0,-13.089,-18.733,-44.652,-13.089,-18.733,-44.652
88239.815,0.902,-0.155,-0.106,0.387,3295,0,0,3405,75,106,0,299,36,0.362,14,0,248.037,14.018,-223.080,-99.140,43.920,0.290,-0.577,1.623,1.636,-13.922,3.114,0.026,0.046,0.654,0.619,1,0,0,0,7,255,0,250,0,0,-12.007,-18.200,-44.540,-12.007,-18.200,-44.540
88244.816,0.906,-0.144,-0.107,0.383,3319,0,0,3415,74,111,0,293,36,0.362,14,0,293.118,11.429,-258.600,-90.180,104.460,-0.258,-0.706,0.689,-1.158,-11.370,2.882,0.026,0.048,0.654,0.619,1,0,0,0,7,255,0,250,0,0,-10.849,-17.654,-44.096,-10.849,-17.654,-44.096
88249.815,0.910,-0.135,-0.105,0.378,3337,0,0,3435,80,108,0,299,36,0.362,14,0,237.991,8.180,-193.960,-94.440,100.500,-0.684,-0.558,0.191,-6.264,-5.260,-4.048,0.026,0.048,0.654,0.619,1,0,0,0,7,255,0,250,0,0,-10.006,-17.099,-43.668,-10.006,-17.099,-43.668
88254.815,0.911,-0.130,-0.103,0.377,3351,0,0,3444,77,117,0,304,36,0.362,14,0,150.693,6.873,-98.740,-103.780,46.780,-0.797,-0.232,0.304,-6.872,0.092,-5.218,0.026,0.048,0.654,0.619,1,0,0,0,7,255,0,250,0,0,-9.553,-16.547,-43.519,-9.553,-16.547,-43.519
88259.815,0.912,-0.126,-0.099,0.378,3352,0,0,3465,84,121,0,331,36,0.362,14,0,115.262,7.062,-35.640,-107.940,-19.080,-0.567,0.044,0.782,-6.872,1.626,-5.218,0.026,0.048,0.654,0.619,1,0,0,0,7,255,0,250,0,0,-9.319,-16.029,-43.709,-9.319,-16.029,-43.709
88264.817,0.911,-0.123,-0.096,0.381,3358,0,0,3463,75,115,0,341,36,0.362,14,0,121.608,3.391,-26.000,-104.640,-56.240,-0.211,0.030,1.152,-2.976,1.626,-1.018,0.026,0.048,0.654,0.619,1,0,0,0,7,255,0,250,0,0,-9.085,-15.557,-44.085,-9.085,-15.557,-44.085
88269.815,0.911,-0.120,-0.093,0.383,3375,0,0,3483,74,118,0,365,36,0.362,14,0,120.627,1.954,-43.400,-97.800,-55.700,0.009,-0.235,1.188,-0.778,-1.792,0.860,0.026,0.046,0.654,0.619,1,0,0,0,7,255,0,250,0,0,-8.770,-15.117,-44.449,-8.770,-15.117,-44.449
88274.815,0.911,-0.116,-0.090,0.385,3363,0,0,3464,79,135,0,376,36,0.362,14,0,114.958,5.080,-59.380,-94.320,-28.160,0.063,-0.491,0.999,-0.778,-5.020,0.860,0.024,0.046,0.654,0.619,1,0,0,0,7,255,0,250,0,0,-8.416,-14.671,-44.666,-8.416,-14.671,-44.666
88279.815,0.912,-0.112,-0.087,0.385,3373,0,0,3479,89,149,0,381,36,0.362,14,0,107.042,6.200,-52.860,-93.040,2.720,-0.009,-0.528,0.842,-2.392,-5.720,-1.364,0.024,0.044,0.654,0.619,1,0,0,0,7,255,0,250,0,0,-8.136,-14.208,-44.721,-8.136,-14.208,-44.721
88284.816,0.913,-0.109,-0.084,0.384,3377,0,0,3483,93,160,0,407,36,0.362,14,0,101.624,6.341,-32.340,-93.720,22.320,-0.076,-0.378,0.772,-2.736,-5.720,-2.660,0.022,0.042,0.654,0.619,1,0,0,0,7,255,0,250,0,0,-7.983,-13.728,-44.675,-7.983,-13.728,-44.675
88289.815,0.914,-0.107,-0.080,0.383,3384,0,0,3487,87,172,0,407,36,0.362,14,0,100.746,4.881,-13.920,-94.080,33.240,-0.110,-0.127,0.857,-2.736,-4.042,-2.660,0.020,0.038,0.654,0.619,1,0,0,0,7,255,0,250,0,0,-7.936,-13.238,-44.573,-7.936,-13.238,-44.573
88294.815,0.915,-0.105,-0.077,0.382,3381,0,0,3485,102,185,0,415,36,0.362,14,0,101.554,2.582,-7.740,-93.480,38.920,-0.130,0.045,0.917,-1.174,-2.300,-1.716,0.020,0.036,0.654,0.619,1,0,0,0,7,255,0,250,0,0,-7.925,-12.748,-44.442,-7.925,-12.748,-44.442
88299.816,0.916,-0.104,-0.073,0.381,3401,0,0,3495,100,181,0,417,36,0.362,14,0,101.113,1.116,-4.640,-92.740,40.020,-0.150,0.127,0.941,-0.114,-1.110,-0.870,0.018,0.032,0.654,0.619,1,0,0,0,7,255,0,250,0,0,-7.930,-12.261,-44.304,-7.930,-12.261,-44.304
88304.816,0.917,-0.102,-0.069,0.380,3404,0,0,3484,101,187,0,424,36,0.362,14,0,96.621,0.507,1.280,-90.780,33.060,-0.144,0.198,0.981,0.278,-0.424,-0.486,0.018,0.030,0.654,0.619,1,0,0,0,7,255,0,250,0,0,-7.956,-11.788,-44.201,-7.956,-11.788,-44.201
88309.815,0.917,-0.101,-0.065,0.379,3389,0,0,3486,107,204,0,424,36,0.362,14,0,90.788,0.777,7.320,-87.180,24.260,-0.097,0.299,1.059,0.776,-0.032,-0.016,0.018,0.026,0.654,0.619,1,0,0,0,7,255,0,250,0,0,-8.003,-11.338,-44.140,-8.003,-11.338,-44.140
88314.815,0.918,-0.100,-0.062,0.379,3399,0,0,3476,108,217,0,425,36,0.362,14,0,83.550,1.793,8.300,-82.000,13.700,-0.057,0.397,1.157,1.780,0.212,0.770,0.020,0.024,0.654,0.619,1,0,0,0,7,255,0,250,0,0,-8.044,-10.922,-44.130,-8.044,-10.922,-44.130
88319.816,0.918,-0.100,-0.059,0.380,3410,0,0,3493,110,215,0,423,36,0.362,14,0,72.258,2.722,15.200,-70.640,-0.340,0.052,0.488,1.432,2.714,0.212,1.772,0.022,0.020,0.654,0.619,1,0,0,0,7,255,0,250,0,0,-8.109,-10.572,-44.180,-8.109,-10.572,-44.180
88324.817,0.917,-0.100,-0.057,0.381,3403,0,0,3483,107,237,0,434,36,0.362,14,0,57.893,4.130,22.960,-38.780,-36.340,0.166,0.538,1.697,4.122,-0.260,4.336,0.022,0.018,0.654,0.619,1,0,0,0,7,255,0,250,0,0,-8.184,-10.405,-44.391,-8.184,-10.405,-44.391
88329.815,0.917,-0.099,-0.056,0.383,3405,0,0,3487,115,246,0,428,36,0.362,14,0,42.977,5.435,-10.800,-25.660,-32.740,0.386,0.568,1.543,5.282,-1.280,4.942,0.024,0.016,0.654,0.619,1,0,0,0,7,255,0,250,0,0,-8.095,-10.301,-44.575,-8.095,-10.301,-44.575
88334.815,0.917,-0.097,-0.056,0.382,3407,0,0,3495,117,264,0,408,36,0.362,14,0,35.381,6.668,-31.540,-14.860,6.020,0.233,0.664,1.369,6.544,-1.280,4.942,0.026,0.016,0.654,0.619,1,0,0,0,7,255,0,250,0,0,-7.939,-10.222,-44.555,-7.939,-10.222,-44.555
88339.816,0.918,-0.095,-0.057,0.381,3417,0,0,3487,125,296,0,453,36,0.362,14,0,62.876,6.545,-58.580,-7.660,21.520,-0.265,0.487,1.222,6.544,-0.092,3.670,0.028,0.014,0.654,0.619,1,0,0,0,7,255,0,250,0,0,-7.662,-10.169,-44.452,-7.662,-10.169,-44.452
88344.815,0.918,-0.092,-0.058,0.382,3416,0,0,3497,133,305,0,433,36,0.362,14,0,76.094,3.093,-73.840,-7.280,-16.880,-0.518,0.273,0.983,1.870,2.464,2.876,0.028,0.012,0.654,0.619,1,0,0,0,7,255,0,250,0,0,-7.275,-10.143,-44.542,-7.275,-10.143,-44.542
88349.815,0.917,-0.089,-0.059,0.385,3407,0,0,3498,125,313,0,443,36,0.362,14,0,88.631,2.480,-54.920,-6.060,-69.300,-0.327,0.241,0.892,-0.284,2.464,0.744,0.030,0.012,0.654,0.619,1,0,0,0,7,255,0,250,0,0,-6.936,-10.156,-44.895,-6.936,-10.156,-44.895
88354.815,0.916,-0.088,-0.059,0.388,3405,0,0,3499,134,309,0,456,36,0.362,14,0,91.420,2.020,-29.960,-6.320,-86.140,-0.020,0.221,0.979,-0.284,2.000,-0.224,0.030,0.010,0.654,0.619,1,0,0,0,7,255,0,250,0,0,-6.707,-10.175,-45.333,-6.707,-10.175,-45.333
88359.816,0.915,-0.086,-0.060,0.390,3411,0,0,3498,141,320,0,465,36,0.362,14,0,69.597,1.784,-29.900,-4.840,-62.660,0.135,0.104,1.126,1.740,-0.392,-0.224,0.032,0.010,0.654,0.619,1,0,0,0,7,255,0,250,0,0,-6.500,-10.186,-45.653,-6.500,-10.186,-45.653
88364.817,0.914,-0.084,-0.061,0.391,3413,0,0,3504,141,310,0,473,36,0.362,14,0,58.276,3.064,-54.980,-0.140,-19.320,0.060,-0.071,1.152,1.740,-2.522,0.780,0.032,0.010,0.654,0.619,1,0,0,0,7,255,0,250,0,0,-6.205,-10.196,-45.750,-6.205,-10.196,-45.750
88369.815,0.915,-0.081,-0.062,0.391,3422,0,0,3524,141,317,0,480,36,0.362,14,0,78.677,2.544,-78.660,-0.700,1.500,-0.213,-0.076,0.991,0.336,-2.522,0.780,0.034,0.008,0.654,0.619,1,0,0,0,7,255,0,250,0,0,-5.812,-10.191,-45.743,-5.812,-10.191,-45.743
88374.816,0.915,-0.078,-0.063,0.391,3414,0,0,3503,148,327,0,475,36,0.362,14,0,70.032,1.843,-68.240,-2.960,-15.460,-0.352,0.017,0.764,-1.568,-0.968,-0.084,0.034,0.008,0.654,0.619,1,0,0,0,7,255,0,250,0,0,-5.454,-10.184,-45.823,-5.454,-10.184,-45.823
88379.816,0.914,-0.077,-0.064,0.393,3416,0,0,3507,147,333,0,472,36,0.362,14,0,53.287,1.765,-33.800,-6.500,-40.680,-0.283,0.041,0.754,-1.568,0.810,-1.934,0.036,0.006,0.654,0.619,1,0,0,0,7,255,0,250,0,0,-5.247,-10.170,-46.032,-5.247,-10.170,-46.032
88384.815,0.914,-0.076,-0.064,0.395,3411,0,0,3507,153,343,0,488,36,0.362,14,0,46.997,1.506,-12.880,-9.060,-44.280,-0.115,-0.046,0.924,-1.270,0.810,-1.934,0.036,0.006,0.654,0.619,1,0,0,0,7,255,0,250,0,0,-5.133,-10.142,-46.260,-5.133,-10.142,-46.260
88389.817,0.913,-0.074,-0.064,0.395,3417,0,0,3499,155,344,0,505,36,0.362,14,0,31.751,1.520,-18.300,-10.100,-23.900,-0.057,-0.141,1.023,-0.888,-1.234,-0.856,0.038,0.006,0.654,0.619,1,0,0,0,7,255,0,250,0,0,-4.982,-10.084,-46.389,-4.982,-10.084,-46.389
88394.816,0.913,-0.073,-0.064,0.396,3429,0,0,3515,157,349,0,521,36,0.362,14,0,31.760,2.011,-29.540,-10.640,-4.780,-0.130,-0.138,0.988,-0.888,-1.804,-0.282,0.038,0.006,0.654,0.619,1,0,0,0,7,255,0,250,0,0,-4.788,-10.025,-46.420,-4.788,-10.025,-46.420
88399.815,0.913,-0.071,-0.064,0.396,3407,0,0,3515,154,355,0,531,36,0.362,14,0,31.551,2.260,-29.300,-11.680,-0.760,-0.228,-0.069,0.898,-1.362,-1.804,-0.282,0.038,0.004,0.654,0.619,1,0,0,0,7,255,0,250,0,0,-4.617,-9.976,-46.430,-4.617,-9.976,-46.430
88404.815,0.913,-0.070,-0.064,0.396,3407,0,0,3504,165,357,0,537,36,0.362,14,0,22.752,1.444,-15.260,-12.180,-11.680,-0.211,0.006,0.898,-1.362,-0.480,-0.884,0.038,0.004,0.654,0.619,1,0,0,0,7,255,0,250,0,0,-4.515,-9.929,-46.494,-4.515,-9.929,-46.494
88409.815,0.913,-0.070,-0.064,0.397,3416,0,0,3511,163,365,0,541,36,0.362,14,0,21.159,1.004,-5.060,-12.480,-16.320,-0.164,0.019,0.980,-0.896,-0.454,-0.884,0.040,0.004,0.654,0.619,1,0,0,0,7,255,0,250,0,0,-4.457,-9.871,-46.583,-4.457,-9.871,-46.583
88414.816,0.913,-0.069,-0.063,0.397,3410,0,0,3527,167,373,0,547,36,0.362,14,0,19.664,0.638,-6.700,-12.480,-13.640,-0.139,0.010,1.040,-0.448,-0.454,-0.168,0.040,0.002,0.654,0.619,1,0,0,0,7,255,0,250,0,0,-4.394,-9.805,-46.658,-4.394,-9.805,-46.658
88419.815,0.913,-0.068,-0.063,0.398,3409,0,0,3512,164,380,0,561,36,0.362,14,0,20.684,0.550,-12.080,-12.120,-11.620,-0.157,0.039,1.046,-0.310,-0.454,0.364,0.040,0.002,0.654,0.619,1,0,0,0,7,255,0,250,0,0,-4.312,-9.744,-46.722,-4.312,-9.744,-46.722
88424.817,0.913,-0.067,-0.063,0.398,3417,0,0,3496,166,380,0,553,36,0.362,14,1,22.037,0.539,-15.620,-11.200,-10.780,-0.174,0.059,1.021,-0.290,-0.454,0.364,0.042,0.002,0.654,0.619,1,0,0,0,7,255,0,250,0,0,-4.211,-9.691,-46.781,-4.211,-9.691,-46.781
88429.816,0.913,-0.066,-0.063,0.399,3407,0,0,3499,172,380,0,568,36,0.362,14,1,24.266,0.473,-15.620,-11.920,-14.240,-0.197,0.116,1.012,-0.270,-0.388,0.344,0.042,0.000,0.654,0.619,1,0,0,0,7,255,0,250,0,0,-4.143,-9.649,-46.855,-4.143,-9.649,-46.855
88434.816,0.912,-0.066,-0.063,0.400,3386,0,0,3485,183,435,0,583,36,0.362,14,1,28.367,0.302,-13.060,-12.360,-21.940,-0.215,0.171,1.015,-0.202,-0.224,0.328,0.042,0.000,0.654,0.619,1,0,0,0,7,255,0,250,0,0,-4.103,-9.613,-46.967,-4.103,-9.613,-46.967
88439.815,0.912,-0.066,-0.062,0.401,3392,0,0,3492,199,434,1,588,36,0.362,14,1,33.412,0.093,-11.100,-12.840,-28.780,-0.193,0.184,1.021,-0.092,-0.012,0.334,0.042,0.000,0.654,0.619,1,0,0,0,7,255,0,250,0,0,-4.062,-9.565,-47.115,-4.062,-9.565,-47.115
88444.815,0.911,-0.065,-0.062,0.402,3389,0,0,3480,197,447,0,589,36,0.362,14,1,37.417,0.162,-9.700,-12.840,-33.780,-0.165,0.202,1.060,0.042,0.156,0.344,0.042,0.000,0.654,0.619,1,0,0,0,7,255,0,250,0,0,-4.015,-9.509,-47.289,-4.015,-9.509,-47.289
88449.816,0.911,-0.065,-0.062,0.404,3387,0,0,3475,199,457,5,583,36,0.362,14,1,39.739,0.342,-13.060,-12.240,-35.480,-0.129,0.203,1.086,0.218,0.264,0.418,0.000,0.000,0.654,0.619,1,0,0,0,7,255,0,250,0,0,-3.942,-9.450,-47.472,-3.942,-9.450,-47.472
88454.816,0.910,-0.064,-0.061,0.405,3363,0,0,3455,198,460,1,595,36,0.362,14,1,39.355,0.469,-19.840,-11.620,-31.940,-0.130,0.177,1.076,0.366,0.294,0.490,0.000,0.000,0.654,0.619,1,0,0,0,7,255,0,250,0,0,-3.837,-9.392,-47.637,-3.837,-9.392,-47.637
88459.815,0.910,-0.062,-0.061,0.406,3368,0,0,3464,207,467,3,587,36,0.362,14,1,39.959,0.573,-24.460,-12.360,-29.080,-0.152,0.149,1.035,0.486,0.304,0.546,0.000,0.000,0.654,0.619,1,0,0,0,7,255,0,250,0,0,-3.709,-9.335,-47.787,-3.709,-9.335,-47.787
88464.815,0.909,-0.061,-0.061,0.407,3363,0,0,3445,209,475,3,591,36,0.362,14,1,40.003,0.596,-24.600,-12.780,-28.840,-0.162,0.138,1.013,0.508,0.312,0.516,0.000,0.000,0.654,0.619,1,0,0,0,7,255,0,250,0,0,-3.581,-9.280,-47.936,-3.581,-9.280,-47.936
88469.817,0.909,-0.060,-0.061,0.408,3365,0,0,3451,209,480,2,592,36,0.362,14,1,38.737,0.601,-24.660,-13.280,-26.760,-0.154,0.139,1.021,0.510,0.318,0.462,0.000,0.000,0.654,0.619,1,0,0,0,7,255,0,250,0,0,-3.456,-9.217,-48.075,-3.456,-9.217,-48.075
88474.815,0.909,-0.059,-0.061,0.409,3343,0,0,3435,211,485,7,595,36,0.362,14,1,40.042,0.606,-25.940,-13.200,-27.500,-0.138,0.147,1.048,0.512,0.324,0.420,0.000,0.000,0.654,0.619,1,0,0,0,7,255,0,250,0,0,-3.323,-9.152,-48.217,-3.323,-9.152,-48.217
88479.815,0.908,-0.057,-0.061,0.410,3333,3,0,3428,215,484,10,594,36,0.362,14,1,41.182,0.600,-29.480,-12.240,-26.020,-0.105,0.081,1.033,0.512,0.312,0.386,0.000,0.000,0.654,0.619,2,0,0,0,7,255,0,250,0,0,-3.157,-9.083,-48.352,-3.157,-9.083,-48.352
88484.815,0.908,-0.056,-0.061,0.411,3333,4,0,3431,210,487,11,661,36,0.362,14,1,38.732,0.526,-31.620,-12.720,-18.400,-0.086,0.000,0.988,0.494,0.180,0.358,0.000,0.000,0.654,0.619,2,0,0,0,7,255,0,250,0,0,-2.962,-9.000,-48.450,-2.962,-9.000,-48.450
88489.816,0.908,-0.054,-0.061,0.411,3310,1,0,3416,233,493,10,681,36,0.362,14,1,35.008,0.380,-30.640,-12.960,-10.900,-0.121,-0.017,0.953,0.380,0.010,0.234,0.000,0.000,0.654,0.619,2,0,0,0,7,255,0,250,0,0,-2.771,-8.926,-48.510,-2.771,-8.926,-48.510
88494.815,0.908,-0.053,-0.061,0.411,3318,5,5,3407,247,507,14,685,36,0.362,14,1,31.392,0.254,-27.220,-13.700,-7.540,-0.174,0.018,0.944,0.222,-0.124,0.082,0.000,0.000,0.654,0.619,2,0,0,0,7,255,0,250,0,0,-2.613,-8.870,-48.552,-2.613,-8.870,-48.552
88499.815,0.908,-0.051,-0.061,0.412,3303,0,5,3383,245,508,20,699,36,0.362,14,1,28.991,0.133,-21.780,-14.240,-12.780,-0.209,0.050,0.952,0.086,-0.102,-0.040,0.000,0.000,0.654,0.619,2,0,0,0,7,255,0,250,0,0,-2.496,-8.832,-48.618,-2.496,-8.832,-48.618
88504.816,0.907,-0.051,-0.061,0.413,3291,0,6,3399,275,532,20,723,36,0.362,14,1,29.630,0.048,-16.300,-14.920,-19.740,-0.176,0.048,0.956,-0.024,-0.042,-0.112,0.000,0.000,0.654,0.619,2,0,0,0,7,255,0,250,0,0,-2.401,-8.775,-48.721,-2.401,-8.775,-48.721
