t_ms,L_q0,L_q1,L_q2,L_q3,L_heel1,L_mid1,L_fore1,L_heel2,L_fore3,L_mid2,L_fore4,L_fore2,L_cadence,L_speed,L_steps,L_zupt,L_gyroNorm,L_accH,L_gyro_x,L_gyro_y,L_gyro_z,L_acc_x,L_acc_y,L_acc_z,L_nav_ax,L_nav_ay,L_nav_az,L_stepVel,L_stepVelj,L_stepDispRaw,L_stepDispZUPT,L_gaitEvent,L_motorMode,L_motorActive,L_motorAlignment,L_motorRegionMask,L_motorAmplitude,L_motorIntervalMs,L_motorDurationMs,L_motorPhaseMs,L_motorCycleMs,L_roll,L_pitch,L_yaw,L_relativeRoll,L_relativePitch,L_relativeYaw
150019.817,0.972,-0.090,-0.205,-0.067,3241,0,0,3384,0,43,0,293,47,0.939,59,0,229.354,24.400,-48.160,-160.480,-156.620,1.503,-1.994,1.690,20.172,-13.728,-5.470,0.532,0.362,1.290,1.206,0,2,1,0,7,255,1000,250,3,1000,-12.650,-22.740,10.408,-12.650,-22.740,10.408
150024.815,0.974,-0.085,-0.198,-0.068,3257,0,0,3413,0,54,0,298,47,0.939,59,0,187.806,26.758,-120.420,-142.160,23.680,0.908,-1.782,1.760,20.172,-17.580,-4.620,0.450,0.280,1.290,1.206,0,2,1,0,7,255,1000,250,8,1000,-12.030,-22.019,10.368,-12.030,-22.019,10.368
150029.816,0.975,-0.079,-0.192,-0.075,3271,0,0,3425,0,71,0,317,47,0.939,60,0,258.165,24.422,-177.360,-120.260,143.980,0.129,-0.945,1.238,16.952,-17.580,-0.962,0.372,0.204,1.290,1.206,1,2,1,0,7,255,1000,250,13,1000,-11.371,-21.283,10.995,-11.371,-21.283,10.995
150034.816,0.976,-0.074,-0.186,-0.084,3288,0,0,3463,0,85,0,327,47,0.939,60,0,277.071,12.265,-177.740,-119.580,175.720,-0.530,-0.046,0.719,7.166,-9.954,-0.962,0.322,0.160,1.290,1.206,1,2,1,0,7,255,1000,250,18,1000,-10.764,-20.527,11.795,-10.764,-20.527,11.795
150039.815,0.977,-0.070,-0.180,-0.090,3299,0,0,3461,10,104,0,327,47,0.939,60,0,208.236,2.594,-112.240,-121.040,126.940,-0.809,0.573,0.526,-1.834,-1.834,-1.478,0.300,0.148,1.290,1.206,1,2,1,0,7,255,1000,250,23,1000,-10.388,-19.815,12.341,-10.388,-19.815,12.341
150044.815,0.978,-0.069,-0.174,-0.092,3299,0,0,3437,20,115,0,338,47,0.939,60,0,137.941,6.581,-37.040,-124.900,45.340,-0.773,0.643,0.671,-5.422,3.730,-1.478,0.290,0.150,1.290,1.206,1,2,1,0,7,255,1000,250,28,1000,-10.239,-19.159,12.458,-10.239,-19.159,12.458
150049.815,0.979,-0.070,-0.169,-0.090,3303,0,0,3463,35,123,0,371,47,0.939,60,0,124.467,6.581,4.340,-122.380,-22.280,-0.418,0.258,1.014,-5.422,3.730,-0.222,0.280,0.148,1.290,1.206,1,2,1,0,7,255,1000,250,33,1000,-10.183,-18.576,12.227,-10.183,-18.576,12.227
150054.815,0.980,-0.071,-0.164,-0.088,3293,0,0,3444,39,155,0,407,47,0.939,60,0,125.633,1.120,14.960,-114.280,-50.000,0.033,-0.140,1.483,-0.542,0.980,1.118,0.260,0.130,1.290,1.206,1,2,1,0,7,255,1000,250,38,1000,-10.140,-18.057,11.862,-10.140,-18.057,11.862
150059.816,0.981,-0.072,-0.162,-0.084,3315,0,0,3445,52,189,0,411,47,0.939,60,0,115.518,6.123,38.200,-72.700,-81.240,0.322,-0.313,1.880,5.602,-2.472,3.394,0.234,0.102,1.290,1.206,1,2,1,0,7,255,1000,250,43,1000,-10.178,-17.769,11.374,-10.178,-17.769,11.374
150064.816,0.981,-0.071,-0.159,-0.083,3290,0,0,3455,61,233,0,457,47,0.939,60,0,67.053,10.206,-25.140,-53.660,-31.380,0.510,-0.301,1.508,9.680,-3.234,3.394,0.214,0.072,1.290,1.206,1,2,1,0,7,255,1000,250,48,1000,-9.985,-17.532,11.162,-9.985,-17.532,11.162
150069.817,0.982,-0.069,-0.157,-0.084,3303,0,0,3447,77,272,0,471,47,0.939,60,0,73.593,10.206,-42.720,-45.920,38.500,0.371,0.217,1.133,9.680,-3.234,2.006,0.206,0.054,1.290,1.206,1,2,1,0,7,255,1000,250,53,1000,-9.815,-17.272,11.319,-9.815,-17.272,11.319
150074.815,0.982,-0.068,-0.155,-0.088,3307,0,0,3461,103,363,0,478,47,0.939,60,0,93.442,7.147,-36.260,-32.920,79.580,-0.212,0.407,0.932,6.880,1.936,-0.022,0.206,0.044,1.290,1.206,1,2,1,0,7,255,1000,250,58,1000,-9.743,-17.041,11.699,-9.743,-17.041,11.699
150079.815,0.982,-0.068,-0.154,-0.090,3311,0,0,3473,107,379,0,539,47,0.939,60,0,68.890,2.018,-28.800,-29.560,55.160,-0.700,0.337,0.828,0.570,1.936,-0.022,0.212,0.040,1.290,1.206,1,2,1,0,7,255,1000,250,63,1000,-9.671,-16.848,11.957,-9.671,-16.848,11.957
150084.815,0.982,-0.067,-0.153,-0.089,3302,0,0,3463,117,421,0,539,47,0.939,60,0,38.537,4.200,-5.680,-31.140,-21.980,-0.710,0.317,0.925,-3.958,1.404,0.292,0.220,0.036,1.290,1.206,1,2,1,0,7,255,1000,250,68,1000,-9.604,-16.724,11.818,-9.604,-16.724,11.818
150089.817,0.982,-0.068,-0.151,-0.086,3303,0,0,3464,115,427,0,568,47,0.939,60,0,81.271,4.200,9.760,-39.020,-70.620,-0.374,0.294,0.943,-3.958,1.404,0.352,0.226,0.030,1.290,1.206,1,2,1,0,7,255,1000,250,73,1000,-9.536,-16.589,11.421,-9.536,-16.589,11.421
150094.816,0.983,-0.067,-0.149,-0.084,3327,0,0,3468,119,424,0,563,47,0.939,60,0,79.043,1.718,-3.360,-54.700,-56.960,-0.060,0.338,1.119,-0.790,1.526,1.180,0.230,0.024,1.290,1.206,1,2,1,0,7,255,1000,250,78,1000,-9.419,-16.365,11.080,-9.419,-16.365,11.080
150099.815,0.983,-0.066,-0.147,-0.083,3307,0,0,3484,131,451,0,595,47,0.939,60,0,51.570,2.955,-28.620,-38.160,-19.600,-0.069,0.149,1.282,2.530,1.526,1.184,0.234,0.022,1.290,1.206,1,2,1,0,7,255,1000,250,83,1000,-9.236,-16.192,10.947,-9.236,-16.192,10.947
150104.816,0.984,-0.064,-0.146,-0.082,3337,0,0,3455,188,465,10,612,47,0.939,60,0,42.622,2.557,-34.800,-19.000,-15.640,-0.326,0.021,0.980,2.530,0.374,1.184,0.236,0.020,1.290,1.206,1,2,1,0,7,255,1000,250,88,1000,-9.021,-16.113,10.850,-9.021,-16.113,10.850
150109.817,0.984,-0.063,-0.146,-0.081,3319,0,0,3480,219,494,18,629,47,0.939,60,0,49.508,0.971,-23.320,-18.500,-39.560,-0.384,0.017,0.914,0.052,-0.970,0.144,0.240,0.018,1.290,1.206,1,2,1,0,7,255,1000,250,93,1000,-8.835,-16.055,10.631,-8.835,-16.055,10.631
150114.815,0.984,-0.062,-0.145,-0.078,3311,0,0,3469,233,505,20,688,47,0.939,60,0,69.941,0.971,-6.100,-18.620,-67.140,-0.204,0.046,0.910,0.052,-0.970,-0.312,0.244,0.016,1.290,1.206,1,2,1,0,7,255,1000,250,98,1000,-8.702,-16.014,10.271,-8.702,-16.014,10.271
150119.816,0.985,-0.062,-0.144,-0.076,3309,0,0,3491,215,503,86,728,47,0.939,60,0,55.650,0.988,-4.160,-26.680,-48.660,-0.097,0.037,0.846,0.904,-0.398,-0.796,0.246,0.016,1.290,1.206,1,2,1,0,7,255,1000,250,103,1000,-8.604,-15.917,10.000,-8.604,-15.917,10.000
150124.816,0.985,-0.061,-0.142,-0.075,3353,0,0,3493,227,525,95,773,47,0.939,60,0,39.809,1.752,-10.200,-34.260,-17.520,-0.021,-0.102,1.094,1.706,-0.398,-0.796,0.248,0.016,1.290,1.206,1,2,1,0,7,255,1000,250,108,1000,-8.499,-15.742,9.879,-8.499,-15.742,9.879
150129.818,0.985,-0.061,-0.142,-0.075,3325,0,0,3484,246,551,97,784,47,0.939,60,0,17.552,2.206,-12.580,-11.540,4.080,-0.168,-0.014,1.141,1.904,-1.114,0.240,0.248,0.018,1.290,1.206,1,2,1,0,7,255,1000,250,113,1000,-8.413,-15.664,9.887,-8.413,-15.664,9.887
150134.817,0.985,-0.060,-0.142,-0.076,3311,0,6,3465,243,573,101,791,47,0.939,60,0,15.989,2.206,-13.680,-5.020,6.580,-0.359,0.160,0.960,1.904,-1.114,0.248,0.252,0.020,1.290,1.206,2,2,1,0,7,255,1000,250,118,1000,-8.355,-15.653,9.919,-8.355,-15.653,9.919
150139.815,0.985,-0.060,-0.141,-0.075,3321,0,25,3436,237,567,143,799,47,0.939,60,0,12.950,0.750,-5.560,-7.040,-9.340,-0.353,0.189,0.943,-0.610,0.436,0.248,0.254,0.022,1.290,1.206,2,2,1,0,7,255,1000,250,123,1000,-8.324,-15.645,9.869,-8.324,-15.645,9.869
150144.815,0.985,-0.060,-0.141,-0.075,3337,0,36,3416,238,581,91,797,47,0.939,60,0,14.851,0.750,3.120,-3.920,-13.980,-0.251,0.088,0.965,-0.610,0.436,0.110,0.254,0.022,1.290,1.206,2,2,1,0,7,255,1000,250,128,1000,-8.300,-15.629,9.792,-8.300,-15.629,9.792
150149.816,0.985,-0.059,-0.141,-0.074,3319,0,40,3417,237,598,115,813,47,0.939,60,0,7.018,0.502,0.120,-4.840,-5.080,-0.227,-0.005,0.982,0.496,-0.076,-0.086,0.254,0.022,1.290,1.206,2,2,1,0,7,255,1000,250,133,1000,-8.245,-15.595,9.756,-8.245,-15.595,9.756
150154.816,0.986,-0.059,-0.141,-0.074,3351,0,45,3415,263,591,137,825,47,0.939,60,0,5.312,1.121,-3.480,-3.860,1.100,-0.260,-0.047,0.976,0.598,-0.948,-0.118,0.252,0.022,1.290,1.206,2,2,1,0,7,255,1000,250,138,1000,-8.170,-15.571,9.754,-8.170,-15.571,9.754
150159.815,0.986,-0.057,-0.141,-0.074,3345,0,46,3387,269,605,125,839,47,0.939,60,1,4.272,1.179,-3.480,-2.460,0.300,-0.291,-0.040,0.947,0.598,-1.016,-0.122,0.248,0.022,1.290,1.206,2,2,1,0,7,255,1000,250,143,1000,-7.996,-15.578,9.740,-7.996,-15.578,9.740
150164.816,0.986,-0.056,-0.140,-0.075,3334,0,51,3401,269,617,115,839,47,0.939,60,1,3.587,1.219,-1.640,-2.700,1.700,-0.252,-0.009,0.939,0.580,-1.072,-0.162,0.246,0.024,1.290,1.206,2,2,1,0,7,255,1000,250,148,1000,-7.868,-15.555,9.735,-7.868,-15.555,9.735
150169.817,0.986,-0.055,-0.140,-0.075,3324,0,59,3400,280,623,142,839,47,0.939,60,1,8.522,1.182,0.800,-2.460,8.120,-0.250,-0.006,0.945,0.566,-1.038,-0.206,0.242,0.024,1.290,1.206,2,2,1,0,7,255,1000,250,153,1000,-7.763,-15.525,9.763,-7.763,-15.525,9.763
150174.815,0.986,-0.055,-0.140,-0.076,3323,0,58,3387,285,633,142,849,47,0.939,60,1,12.952,1.143,3.420,-2.400,12.260,-0.284,-0.001,0.955,0.554,-1.000,-0.242,0.240,0.026,1.290,1.206,2,2,1,0,7,255,1000,250,158,1000,-7.677,-15.519,9.815,-7.677,-15.519,9.815
150179.816,0.986,-0.054,-0.140,-0.076,3320,0,71,3415,288,629,150,848,47,0.939,60,1,13.125,1.086,4.400,-2.640,12.080,-0.301,0.014,0.961,0.488,-0.970,-0.232,0.238,0.026,1.290,1.206,2,2,1,0,7,255,1000,250,163,1000,-7.612,-15.523,9.868,-7.612,-15.523,9.868
150184.816,0.986,-0.053,-0.140,-0.077,3336,0,77,3405,296,631,145,843,47,0.939,60,1,12.569,1.009,5.800,-3.000,10.740,-0.290,0.024,0.946,0.414,-0.920,-0.224,0.234,0.028,1.290,1.206,2,2,1,0,7,255,1000,250,168,1000,-7.563,-15.520,9.915,-7.563,-15.520,9.915
150189.817,0.986,-0.053,-0.140,-0.077,3338,3,73,3385,304,635,148,851,47,0.939,60,1,14.350,0.917,9.880,-2.880,10.000,-0.296,0.029,0.936,0.344,-0.850,-0.222,0.234,0.030,1.290,1.206,2,2,1,0,7,255,1000,250,173,1000,-7.542,-15.525,9.959,-7.542,-15.525,9.959
150194.815,0.986,-0.054,-0.140,-0.077,3349,5,77,3429,308,633,147,828,47,0.939,60,1,14.592,0.832,12.760,-3.380,6.220,-0.300,0.093,0.990,0.284,-0.782,-0.222,0.232,0.030,1.290,1.206,2,2,1,0,7,255,1000,250,178,1000,-7.582,-15.519,9.988,-7.582,-15.519,9.988
150199.817,0.986,-0.054,-0.140,-0.077,3340,5,83,3399,311,631,157,853,47,0.939,60,1,8.799,0.663,8.120,-2.580,2.200,-0.287,0.091,1.010,0.236,-0.620,-0.118,0.232,0.030,1.290,1.206,2,2,1,0,7,255,1000,250,183,1000,-7.592,-15.504,9.994,-7.592,-15.504,9.994
150204.815,0.986,-0.053,-0.140,-0.077,3323,12,83,3396,301,632,149,855,47,0.939,60,1,7.866,0.545,6.660,-3.740,1.880,-0.258,0.059,0.957,0.234,-0.492,-0.032,0.232,0.030,1.290,1.206,2,2,1,0,7,255,1000,250,188,1000,-7.563,-15.477,9.995,-7.563,-15.477,9.995
150209.817,0.986,-0.054,-0.140,-0.077,3331,6,83,3391,312,648,148,853,47,0.939,60,1,10.558,0.452,10.200,-2.220,1.580,-0.284,0.111,0.987,0.232,-0.388,0.024,0.234,0.030,1.290,1.206,2,2,1,0,7,255,1000,250,193,1000,-7.597,-15.470,10.000,-7.597,-15.470,10.000
150214.816,0.986,-0.054,-0.140,-0.077,3335,2,85,3380,312,636,136,845,47,0.939,60,1,10.244,0.348,9.700,-1.060,-3.120,-0.298,0.107,0.977,0.214,-0.274,0.056,0.234,0.030,1.290,1.206,2,2,1,0,7,255,1000,250,198,1000,-7.620,-15.484,9.983,-7.620,-15.484,9.983
150219.815,0.986,-0.054,-0.139,-0.077,3317,2,87,3389,315,651,121,841,47,0.939,60,1,9.656,0.265,8.120,-2.020,-4.820,-0.252,0.106,0.987,0.202,-0.172,0.082,0.236,0.028,1.290,1.206,2,2,1,0,7,255,1000,250,203,1000,-7.630,-15.460,9.954,-7.630,-15.460,9.954
150224.815,0.986,-0.054,-0.139,-0.077,3311,1,85,3373,317,636,143,842,47,0.939,60,1,6.715,0.269,6.520,-0.620,-1.480,-0.238,0.087,0.981,0.250,-0.100,0.096,0.238,0.028,1.290,1.206,2,2,1,0,7,255,1000,250,208,1000,-7.619,-15.430,9.940,-7.619,-15.430,9.940
150229.815,0.986,-0.054,-0.139,-0.077,3335,0,85,3371,320,637,151,840,47,0.939,60,1,6.130,0.295,5.980,-0.860,1.040,-0.254,0.078,0.961,0.288,-0.066,0.084,0.242,0.026,1.290,1.206,2,2,1,0,7,255,1000,250,213,1000,-7.602,-15.414,9.940,-7.602,-15.414,9.940
150234.815,0.986,-0.054,-0.139,-0.077,3318,3,83,3358,319,629,151,840,47,0.939,60,1,5.724,0.318,5.560,0.600,1.220,-0.252,0.082,0.973,0.314,-0.050,0.068,0.244,0.024,1.290,1.206,2,2,1,0,7,255,1000,250,218,1000,-7.586,-15.402,9.941,-7.586,-15.402,9.941
150239.816,0.986,-0.053,-0.139,-0.077,3304,0,82,3359,312,637,137,840,47,0.939,60,1,6.492,0.337,4.280,-0.140,4.880,-0.249,0.061,0.958,0.334,-0.044,0.030,0.248,0.022,1.290,1.206,2,2,1,0,7,255,1000,250,223,1000,-7.552,-15.385,9.959,-7.552,-15.385,9.959
150244.816,0.986,-0.053,-0.139,-0.077,3320,0,79,3372,311,628,143,827,47,0.939,60,1,10.590,0.351,3.780,-0.500,9.880,-0.265,0.081,0.957,0.350,-0.032,0.000,0.252,0.020,1.290,1.206,2,2,1,0,7,255,1000,250,228,1000,-7.540,-15.378,10.006,-7.540,-15.378,10.006
150249.815,0.986,-0.053,-0.139,-0.078,3297,0,75,3373,299,628,133,824,47,0.939,60,1,15.098,0.329,3.840,-1.540,14.520,-0.280,0.126,0.961,0.328,-0.024,-0.026,0.256,0.018,1.290,1.206,2,2,1,0,7,255,1000,250,233,1000,-7.576,-15.370,10.081,-7.576,-15.370,10.081
150254.815,0.986,-0.054,-0.139,-0.079,3303,0,76,3341,303,633,93,825,47,0.939,60,1,18.300,0.281,3.780,-2.280,17.760,-0.286,0.164,0.970,0.274,0.062,-0.018,0.260,0.018,1.290,1.206,2,2,1,0,7,255,1000,250,238,1000,-7.642,-15.356,10.174,-7.642,-15.356,10.174
150259.815,0.986,-0.054,-0.139,-0.080,3287,0,74,3370,307,615,91,823,47,0.939,60,1,20.736,0.289,3.300,-2.940,20.260,-0.290,0.183,0.977,0.212,0.196,0.018,0.266,0.016,1.290,1.206,2,2,1,0,7,255,1000,250,243,1000,-7.716,-15.338,10.279,-7.716,-15.338,10.279
150264.816,0.986,-0.055,-0.138,-0.081,3288,0,72,3367,306,619,95,821,47,0.939,60,1,22.876,0.367,1.280,-3.440,22.580,-0.292,0.203,0.986,0.156,0.332,0.066,0.270,0.016,1.290,1.206,2,2,1,0,7,255,1000,250,248,1000,-7.789,-15.315,10.397,-7.789,-15.315,10.397
150269.816,0.985,-0.055,-0.138,-0.082,3285,0,71,3387,312,619,92,821,47,0.939,60,1,23.631,0.483,-1.580,-3.980,23.240,-0.302,0.217,0.986,0.104,0.472,0.126,0.274,0.016,1.290,1.206,2,2,0,0,7,255,1000,250,253,1000,-7.854,-15.292,10.518,-7.854,-15.292,10.518
150274.817,0.985,-0.056,-0.138,-0.082,3281,0,72,3375,316,621,103,837,47,0.939,60,1,22.716,0.597,-4.160,-4.660,21.840,-0.308,0.215,0.977,0.040,0.596,0.174,0.278,0.018,1.290,1.206,2,2,0,0,7,255,1000,250,258,1000,-7.906,-15.273,10.633,-7.906,-15.273,10.633
150279.815,0.985,-0.056,-0.138,-0.083,3275,0,78,3379,333,624,135,839,47,0.939,60,1,20.942,0.694,-5.560,-5.380,19.460,-0.305,0.202,0.972,-0.022,0.694,0.206,0.284,0.020,1.290,1.206,2,2,0,0,7,255,1000,250,263,1000,-7.944,-15.253,10.734,-7.944,-15.253,10.734
150284.815,0.985,-0.056,-0.138,-0.084,3275,0,82,3379,330,629,138,845,47,0.939,60,1,19.737,0.749,-6.340,-6.180,17.640,-0.294,0.171,0.961,-0.070,0.746,0.216,0.288,0.022,1.290,1.206,2,2,0,0,7,255,1000,250,268,1000,-7.959,-15.228,10.824,-7.959,-15.228,10.824
150289.815,0.985,-0.056,-0.138,-0.085,3261,1,87,3371,339,645,147,840,47,0.939,60,1,19.362,0.737,-6.840,-6.360,16.960,-0.295,0.143,0.962,-0.086,0.732,0.192,0.292,0.024,1.290,1.206,2,2,0,0,7,255,1000,250,273,1000,-7.949,-15.204,10.909,-7.949,-15.204,10.909
150294.815,0.985,-0.056,-0.138,-0.086,3261,0,87,3377,357,628,149,847,47,0.939,60,1,18.474,0.671,-7.880,-6.240,15.500,-0.300,0.130,0.968,-0.094,0.664,0.172,0.294,0.024,1.290,1.206,2,2,0,0,7,255,1000,250,278,1000,-7.927,-15.185,10.986,-7.927,-15.185,10.986
150299.816,0.985,-0.055,-0.138,-0.086,3237,2,87,3355,349,627,148,840,47,0.939,60,1,18.111,0.593,-9.760,-6.420,13.840,-0.303,0.116,0.958,-0.102,0.584,0.150,0.296,0.026,1.290,1.206,2,2,0,0,7,255,1000,250,283,1000,-7.879,-15.172,11.053,-7.879,-15.172,11.053
150304.817,0.985,-0.055,-0.138,-0.087,3237,5,97,3360,356,632,155,851,47,0.939,60,1,17.625,0.507,-10.800,-6.720,12.200,-0.313,0.115,0.943,-0.114,0.494,0.122,0.298,0.026,1.290,1.206,2,2,0,0,7,255,1000,250,288,1000,-7.825,-15.170,11.114,-7.825,-15.170,11.114
150309.816,0.985,-0.054,-0.138,-0.087,3230,10,97,3351,356,638,159,831,47,0.939,60,1,16.145,0.448,-10.440,-8.320,9.080,-0.331,0.128,0.938,-0.150,0.422,0.078,0.298,0.026,1.290,1.206,2,2,0,0,7,255,1000,250,293,1000,-7.781,-15.180,11.159,-7.781,-15.180,11.159
150314.815,0.985,-0.054,-0.138,-0.087,3217,9,104,3341,355,639,157,839,47,0.939,60,1,14.238,0.442,-9.220,-9.720,4.820,-0.340,0.143,0.941,-0.218,0.384,0.044,0.298,0.024,1.290,1.206,2,2,0,0,7,255,1000,250,298,1000,-7.751,-15.191,11.184,-7.751,-15.191,11.184
150319.815,0.985,-0.054,-0.138,-0.087,3223,16,109,3345,379,637,161,844,47,0.939,60,1,14.100,0.478,-8.180,-11.420,-1.220,-0.346,0.152,0.959,-0.292,0.378,0.032,0.300,0.024,1.290,1.206,2,2,0,0,7,255,1000,250,303,1000,-7.722,-15.192,11.177,-7.722,-15.192,11.177
150324.815,0.985,-0.053,-0.138,-0.087,3223,18,123,3341,384,651,167,853,47,0.939,60,1,18.110,0.512,-8.720,-12.700,-9.520,-0.338,0.143,0.975,-0.350,0.374,0.060,0.300,0.022,1.290,1.206,2,2,0,0,7,255,1000,250,308,1000,-7.668,-15.178,11.124,-7.668,-15.178,11.124
150329.816,0.985,-0.053,-0.137,-0.086,3195,21,136,3328,395,637,167,859,47,0.939,60,1,23.747,0.523,-10.500,-12.780,-17.040,-0.296,0.119,0.973,-0.374,0.366,0.084,0.300,0.022,1.290,1.206,2,2,0,0,7,255,1000,250,313,1000,-7.580,-15.142,11.028,-7.580,-15.142,11.028
150334.816,0.986,-0.052,-0.137,-0.086,3181,11,153,3339,405,636,173,879,47,0.939,60,1,26.653,0.453,-12.940,-12.220,-19.840,-0.245,0.080,0.958,-0.308,0.332,0.092,0.300,0.020,1.290,1.206,2,2,0,0,7,255,1000,250,318,1000,-7.453,-15.084,10.914,-7.453,-15.084,10.914
150339.816,0.986,-0.051,-0.136,-0.085,3166,21,170,3335,397,633,177,885,47,0.939,60,1,25.405,0.301,-14.100,-11.360,-17.820,-0.220,0.036,0.941,-0.162,0.254,0.036,0.300,0.018,1.290,1.206,2,2,0,0,7,255,1000,250,323,1000,-7.300,-15.019,10.809,-7.300,-15.019,10.809
150344.815,0.986,-0.049,-0.135,-0.084,3165,25,175,3290,405,638,181,885,47,0.939,60,1,22.524,0.128,-11.960,-10.940,-15.640,-0.241,0.005,0.947,-0.030,0.124,-0.046,0.300,0.018,1.290,1.206,2,2,0,0,7,255,1000,250,328,1000,-7.134,-14.965,10.713,-7.134,-14.965,10.713
150349.815,0.986,-0.048,-0.135,-0.084,3159,22,184,3315,409,651,189,891,47,0.939,60,1,20.962,0.085,-9.520,-11.180,-14.960,-0.254,0.007,0.961,0.076,-0.038,-0.112,0.300,0.016,1.290,1.206,2,2,0,0,7,255,1000,250,333,1000,-6.977,-14.919,10.622,-6.977,-14.919,10.622
150354.815,0.986,-0.047,-0.134,-0.083,3160,27,189,3311,413,655,219,889,47,0.939,60,1,19.677,0.226,-10.380,-10.940,-12.640,-0.235,0.053,0.955,0.154,-0.166,-0.140,0.300,0.014,1.290,1.206,2,2,0,0,7,255,1000,250,338,1000,-6.854,-14.857,10.545,-6.854,-14.857,10.545
150359.815,0.986,-0.046,-0.133,-0.083,3141,19,199,3291,426,649,237,903,47,0.939,60,1,17.078,0.266,-11.540,-9.960,-7.700,-0.240,0.094,0.955,0.204,-0.170,-0.152,0.298,0.012,1.290,1.206,2,2,0,0,7,255,1000,250,343,1000,-6.764,-14.800,10.497,-6.764,-14.800,10.497
150364.817,0.987,-0.046,-0.133,-0.083,3136,25,203,3299,435,651,243,907,47,0.939,60,1,15.272,0.264,-9.520,-9.660,-7.020,-0.284,0.086,0.984,0.232,-0.126,-0.160,0.298,0.012,1.290,1.206,2,2,0,0,7,255,1000,250,348,1000,-6.679,-14.771,10.454,-6.679,-14.771,10.454
150369.816,0.987,-0.045,-0.133,-0.082,3128,19,217,3263,441,653,251,913,47,0.939,60,1,18.514,0.199,-10.380,-10.940,-10.740,-0.314,0.115,0.989,0.190,-0.058,-0.092,0.298,0.010,1.290,1.206,2,2,0,0,7,255,1000,250,353,1000,-6.609,-14.753,10.395,-6.609,-14.753,10.395
150374.815,0.987,-0.045,-0.133,-0.082,3109,21,224,3275,452,647,249,915,47,0.939,60,1,19.819,0.096,-13.360,-11.120,-9.520,-0.303,0.168,0.986,0.096,0.008,-0.006,0.298,0.008,1.290,1.206,2,2,0,0,7,255,1000,250,358,1000,-6.559,-14.726,10.343,-6.559,-14.726,10.343
150379.815,0.987,-0.045,-0.132,-0.081,3089,21,238,3253,466,651,252,916,47,0.939,60,1,23.707,0.153,-13.360,-10.580,-16.480,-0.352,0.168,1.005,0.018,0.152,0.062,0.296,0.006,1.290,1.206,2,2,0,0,7,255,1000,250,363,1000,-6.492,-14.719,10.257,-6.492,-14.719,10.257
150384.815,0.987,-0.044,-0.132,-0.080,3079,22,252,3255,475,657,295,926,47,0.939,60,1,33.251,0.288,-13.980,-11.480,-27.900,-0.312,0.188,1.020,-0.046,0.284,0.174,0.296,0.006,1.290,1.206,2,2,0,0,7,255,1000,250,368,1000,-6.405,-14.689,10.109,-6.405,-14.689,10.109
150389.816,0.987,-0.043,-0.132,-0.079,3063,24,267,3095,493,660,303,927,47,0.939,60,1,36.273,0.385,-18.980,-10.200,-29.180,-0.268,0.146,1.003,-0.098,0.372,0.266,0.296,0.004,1.290,1.206,2,2,0,0,7,255,1000,250,373,1000,-6.279,-14.653,9.954,-6.279,-14.653,9.954
150394.817,0.987,-0.042,-0.131,-0.078,3047,16,279,2750,507,667,316,941,47,0.939,60,1,40.544,0.436,-20.940,-9.040,-33.520,-0.250,0.068,1.004,-0.056,0.432,0.286,0.296,0.002,1.290,1.206,2,2,0,0,7,255,1000,250,378,1000,-6.114,-14.622,9.775,-6.114,-14.622,9.775
150399.816,0.988,-0.040,-0.131,-0.076,3017,20,293,2748,510,663,329,947,47,0.939,60,1,40.829,0.343,-24.600,-9.600,-31.140,-0.252,0.037,0.979,0.020,0.342,0.278,0.296,0.002,1.290,1.206,2,2,0,0,7,255,1000,250,383,1000,-5.926,-14.590,9.608,-5.926,-14.590,9.608
150404.816,0.988,-0.039,-0.130,-0.075,3013,27,305,3242,531,665,332,967,47,0.939,60,1,41.280,0.230,-25.640,-8.980,-31.080,-0.266,0.017,0.957,0.080,0.216,0.220,0.296,0.000,1.290,1.206,2,2,0,0,7,255,1000,250,388,1000,-5.728,-14.564,9.442,-5.728,-14.564,9.442
150409.817,0.988,-0.038,-0.130,-0.074,2983,35,359,3152,535,674,343,964,47,0.939,60,1,42.112,0.148,-22.880,-9.480,-34.060,-0.288,0.033,0.965,0.094,0.114,0.166,0.000,0.000,1.290,1.206,2,2,0,0,7,255,1000,250,393,1000,-5.547,-14.542,9.260,-5.547,-14.542,9.260
150414.815,0.988,-0.036,-0.129,-0.073,2939,27,376,3003,541,664,349,971,47,0.939,60,1,42.253,0.108,-25.200,-9.960,-32.420,-0.259,0.067,0.964,0.104,0.030,0.112,0.000,0.000,1.290,1.206,2,2,0,0,7,255,1000,250,398,1000,-5.367,-14.509,9.088,-5.367,-14.509,9.088
150419.815,0.988,-0.035,-0.129,-0.071,2909,37,394,3259,551,649,363,979,47,0.939,60,1,44.370,0.075,-21.600,-9.160,-37.660,-0.285,0.060,0.978,0.070,0.028,0.078,0.000,0.000,1.290,1.206,2,2,0,0,7,255,1000,250,403,1000,-5.199,-14.486,8.890,-5.199,-14.486,8.890
150424.816,0.989,-0.034,-0.129,-0.070,2873,37,413,2951,565,645,371,979,47,0.939,60,1,44.566,0.090,-25.140,-10.460,-35.280,-0.248,0.054,0.971,0.084,0.032,0.048,0.000,0.000,1.290,1.206,2,2,0,0,7,255,1000,250,408,1000,-5.016,-14.449,8.702,-5.016,-14.449,8.702
150429.816,0.989,-0.032,-0.128,-0.068,2841,41,424,3117,589,655,380,983,47,0.939,60,1,46.013,0.090,-22.580,-9.780,-38.880,-0.272,0.003,0.972,0.086,0.028,0.030,0.000,0.000,1.290,1.206,2,2,0,0,7,255,1000,250,413,1000,-4.833,-14.420,8.497,-4.833,-14.420,8.497
150434.815,0.989,-0.031,-0.128,-0.067,2797,45,455,3054,605,649,397,981,47,0.939,60,1,43.695,0.112,-26.620,-11.740,-32.600,-0.255,0.034,0.981,0.112,0.004,0.014,0.000,0.000,1.290,1.206,2,2,0,0,7,255,1000,250,418,1000,-4.642,-14.374,8.323,-4.642,-14.374,8.323
150439.815,0.989,-0.030,-0.127,-0.065,2747,43,474,2994,625,648,404,999,47,0.939,60,1,48.849,0.117,-26.240,-10.880,-39.740,-0.280,0.020,0.981,0.108,-0.044,0.018,0.000,0.000,1.290,1.206,2,2,0,0,7,255,1000,250,423,1000,-4.448,-14.338,8.113,-4.448,-14.338,8.113
150444.815,0.990,-0.028,-0.127,-0.064,2713,43,472,3044,630,645,416,995,47,0.939,60,1,50.010,0.152,-28.800,-12.460,-38.940,-0.256,0.009,0.984,0.128,-0.082,0.022,0.000,0.000,1.290,1.206,2,2,0,0,7,255,1000,250,428,1000,-4.243,-14.289,7.907,-4.243,-14.289,7.907
150449.815,0.990,-0.026,-0.126,-0.062,2669,51,491,3081,567,659,429,1003,47,0.939,60,1,51.460,0.187,-31.320,-13.020,-38.700,-0.252,-0.026,0.955,0.144,-0.120,0.024,0.000,0.000,1.290,1.206,2,2,0,0,7,255,1000,250,433,1000,-4.026,-14.238,7.702,-4.026,-14.238,7.702
150454.816,0.990,-0.025,-0.125,-0.061,2599,48,583,3093,558,651,445,1005,47,0.939,60,1,49.524,0.238,-29.240,-13.560,-37.600,-0.241,-0.017,0.965,0.156,-0.180,-0.016,0.000,0.000,1.290,1.206,2,2,0,0,7,255,1000,250,438,1000,-3.817,-14.182,7.503,-3.817,-14.182,7.503
150459.816,0.990,-0.023,-0.125,-0.059,2533,53,588,3095,572,637,459,1011,47,0.939,60,1,44.386,0.294,-26.860,-12.100,-33.200,-0.234,-0.005,0.951,0.186,-0.228,-0.066,0.000,0.000,1.290,1.206,2,2,0,0,7,255,1000,250,443,1000,-3.621,-14.131,7.326,-3.621,-14.131,7.326
150464.816,0.990,-0.022,-0.124,-0.058,2463,52,605,3079,582,636,473,1015,47,0.939,60,1,41.618,0.313,-25.140,-12.840,-30.580,-0.248,0.022,0.950,0.208,-0.234,-0.108,0.000,0.000,1.290,1.206,2,2,0,0,7,255,1000,250,448,1000,-3.442,-14.077,7.163,-3.442,-14.077,7.163
150469.817,0.990,-0.021,-0.124,-0.057,2358,57,619,3053,599,645,479,1029,47,0.939,60,1,39.489,0.297,-22.220,-11.740,-30.460,-0.241,0.007,0.963,0.212,-0.208,-0.144,0.000,0.000,1.290,1.206,2,2,0,0,7,255,1000,250,453,1000,-3.271,-14.027,7.002,-3.271,-14.027,7.002
150474.815,0.991,-0.020,-0.123,-0.056,2259,57,651,3031,599,637,491,1043,47,0.939,60,1,37.382,0.262,-22.280,-12.780,-27.160,-0.259,0.012,0.970,0.194,-0.176,-0.150,0.000,0.000,1.290,1.206,2,2,0,0,7,255,1000,250,458,1000,-3.105,-13.976,6.857,-3.105,-13.976,6.857
150479.815,0.991,-0.018,-0.122,-0.055,2171,55,677,3007,615,647,503,1043,47,0.939,60,1,37.425,0.231,-20.940,-12.520,-28.380,-0.259,0.008,0.985,0.172,-0.154,-0.132,0.000,0.000,1.290,1.206,2,2,0,0,7,255,1000,250,463,1000,-2.944,-13.924,6.706,-2.944,-13.924,6.706
150484.816,0.991,-0.017,-0.122,-0.054,2053,54,720,2985,628,635,519,1047,47,0.939,60,1,38.721,0.198,-23.020,-14.060,-27.780,-0.295,0.015,0.984,0.148,-0.132,-0.090,0.000,0.000,1.290,1.206,2,2,0,0,7,255,1000,250,468,1000,-2.779,-13.875,6.559,-2.779,-13.875,6.559
150489.816,0.991,-0.016,-0.121,-0.052,1931,59,729,2950,660,629,533,1043,47,0.939,60,1,43.675,0.123,-23.020,-14.180,-34.300,-0.298,0.041,1.003,0.062,-0.106,-0.042,0.000,0.000,1.290,1.206,2,2,0,0,7,255,1000,250,473,1000,-2.617,-13.821,6.379,-2.617,-13.821,6.379
150494.815,0.991,-0.015,-0.121,-0.051,1803,53,776,2899,679,607,543,1039,47,0.939,60,0,50.047,0.384,-27.400,-14.900,-39.140,-0.273,0.036,1.018,-0.282,0.260,0.356,0.000,0.000,1.267,1.188,3,2,0,0,7,255,1000,250,478,1000,-2.427,-13.754,6.174,-2.427,-13.754,6.174
150499.815,0.991,-0.013,-0.120,-0.049,1700,48,799,2885,683,613,557,1065,47,0.939,60,0,51.696,0.263,-29.960,-15.280,-39.260,-0.250,-0.004,0.979,-0.040,0.260,0.356,0.000,0.000,1.267,1.188,3,2,0,0,7,255,1000,250,483,1000,-2.225,-13.685,5.969,-2.225,-13.685,5.969
150504.816,0.992,-0.012,-0.119,-0.048,1567,53,831,2841,715,615,583,1070,47,0.939,60,0,49.282,0.124,-29.600,-15.700,-36.140,-0.225,-0.017,0.971,0.110,-0.058,-0.002,0.000,0.002,1.267,1.188,3,2,0,0,7,255,1000,250,488,1000,-2.026,-13.612,5.779,-2.026,-13.612,5.779
150509.817,0.992,-0.010,-0.118,-0.047,1429,51,841,2767,740,619,603,1061,47,0.939,60,0,45.737,0.207,-27.840,-15.940,-32.600,-0.241,-0.020,0.974,0.164,-0.126,-0.076,0.002,0.002,1.267,1.188,3,2,0,0,7,255,1000,250,493,1000,-1.840,-13.537,5.608,-1.840,-13.537,5.608
150514.816,0.992,-0.009,-0.118,-0.045,1261,43,867,2715,760,592,615,1080,47,0.939,60,0,46.575,0.207,-28.620,-18.200,-31.920,-0.278,0.008,0.979,0.164,-0.126,-0.076,0.002,0.002,1.267,1.188,3,2,0,0,7,255,1000,250,498,1000,-1.653,-13.452,5.441,-1.653,-13.452,5.441
150519.816,0.992,-0.007,-0.117,-0.044,1133,42,883,2621,785,603,635,1097,47,0.939,60,0,47.697,0.188,-28.880,-18.620,-33.080,-0.272,-0.033,0.989,-0.130,-0.136,0.060,0.004,0.002,1.267,1.188,3,2,0,0,7,255,1000,250,503,1000,-1.463,-13.365,5.268,-1.463,-13.365,5.268
150524.816,0.992,-0.006,-0.116,-0.043,943,40,893,2492,803,589,663,1079,47,0.939,60,0,46.056,0.271,-29.660,-20.880,-28.380,-0.253,-0.066,0.999,-0.130,-0.238,0.134,0.006,0.002,1.267,1.188,3,2,0,0,7,255,1000,250,508,1000,-1.272,-13.264,5.119,-1.272,-13.264,5.119
150529.815,0.992,-0.004,-0.115,-0.042,815,36,920,2358,827,582,669,1097,47,0.939,60,0,43.011,0.271,-28.560,-22.900,-22.580,-0.273,-0.023,1.010,-0.130,-0.238,0.184,0.006,0.002,1.267,1.188,3,2,0,0,7,255,1000,250,513,1000,-1.095,-13.153,5.000,-1.095,-13.153,5.000
150534.815,0.993,-0.003,-0.114,-0.041,655,39,933,2185,837,589,680,1101,47,0.939,60,0,45.095,0.161,-28.620,-24.920,-24.360,-0.292,0.033,1.007,-0.138,-0.082,0.344,0.006,0.002,1.267,1.188,3,2,0,0,7,255,1000,250,518,1000,-0.921,-13.033,4.873,-0.921,-13.033,4.873
150539.815,0.993,-0.002,-0.113,-0.040,527,30,952,2007,855,576,711,1121,47,0.939,60,0,45.649,0.628,-24.300,-26.800,-27.840,-0.307,0.048,1.007,-0.400,0.484,0.368,0.006,0.002,1.267,1.188,3,2,0,0,7,255,1000,250,523,1000,-0.765,-12.903,4.728,-0.765,-12.903,4.728
150544.816,0.993,-0.001,-0.111,-0.039,423,16,957,1770,891,564,719,1115,47,0.939,60,0,47.152,0.762,-23.080,-29.560,-28.580,-0.249,0.064,1.009,-0.400,0.648,0.368,0.006,0.002,1.267,1.188,3,2,0,0,7,255,1000,250,528,1000,-0.616,-12.757,4.579,-0.616,-12.757,4.579
150549.816,0.993,0.000,-0.110,-0.038,309,7,976,1539,927,553,755,1131,47,0.939,60,0,44.821,0.651,-19.220,-31.140,-25.880,-0.243,0.021,1.039,-0.058,0.648,0.400,0.004,0.004,1.267,1.188,3,2,0,0,7,255,1000,250,533,1000,-0.488,-12.602,4.445,-0.488,-12.602,4.445
150554.815,0.993,0.001,-0.108,-0.037,192,0,1005,1263,957,531,789,1135,47,0.939,60,0,43.851,0.485,-20.020,-33.940,-19.240,-0.243,0.000,1.044,0.058,0.482,0.560,0.006,0.004,1.267,1.188,3,2,0,0,7,255,1000,250,538,1000,-0.363,-12.433,4.345,-0.363,-12.433,4.345
150559.815,0.994,0.002,-0.107,-0.037,91,8,1016,1059,987,515,797,1145,47,0.939,60,0,43.253,0.304,-18.680,-35.660,-15.820,-0.268,-0.016,1.033,0.058,0.298,0.560,0.006,0.004,1.267,1.188,3,2,0,0,7,255,1000,250,543,1000,-0.247,-12.257,4.263,-0.247,-12.257,4.263
150564.816,0.994,0.003,-0.105,-0.036,29,0,1024,829,1013,499,813,1157,47,0.939,60,0,44.112,0.262,-15.740,-38.580,-14.480,-0.289,-0.040,1.062,-0.222,0.140,0.604,0.008,0.004,1.267,1.188,3,2,0,0,7,255,1000,250,548,1000,-0.147,-12.066,4.188,-0.147,-12.066,4.188
150569.817,0.994,0.003,-0.103,-0.036,0,1,1041,526,1047,469,851,1151,47,0.939,60,0,44.276,0.392,-6.840,-42.260,-11.300,-0.344,-0.068,1.124,-0.382,-0.090,0.870,0.010,0.002,1.267,1.188,3,2,0,0,7,255,1000,250,553,1000,-0.096,-11.856,4.129,-0.096,-11.856,4.129
150574.816,0.994,0.002,-0.101,-0.036,0,0,1070,360,1064,447,847,1145,47,0.939,60,0,53.940,0.895,14.520,-51.160,9.020,-0.440,-0.082,1.310,-0.806,-0.390,1.568,0.012,0.002,1.267,1.188,3,2,0,0,7,255,1000,250,558,1000,-0.175,-11.599,4.175,-0.175,-11.599,4.175
150579.816,0.994,0.002,-0.098,-0.037,0,0,1082,155,1101,433,875,1167,47,0.939,60,0,65.631,1.394,3.180,-59.580,27.340,-0.442,-0.032,1.409,-1.338,-0.390,3.544,0.016,0.004,1.267,1.188,3,2,0,0,7,255,1000,250,563,1000,-0.215,-11.300,4.313,-0.215,-11.300,4.313
150584.815,0.995,0.003,-0.096,-0.038,0,0,1093,59,1128,439,889,1179,47,0.939,60,0,73.439,1.521,-39.360,-60.860,11.840,-0.463,-0.158,1.214,-1.400,-0.594,3.544,0.018,0.006,1.267,1.188,3,2,0,0,7,255,1000,250,568,1000,-0.026,-10.995,4.372,-0.026,-10.995,4.372
150589.817,0.995,0.006,-0.093,-0.038,0,0,1112,45,1159,362,909,1178,47,0.939,60,0,82.233,2.317,-50.120,-64.840,-6.780,-0.448,-0.320,0.980,-1.884,-1.348,2.650,0.020,0.006,1.267,1.188,3,2,0,0,7,255,1000,250,573,1000,0.234,-10.669,4.338,0.234,-10.669,4.338
150594.815,0.995,0.007,-0.090,-0.038,0,0,1128,26,1183,313,925,1177,47,0.939,60,0,80.107,2.942,-35.220,-71.240,-10.080,-0.356,-0.261,0.906,-1.884,-2.260,0.364,0.022,0.008,1.267,1.188,3,2,0,0,7,255,1000,250,578,1000,0.422,-10.312,4.289,0.422,-10.312,4.289
150599.815,0.996,0.008,-0.086,-0.037,0,0,1133,19,1176,283,949,1174,47,0.939,60,0,79.720,2.697,-18.120,-77.040,-9.580,-0.326,-0.173,0.963,-1.472,-2.260,-0.038,0.024,0.010,1.267,1.188,3,2,0,0,7,255,1000,250,583,1000,0.524,-9.926,4.243,0.524,-9.926,4.243
150604.817,0.996,0.007,-0.083,-0.037,0,0,1152,27,1239,267,953,1184,47,0.939,60,0,81.761,1.823,8.720,-81.260,-2.380,-0.310,-0.053,1.035,-1.220,-1.354,-0.038,0.026,0.010,1.267,1.188,3,2,0,0,7,255,1000,250,588,1000,0.485,-9.518,4.234,0.485,-9.518,4.234
150609.816,0.996,0.006,-0.079,-0.037,0,0,1159,31,1271,232,996,1193,47,0.939,60,0,87.978,1.231,15.800,-86.500,2.860,-0.332,-0.004,1.095,-1.220,-0.166,0.608,0.028,0.012,1.267,1.188,3,2,0,0,7,255,1000,250,593,1000,0.406,-9.085,4.252,0.406,-9.085,4.252
150614.815,0.996,0.005,-0.075,-0.037,0,0,1167,29,1299,215,1003,1183,47,0.939,60,0,93.950,1.338,21.660,-91.320,4.260,-0.360,-0.022,1.144,-1.336,0.070,1.214,0.030,0.012,1.267,1.188,3,2,0,0,7,255,1000,250,598,1000,0.297,-8.628,4.276,0.297,-8.628,4.276
150619.815,0.997,0.004,-0.071,-0.037,0,0,1175,6,1323,181,1021,1197,47,0.939,60,0,97.371,1.478,18.000,-95.660,2.500,-0.345,-0.051,1.190,-1.476,0.070,1.712,0.032,0.016,1.267,1.188,3,2,0,0,7,255,1000,250,603,1000,0.208,-8.149,4.291,0.208,-8.149,4.291
150624.815,0.997,0.004,-0.067,-0.038,0,0,1195,0,1355,158,1048,1213,47,0.939,60,0,100.926,1.491,10.000,-100.420,1.340,-0.319,-0.089,1.176,-1.476,-0.214,1.942,0.036,0.022,1.267,1.188,3,2,0,0,7,255,1000,250,608,1000,0.160,-7.646,4.299,0.160,-7.646,4.299
150629.815,0.997,0.003,-0.062,-0.038,0,0,1195,0,1350,140,1085,1231,47,0.939,60,0,105.659,1.449,7.880,-105.240,5.120,-0.300,-0.101,1.137,-1.324,-0.588,1.942,0.038,0.028,1.267,1.188,3,2,0,0,7,255,1000,250,613,1000,0.121,-7.119,4.326,0.121,-7.119,4.326
150634.816,0.998,0.003,-0.057,-0.038,0,0,1189,0,1405,133,1083,1242,47,0.939,60,0,112.155,1.409,7.620,-111.280,11.720,-0.259,-0.038,1.121,-1.280,-0.588,1.526,0.042,0.036,1.267,1.188,3,2,0,0,7,255,1000,250,618,1000,0.078,-6.561,4.386,0.078,-6.561,4.386
150639.816,0.998,0.002,-0.052,-0.039,0,0,1201,0,1436,111,1114,1213,47,0.939,60,0,117.654,1.066,11.420,-115.500,19.280,-0.234,0.068,1.134,-1.062,-0.088,1.392,0.046,0.044,1.267,1.188,3,2,0,0,7,255,1000,250,623,1000,0.014,-5.983,4.483,0.014,-5.983,4.483
150644.815,0.998,0.001,-0.047,-0.040,0,0,1195,0,1465,88,1127,1198,47,0.939,60,0,125.893,1.421,17.080,-120.800,31.060,-0.242,0.162,1.184,-1.062,0.944,1.392,0.054,0.054,1.267,1.188,3,2,0,0,7,255,1000,250,628,1000,-0.084,-5.378,4.638,-0.084,-5.378,4.638
150649.815,0.998,0.000,-0.041,-0.042,0,0,1191,0,1483,85,1143,1193,47,0.939,60,0,134.148,2.200,17.220,-126.660,40.700,-0.257,0.249,1.261,-1.218,1.832,1.880,0.060,0.062,1.267,1.188,3,2,0,0,7,255,1000,250,633,1000,-0.185,-4.743,4.841,-0.185,-4.743,4.841
150654.815,0.998,-0.000,-0.036,-0.044,0,0,1195,0,1503,69,1171,1208,47,0.939,60,0,134.679,3.035,4.220,-129.220,37.720,-0.242,0.330,1.296,-1.508,2.634,2.632,0.070,0.072,1.267,1.188,3,2,0,0,7,255,1000,250,638,1000,-0.217,-4.096,5.027,-0.217,-4.096,5.027
150659.815,0.999,0.000,-0.030,-0.045,0,0,1193,0,1494,45,1203,1197,47,0.939,60,0,131.458,3.734,-16.000,-128.680,21.600,-0.210,0.430,1.286,-1.508,3.416,2.814,0.076,0.080,1.267,1.188,3,2,0,0,7,255,1000,250,643,1000,-0.141,-3.451,5.133,-0.141,-3.451,5.133
150664.817,0.999,0.001,-0.025,-0.045,0,0,1177,0,1531,31,1206,1187,47,0.939,60,0,130.258,4.654,-30.880,-126.120,10.360,-0.246,0.428,1.245,-1.552,4.388,2.814,0.084,0.088,1.267,1.188,3,2,0,0,7,255,1000,250,648,1000,0.014,-2.819,5.184,0.014,-2.819,5.184
150669.816,0.999,0.002,-0.019,-0.045,0,0,1171,0,1555,23,1222,1163,47,0.939,60,0,130.775,4.822,-22.760,-128.680,5.060,-0.361,0.365,1.231,-2.000,4.388,2.402,0.090,0.094,1.267,1.188,3,2,0,0,7,255,1000,250,653,1000,0.130,-2.175,5.210,0.130,-2.175,5.210
150674.815,0.999,0.002,-0.013,-0.045,0,0,1143,0,1564,19,1239,1141,47,0.939,60,0,138.824,4.889,3.360,-138.740,-3.480,-0.492,0.253,1.327,-3.216,3.682,2.402,0.094,0.098,1.267,1.188,3,2,0,0,7,255,1000,250,658,1000,0.117,-1.480,5.194,0.117,-1.480,5.194
150679.815,0.999,0.000,-0.006,-0.045,0,0,1130,0,1575,21,1251,1119,47,0.939,60,0,152.432,5.144,20.380,-150.220,-15.940,-0.624,0.044,1.544,-4.516,2.462,3.224,0.098,0.100,1.267,1.188,3,2,0,0,7,255,1000,250,663,1000,0.020,-0.728,5.115,0.020,-0.728,5.115
150684.815,0.999,-0.000,0.001,-0.043,0,0,1113,0,1589,11,1270,1062,47,0.939,60,0,168.178,5.773,14.100,-164.940,-29.660,-0.772,-0.160,1.815,-5.766,0.278,5.312,0.100,0.102,1.267,1.188,3,2,0,0,7,255,1000,250,668,1000,-0.047,0.097,4.966,-0.047,0.097,4.966
150689.815,0.999,0.000,0.009,-0.042,0,0,1097,0,1597,11,1293,964,47,0.939,60,0,188.123,7.495,-21.300,-183.480,-35.660,-0.819,-0.174,1.958,-7.258,-1.870,7.878,0.102,0.102,1.267,1.188,3,2,0,0,7,255,1000,250,673,1000,0.061,1.016,4.788,0.061,1.016,4.788
150694.816,0.999,0.002,0.018,-0.040,0,0,1039,0,1580,9,1311,939,47,0.939,60,0,214.366,8.237,-60.920,-202.580,-34.680,-0.830,-0.108,1.979,-8.022,-1.870,9.156,0.104,0.100,1.267,1.188,3,2,0,0,7,255,1000,250,678,1000,0.364,2.030,4.618,0.364,2.030,4.618
150699.816,0.999,0.006,0.028,-0.039,0,0,1007,0,1575,9,1301,903,47,0.939,60,0,239.315,8.637,-83.260,-222.600,-28.080,-0.802,0.071,1.916,-8.542,-1.280,9.156,0.104,0.098,1.267,1.188,3,2,0,0,7,255,1000,250,683,1000,0.778,3.146,4.489,0.778,3.146,4.489
150704.817,0.999,0.009,0.038,-0.038,0,0,925,0,1568,13,1302,841,47,0.939,60,0,253.166,8.774,-76.120,-240.620,-20.020,-0.823,0.124,1.920,-8.752,0.622,8.412,0.108,0.096,1.267,1.188,3,2,0,0,7,255,1000,250,688,1000,1.156,4.351,4.408,1.156,4.351,4.408
150709.815,0.998,0.012,0.050,-0.038,0,0,907,0,1543,12,1291,759,47,0.939,60,0,281.746,9.474,-83.000,-269.240,-1.340,-0.925,0.156,2.062,-9.394,1.230,8.412,0.114,0.098,1.267,1.188,3,2,0,0,7,255,1000,250,693,1000,1.577,5.698,4.434,1.577,5.698,4.434
150714.815,0.997,0.016,0.063,-0.038,0,0,829,0,1523,10,1299,775,47,0.939,60,0,314.773,11.093,-98.700,-298.600,13.360,-1.041,0.316,2.192,-10.978,1.592,9.266,0.126,0.106,1.267,1.188,3,2,0,0,7,255,1000,250,698,1000,2.086,7.188,4.549,2.086,7.188,4.549
150719.815,0.996,0.020,0.078,-0.039,0,0,768,0,1499,6,1245,723,47,0.939,60,0,346.396,13.289,-112.860,-326.560,24.720,-1.139,0.570,2.205,-12.894,3.218,9.466,0.144,0.120,1.267,1.188,3,2,0,0,7,255,1000,250,703,1000,2.680,8.815,4.742,2.680,8.815,4.742
150724.816,0.994,0.025,0.094,-0.040,0,0,757,0,1460,19,1231,645,47,0.939,60,0,382.687,15.717,-118.780,-363.600,11.660,-1.186,0.713,2.314,-14.624,5.760,9.818,0.160,0.136,1.267,1.188,3,2,0,0,7,255,1000,250,708,1000,3.304,10.629,4.897,3.304,10.629,4.897
150729.816,0.993,0.030,0.111,-0.040,0,0,711,0,1397,16,1188,587,47,0.939,60,0,414.132,17.140,-125.680,-394.600,0.780,-1.225,0.578,2.345,-16.010,6.120,9.480,0.182,0.158,1.267,1.188,3,2,0,0,7,255,1000,250,713,1000,3.962,12.599,5.028,3.962,12.599,5.028
150734.815,0.990,0.035,0.129,-0.040,0,0,661,0,1308,21,1128,553,47,0.939,60,0,441.316,18.179,-132.200,-420.920,10.440,-1.244,0.592,2.278,-17.032,6.356,9.480,0.204,0.182,1.267,1.188,3,2,0,0,7,255,1000,250,718,1000,4.677,14.694,5.245,4.677,14.694,5.245
150739.815,0.987,0.038,0.149,-0.041,0,0,598,0,1221,29,1055,467,47,0.939,60,0,458.738,18.878,-107.300,-445.940,8.040,-1.328,0.632,2.389,-17.776,6.356,8.082,0.232,0.212,1.267,1.188,3,2,0,0,7,255,1000,250,723,1000,5.283,16.912,5.487,5.283,16.912,5.487
150744.815,0.984,0.042,0.169,-0.040,0,0,489,0,1111,23,1015,411,47,0.939,60,0,483.459,20.767,-113.160,-469.800,-14.660,-1.316,0.645,2.522,-19.610,6.836,8.082,0.264,0.242,1.267,1.188,3,2,0,0,7,255,1000,250,728,1000,5.902,19.257,5.651,5.902,19.257,5.651
150749.815,0.980,0.046,0.190,-0.038,0,0,431,0,937,27,949,439,47,0.939,60,0,499.741,21.521,-117.060,-483.040,-52.060,-1.159,0.604,2.609,-20.296,7.156,8.452,0.298,0.278,1.267,1.188,3,2,0,0,7,255,1000,250,733,1000,6.492,21.687,5.653,6.492,21.687,5.653
150754.816,0.975,0.050,0.211,-0.036,0,0,429,0,840,21,821,435,47,0.939,60,0,501.966,21.521,-105.900,-488.120,-49.940,-1.062,0.053,2.657,-20.296,7.156,8.894,0.334,0.314,1.267,1.188,3,2,0,0,7,255,1000,250,738,1000,7.041,24.141,5.696,7.041,24.141,5.696
150759.816,0.970,0.054,0.233,-0.035,0,0,312,0,699,26,651,425,47,0.939,60,0,523.672,20.252,-130.800,-506.600,-21.920,-0.820,-0.665,2.452,-20.146,2.070,8.894,0.380,0.360,1.267,1.188,3,2,0,0,7,255,1000,250,743,1000,7.802,26.668,5.938,7.802,26.668,5.938
150764.817,0.964,0.059,0.255,-0.035,0,0,276,0,573,3,507,411,47,0.939,60,0,537.412,18.283,-136.960,-519.660,2.680,-0.658,-0.921,1.973,-17.668,-4.704,8.568,0.426,0.404,1.267,1.188,3,2,0,0,7,255,1000,250,748,1000,8.695,29.238,6.375,8.695,29.238,6.375
150769.815,0.958,0.063,0.277,-0.037,0,0,210,0,469,6,391,403,47,0.939,60,0,532.384,15.498,-99.000,-521.440,41.620,-0.554,-0.645,1.574,-14.700,-4.908,4.820,0.484,0.462,1.267,1.188,3,2,0,0,7,255,1000,250,753,1000,9.557,31.779,7.093,9.557,31.779,7.093
150774.815,0.951,0.063,0.299,-0.041,0,0,160,0,366,0,263,403,47,0.939,60,0,543.264,15.176,1.280,-538.160,74.280,-0.624,-0.414,1.721,-14.360,-4.908,1.062,0.546,0.522,1.267,1.188,3,2,0,0,7,255,1000,250,758,1000,10.091,34.367,8.077,10.091,34.367,8.077
150779.815,0.944,0.059,0.322,-0.048,0,0,69,0,285,0,263,371,47,0.939,60,0,582.437,14.619,104.800,-564.400,98.500,-0.941,-0.239,2.376,-14.360,-2.742,1.062,0.622,0.598,1.267,1.188,3,2,0,0,7,255,1000,250,763,1000,10.278,37.058,9.288,10.278,37.058,9.288
150784.816,0.935,0.055,0.346,-0.056,0,0,52,0,170,0,185,379,47,0.939,60,0,609.484,21.310,102.720,-588.700,119.800,-1.229,0.046,2.953,-21.272,-1.264,3.162,0.700,0.674,1.267,1.188,3,2,0,0,7,255,1000,250,768,1000,10.660,39.845,10.723,10.660,39.845,10.723
150789.817,0.926,0.056,0.369,-0.062,0,0,33,0,117,0,104,341,47,0.939,60,0,585.689,27.879,-2.560,-574.840,112.180,-1.321,0.571,3.025,-27.862,0.960,3.162,0.788,0.760,1.267,1.188,3,2,0,0,7,255,1000,250,773,1000,11.644,42.558,12.193,11.644,42.558,12.193
150794.815,0.916,0.060,0.391,-0.065,0,0,23,0,87,0,53,303,47,0.939,60,0,563.330,28.414,-117.120,-543.720,89.400,-1.465,0.781,2.462,-27.862,5.574,1.902,0.876,0.848,1.267,1.188,3,2,0,0,7,255,1000,250,778,1000,13.213,45.116,13.608,13.213,45.116,13.608
150799.815,0.906,0.066,0.412,-0.067,0,0,20,0,28,0,3,313,47,0.939,60,0,548.697,28.271,-145.320,-523.880,74.160,-1.567,0.678,1.870,-27.716,5.574,-4.734,0.956,0.928,1.267,1.188,3,2,0,0,7,255,1000,250,783,1000,14.989,47.567,15.053,14.989,47.567,15.053
150804.817,0.896,0.072,0.432,-0.071,0,0,17,0,6,0,0,302,47,0.939,60,0,547.153,24.726,-125.560,-518.200,122.800,-1.774,0.488,1.571,-24.132,5.388,-10.456,1.030,1.002,1.267,1.188,3,2,0,0,7,255,1000,250,788,1000,17.109,49.889,17.034,17.109,49.889,17.034
150809.816,0.886,0.082,0.451,-0.075,0,0,0,0,18,0,0,296,47,0.939,60,0,538.787,23.570,-209.660,-465.520,172.120,-1.603,1.306,1.488,-22.946,5.388,-14.636,1.090,1.062,1.267,1.188,3,2,0,0,7,255,1000,250,793,1000,20.074,51.821,19.501,20.074,51.821,19.501
150814.816,0.877,0.100,0.463,-0.074,0,0,2,0,84,0,0,281,47,0.911,60,0,553.884,24.096,-430.120,-311.180,157.960,-0.867,2.374,0.800,-21.568,10.744,-16.504,1.148,1.120,1.267,1.188,4,2,0,0,7,255,1000,250,798,1000,23.935,52.968,21.656,23.935,52.968,21.656
150819.816,0.873,0.123,0.469,-0.062,0,0,0,0,79,0,0,249,47,0.911,60,0,612.387,24.915,-605.780,-89.440,6.960,0.228,3.232,-0.530,-11.922,21.878,-18.058,1.200,1.172,1.267,1.188,4,2,0,0,7,255,1000,250,803,1000,27.266,53.357,22.030,27.266,53.357,22.030
150824.815,0.872,0.143,0.466,-0.044,0,0,0,0,81,0,0,259,47,0.911,60,0,601.810,22.679,-570.680,128.520,-141.360,0.123,1.209,-1.924,5.976,21.878,-19.540,1.256,1.228,1.267,1.188,4,2,0,0,7,255,1000,250,808,1000,28.882,53.124,20.484,28.882,53.124,20.484
150829.815,0.875,0.151,0.458,-0.033,0,0,0,0,0,0,0,261,47,0.911,60,0,375.412,15.816,-275.820,232.460,-104.020,-0.715,-0.672,-2.265,13.624,8.034,-22.296,1.316,1.288,1.267,1.188,4,2,0,0,7,255,1000,250,813,1000,28.928,52.359,18.805,28.928,52.359,18.805
150834.815,0.880,0.149,0.449,-0.034,0,0,0,0,0,0,0,249,47,0.911,60,0,246.086,18.490,87.280,229.420,17.520,-1.584,-1.824,-1.689,13.624,-12.500,-25.384,1.394,1.366,1.267,1.188,4,2,0,0,7,255,1000,250,818,1000,27.898,51.309,18.047,27.898,51.309,18.047
150839.815,0.886,0.140,0.440,-0.040,0,0,0,0,0,0,0,247,47,0.911,60,0,341.494,13.112,269.040,204.520,49.060,-1.957,-1.027,0.103,2.896,-12.788,-25.384,1.474,1.446,1.267,1.188,4,2,0,0,7,255,1000,250,823,1000,26.254,50.288,17.656,26.254,50.288,17.656
150844.816,0.891,0.131,0.432,-0.041,0,0,0,0,0,0,0,246,47,0.911,60,0,304.850,18.118,215.460,213.120,-33.020,-2.012,0.340,1.245,-12.834,-12.788,-21.244,1.564,1.536,1.267,1.188,4,2,0,0,7,255,1000,250,828,1000,24.462,49.397,16.717,24.462,49.397,16.717
150849.816,0.896,0.127,0.423,-0.037,0,0,0,0,0,0,0,217,47,0.911,60,0,275.030,20.452,56.580,250.420,-98.640,-1.595,1.214,1.458,-20.322,2.298,-18.556,1.646,1.618,1.267,1.188,4,2,0,0,7,255,1000,250,833,1000,23.086,48.451,15.263,23.086,48.451,15.263
150854.815,0.901,0.128,0.413,-0.031,0,0,0,0,0,0,0,217,47,0.911,60,0,296.254,23.067,-57.920,272.880,-99.740,-1.000,1.104,0.833,-20.322,10.914,-15.984,1.732,1.702,1.267,1.188,4,2,0,0,7,255,1000,250,838,1000,22.286,47.385,13.791,22.286,47.385,13.791
150859.815,0.906,0.131,0.402,-0.027,0,0,0,0,0,0,0,219,47,0.911,60,0,285.647,16.123,-72.080,274.820,-29.540,-0.657,0.795,0.051,-11.868,10.914,-15.984,1.810,1.780,1.267,1.188,4,2,0,0,7,255,1000,250,843,1000,21.954,46.169,12.836,21.954,46.169,12.836
150864.817,0.910,0.133,0.391,-0.027,0,0,0,0,0,0,0,217,47,0.911,60,0,271.327,8.115,-13.300,267.140,45.580,-0.713,0.499,-0.347,-4.098,7.004,-16.256,1.892,1.862,1.267,1.188,4,2,0,0,7,255,1000,250,848,1000,21.733,44.845,12.429,21.733,44.845,12.429
150869.815,0.915,0.132,0.380,-0.029,0,0,0,0,0,0,0,220,47,0.911,60,0,276.028,5.235,47.600,260.720,77.140,-0.972,0.373,-0.268,-4.098,3.258,-18.362,1.958,1.928,1.267,1.188,0,2,0,0,7,255,1000,250,853,1000,21.382,43.492,12.262,21.382,43.492,12.262
150874.816,0.920,0.131,0.369,-0.031,0,0,0,0,0,0,0,218,47,0.911,60,0,289.272,5.046,82.220,270.680,60.420,-1.130,0.388,-0.075,-4.558,2.164,-18.852,2.014,1.980,1.267,1.188,0,2,0,0,7,255,1000,250,858,1000,20.784,42.121,11.983,20.784,42.121,11.983
150879.816,0.925,0.128,0.357,-0.032,0,0,0,0,0,0,0,214,47,0.911,60,0,299.136,7.498,91.560,284.040,20.500,-1.090,0.323,0.111,-7.212,2.050,-18.852,2.048,2.012,1.267,1.188,0,2,0,0,7,255,1000,250,863,1000,19.978,40.755,11.451,19.978,40.755,11.451
150884.816,0.930,0.124,0.345,-0.032,0,0,0,0,0,0,0,219,47,0.911,60,0,316.943,8.536,100.460,300.580,-3.480,-0.929,0.247,0.252,-8.286,2.050,-16.932,2.070,2.036,1.267,1.188,0,2,0,0,7,255,1000,250,868,1000,19.043,39.346,10.774,19.043,39.346,10.774
150889.815,0.935,0.120,0.332,-0.032,0,0,0,0,0,0,0,209,47,0.911,60,0,335.106,8.635,110.960,316.200,-1.220,-0.824,0.224,0.418,-8.388,2.050,-14.488,2.090,2.054,1.267,1.188,0,2,0,0,7,255,1000,250,873,1000,18.085,37.850,10.123,18.085,37.850,10.123
150894.815,0.940,0.116,0.318,-0.032,0,0,0,0,0,0,0,205,47,0.911,60,0,351.045,8.919,117.680,330.560,10.680,-0.836,0.289,0.608,-8.642,2.204,-12.322,2.116,2.080,1.267,1.188,0,2,0,0,7,255,1000,250,878,1000,17.161,36.260,9.560,17.161,36.260,9.560
150899.815,0.946,0.112,0.304,-0.032,0,0,0,0,0,0,0,205,47,0.911,60,0,364.064,10.420,113.960,345.620,10.120,-0.887,0.432,0.796,-9.918,3.196,-10.836,2.140,2.104,1.267,1.188,0,2,0,0,7,255,1000,250,883,1000,16.275,34.591,9.010,16.275,34.591,9.010
150904.817,0.951,0.108,0.289,-0.032,0,0,0,0,0,0,0,203,47,0.911,60,0,373.284,12.407,98.380,360.040,-5.800,-0.887,0.501,0.913,-11.414,4.864,-9.652,2.162,2.124,1.267,1.188,0,2,0,0,7,255,1000,250,888,1000,15.439,32.868,8.384,15.439,32.868,8.384
150909.816,0.956,0.105,0.274,-0.030,0,0,0,0,0,0,0,215,47,0.911,60,0,382.334,12.609,83.180,372.420,-23.740,-0.823,0.412,0.938,-11.540,5.080,-8.478,2.176,2.138,1.267,1.188,0,2,0,0,7,255,1000,250,893,1000,14.653,31.102,7.680,14.653,31.102,7.680
150914.816,0.960,0.102,0.258,-0.028,0,0,0,0,0,0,0,206,47,0.911,60,0,390.463,12.609,78.980,381.020,-32.360,-0.728,0.273,0.940,-11.540,5.080,-7.332,2.186,2.146,1.267,1.188,0,2,0,0,7,255,1000,250,898,1000,13.896,29.297,6.955,13.896,29.297,6.955
150919.815,0.965,0.098,0.241,-0.026,0,0,0,0,0,0,0,206,47,0.911,60,0,397.187,11.314,81.240,387.380,-33.080,-0.645,0.216,0.986,-10.620,3.902,-6.158,2.196,2.158,1.267,1.188,0,2,0,0,7,255,1000,250,903,1000,13.162,27.454,6.257,13.162,27.454,6.257
150924.815,0.969,0.095,0.225,-0.023,0,0,0,0,0,0,0,213,47,0.911,60,0,402.712,10.693,79.520,393.420,-32.780,-0.581,0.277,1.063,-9.956,3.902,-4.894,2.210,2.170,1.267,1.188,0,2,0,0,7,255,1000,250,908,1000,12.470,25.573,5.591,12.470,25.573,5.591
150929.815,0.974,0.092,0.208,-0.021,0,0,0,0,0,0,0,207,47,0.911,60,0,407.593,10.478,70.620,399.880,-35.220,-0.517,0.351,1.099,-9.534,4.346,-3.708,2.222,2.182,1.267,1.188,0,2,0,0,7,255,1000,250,913,1000,11.848,23.657,4.939,11.848,23.657,4.939
150934.815,0.977,0.090,0.191,-0.018,0,0,0,0,0,0,0,205,47,0.911,60,0,411.314,10.209,62.740,404.780,-37.360,-0.452,0.339,1.055,-8.864,5.064,-2.928,2.234,2.194,1.267,1.188,0,2,0,0,7,255,1000,250,918,1000,11.291,21.712,4.300,11.291,21.712,4.300
150939.816,0.981,0.087,0.174,-0.016,0,0,0,0,0,0,0,203,47,0.911,60,0,412.934,9.325,64.320,406.360,-35.340,-0.396,0.278,0.990,-7.830,5.064,-2.724,2.244,2.202,1.267,1.188,0,2,0,0,7,255,1000,250,923,1000,10.760,19.753,3.699,10.760,19.753,3.699
150944.816,0.984,0.084,0.156,-0.013,0,0,0,0,0,0,0,202,47,0.911,60,0,412.384,8.114,73.000,404.780,-29.740,-0.328,0.208,0.950,-6.806,4.418,-2.720,2.254,2.212,1.267,1.188,0,2,0,0,7,255,1000,250,928,1000,10.223,17.791,3.156,10.223,17.791,3.156
150949.815,0.987,0.080,0.139,-0.011,0,0,0,0,0,0,0,209,47,0.911,60,0,410.075,6.852,83.320,400.800,-24.060,-0.228,0.110,0.901,-5.766,3.702,-2.500,2.264,2.222,1.267,1.188,0,2,0,0,7,255,1000,250,933,1000,9.669,15.839,2.671,9.669,15.839,2.671
150954.815,0.990,0.076,0.122,-0.010,0,0,0,0,0,0,0,203,47,0.911,60,0,405.519,5.176,93.500,394.280,-15.700,-0.145,0.049,0.840,-4.412,2.706,-2.422,2.282,2.238,1.267,1.188,0,2,0,0,7,255,1000,250,938,1000,9.099,13.908,2.258,9.099,13.908,2.258
150959.815,0.992,0.071,0.106,-0.009,0,0,0,0,0,0,0,203,47,0.911,60,0,402.214,3.910,116.020,385.060,-6.660,-0.113,0.079,0.833,-3.208,2.236,-2.340,2.300,2.258,1.267,1.188,0,2,0,0,7,255,1000,250,943,1000,8.447,12.012,1.923,8.447,12.012,1.923
150964.817,0.994,0.065,0.089,-0.009,0,0,0,0,0,0,0,197,47,0.911,60,0,402.178,3.454,151.120,372.660,5.860,-0.090,0.150,0.967,-2.632,2.236,-2.340,2.324,2.280,1.267,1.188,0,2,0,0,7,255,1000,250,948,1000,7.649,10.163,1.686,7.649,10.163,1.686
150969.816,0.996,0.058,0.074,-0.009,0,0,0,0,0,0,0,204,47,0.911,60,0,403.526,3.845,178.900,361.140,20.140,-0.077,0.237,1.129,-2.392,3.010,-1.004,2.350,2.306,1.267,1.188,0,2,0,0,7,255,1000,250,953,1000,6.737,8.361,1.558,6.737,8.361,1.558
150974.816,0.997,0.050,0.058,-0.011,0,0,0,0,0,0,0,199,47,0.911,60,0,397.975,4.585,191.780,346.720,37.280,-0.110,0.250,1.282,-2.392,3.912,0.592,2.378,2.334,1.267,1.188,0,2,0,0,7,255,1000,250,958,1000,5.781,6.618,1.555,5.781,6.618,1.555
150979.815,0.998,0.041,0.043,-0.013,0,0,0,0,0,0,0,204,47,0.911,60,0,401.934,4.582,193.600,348.620,50.340,-0.102,0.259,1.571,-2.228,4.004,2.146,2.408,2.362,1.267,1.188,0,2,0,0,7,255,1000,250,963,1000,4.825,4.861,1.644,4.825,4.861,1.644
150984.815,0.999,0.034,0.027,-0.015,0,0,0,0,0,0,0,209,47,0.911,60,0,403.650,4.671,189.020,351.680,59.380,-0.269,0.244,1.582,-2.406,4.004,5.090,2.440,2.396,1.267,1.188,0,2,0,0,7,255,1000,250,968,1000,3.895,3.086,1.807,3.895,3.086,1.807
150989.817,0.999,0.026,0.012,-0.017,0,0,0,0,0,0,0,211,47,0.911,60,0,402.700,5.010,187.320,350.460,65.240,-0.436,0.234,1.733,-3.384,3.694,5.246,2.476,2.430,1.267,1.188,0,2,0,0,7,255,1000,250,973,1000,2.969,1.318,2.028,2.969,1.318,2.028
150994.815,1.000,0.018,-0.004,-0.019,0,0,0,0,0,0,0,210,47,0.911,60,0,398.943,5.895,180.540,351.480,54.980,-0.572,0.297,1.871,-4.594,3.694,6.848,2.512,2.466,1.267,1.188,0,2,0,0,7,255,1000,250,978,1000,2.072,-0.448,2.225,2.072,-0.448,2.225
150999.816,1.000,0.011,-0.019,-0.020,0,0,0,0,0,0,0,205,47,0.911,60,0,390.675,6.282,166.080,352.700,25.440,-0.617,0.293,1.956,-5.256,3.440,8.370,2.550,2.504,1.267,1.188,0,2,0,0,7,255,1000,250,983,1000,1.242,-2.214,2.301,1.242,-2.214,2.301
151004.817,0.999,0.005,-0.035,-0.020,0,0,0,0,0,0,0,205,47,0.911,60,0,385.488,6.282,150.380,354.780,10.860,-0.522,0.235,1.991,-5.256,3.440,9.424,2.588,2.540,1.267,1.188,0,2,0,0,7,255,1000,250,988,1000,0.492,-3.988,2.328,0.492,-3.988,2.328
151009.816,0.999,-0.001,-0.050,-0.021,0,0,0,0,0,0,0,201,47,0.911,60,0,382.854,4.549,138.360,356.800,11.280,-0.478,0.108,1.938,-3.670,2.688,9.478,2.628,2.580,1.267,1.188,0,2,0,0,7,255,1000,250,993,1000,-0.201,-5.770,2.380,-0.201,-5.770,2.380
151014.815,0.998,-0.006,-0.066,-0.021,0,0,0,0,0,0,0,192,47,0.911,60,0,382.215,2.894,135.260,357.220,13.660,-0.498,0.065,1.873,-2.614,1.242,9.478,2.666,2.618,1.267,1.188,0,2,0,0,7,255,1000,250,998,1000,-0.884,-7.554,2.466,-0.884,-7.554,2.466
151019.815,0.996,-0.012,-0.082,-0.021,0,0,0,0,0,0,0,190,47,0.911,60,0,383.809,2.425,141.360,356.680,10.300,-0.489,0.110,1.786,-2.262,0.874,8.952,2.706,2.656,1.267,1.188,0,2,1,0,7,255,1000,250,3,1000,-1.601,-9.335,2.557,-1.601,-9.335,2.557
151024.815,0.995,-0.018,-0.097,-0.021,0,0,0,0,0,0,0,203,47,0.911,60,0,387.342,1.944,151.240,356.560,5.060,-0.506,0.161,1.848,-1.736,0.874,8.880,2.740,2.690,1.267,1.188,0,2,1,0,7,255,1000,250,8,1000,-2.370,-11.115,2.645,-2.370,-11.115,2.645
151029.816,0.993,-0.025,-0.113,-0.020,0,0,0,0,0,0,0,192,47,0.911,60,0,387.587,1.509,154.840,355.280,-4.960,-0.479,0.115,1.885,-1.230,0.874,8.880,2.774,2.724,1.267,1.188,0,2,1,0,7,255,1000,250,13,1000,-3.154,-12.890,2.707,-3.154,-12.890,2.707
151034.816,0.991,-0.031,-0.128,-0.019,0,0,0,0,0,0,0,189,47,0.911,60,0,385.974,0.530,156.300,352.700,-12.220,-0.420,0.047,1.903,-0.270,0.456,9.182,2.800,2.750,1.267,1.188,0,2,1,0,7,255,1000,250,18,1000,-3.944,-14.652,2.756,-3.944,-14.652,2.756
151039.816,0.989,-0.038,-0.143,-0.018,0,0,0,0,0,0,0,189,47,0.911,60,0,383.753,1.038,160.400,348.320,-14.540,-0.344,0.010,1.893,0.950,-0.418,9.182,2.826,2.774,1.267,1.188,0,2,1,0,7,255,1000,250,23,1000,-4.759,-16.393,2.818,-4.759,-16.393,2.818
151044.815,0.986,-0.045,-0.158,-0.017,0,0,0,0,0,0,0,192,47,0.911,60,0,383.601,2.435,170.720,343.240,-13.800,-0.256,-0.009,1.904,2.230,-0.978,8.804,2.848,2.796,1.267,1.188,0,2,1,0,7,255,1000,250,28,1000,-5.636,-18.107,2.908,-5.636,-18.107,2.908
151049.815,0.983,-0.052,-0.173,-0.016,0,0,0,0,0,0,0,215,47,0.911,60,0,384.998,3.911,185.360,337.260,-11.000,-0.160,-0.018,1.979,3.658,-1.384,8.740,2.870,2.816,1.267,1.188,0,2,1,0,7,255,1000,250,33,1000,-6.603,-19.789,3.040,-6.603,-19.789,3.040
151054.815,0.980,-0.060,-0.187,-0.015,0,0,0,0,0,0,0,237,47,0.911,60,0,386.507,5.628,200.320,330.500,-5.440,-0.049,-0.005,2.107,5.342,-1.770,8.740,2.888,2.834,1.267,1.188,0,2,1,0,7,255,1000,250,38,1000,-7.668,-21.431,3.230,-7.668,-21.431,3.230
151059.815,0.977,-0.069,-0.201,-0.014,0,0,0,0,0,0,0,214,47,0.911,60,0,387.616,7.607,212.640,324.080,-1.540,0.078,0.057,2.279,7.356,-1.938,9.330,2.906,2.852,1.267,1.188,0,2,1,0,7,255,1000,250,43,1000,-8.820,-23.035,3.473,-8.820,-23.035,3.473
151064.817,0.973,-0.078,-0.215,-0.013,0,0,0,0,0,0,0,214,47,0.911,60,0,388.746,9.926,220.820,319.940,0.600,0.179,0.098,2.456,9.714,-2.042,10.196,2.920,2.864,1.267,1.188,0,2,1,0,7,255,1000,250,48,1000,-10.038,-24.612,3.762,-10.038,-24.612,3.762
151069.816,0.969,-0.088,-0.229,-0.013,0,0,0,0,0,0,0,216,47,0.911,60,0,388.950,12.096,224.800,317.240,10.300,0.198,0.039,2.617,11.908,-2.124,11.072,2.936,2.880,1.267,1.188,0,2,1,0,7,255,1000,250,53,1000,-11.322,-26.160,4.143,-11.322,-26.160,4.143
151074.815,0.965,-0.097,-0.242,-0.013,0,0,0,0,0,0,0,200,47,0.911,60,0,387.581,13.769,226.740,313.640,20.920,0.202,-0.025,2.826,13.354,-3.354,11.894,2.952,2.896,1.267,1.188,0,2,1,0,7,255,1000,250,58,1000,-12.669,-27.670,4.623,-12.669,-27.670,4.623
151079.815,0.961,-0.106,-0.255,-0.013,0,0,0,0,0,0,0,192,47,0.911,60,0,373.225,15.673,211.060,307.000,22.400,0.152,0.021,2.950,14.926,-4.782,13.068,2.974,2.916,1.267,1.188,0,2,1,0,7,255,1000,250,63,1000,-13.972,-29.137,5.148,-13.972,-29.137,5.148
151084.815,0.957,-0.114,-0.267,-0.013,0,0,0,0,0,0,0,202,47,0.911,60,0,349.627,16.509,184.820,296.180,18.920,0.117,0.072,3.036,15.718,-5.050,13.930,2.994,2.936,1.267,1.188,0,2,1,0,7,255,1000,250,68,1000,-15.158,-30.546,5.682,-15.158,-30.546,5.682
151089.817,0.953,-0.121,-0.279,-0.012,0,0,0,0,0,0,0,203,47,0.911,60,0,330.677,17.248,166.920,285.320,-8.800,0.237,0.187,3.084,16.492,-5.050,13.948,3.020,2.962,1.267,1.188,0,2,1,0,7,255,1000,250,73,1000,-16.198,-31.931,6.083,-16.198,-31.931,6.083
151094.816,0.948,-0.126,-0.291,-0.010,0,0,0,0,0,0,0,189,47,0.911,60,0,308.512,18.970,139.640,273.360,-30.900,0.464,0.164,3.065,18.388,-4.662,13.948,3.046,2.986,1.267,1.188,0,2,1,0,7,255,1000,250,78,1000,-17.048,-33.284,6.371,-17.048,-33.284,6.371
151099.816,0.944,-0.130,-0.302,-0.008,0,0,0,0,0,0,0,189,47,0.911,60,0,288.103,21.158,117.560,257.920,-51.580,0.750,0.261,3.042,20.694,-4.406,12.014,3.066,3.006,1.267,1.188,0,2,1,0,7,255,1000,250,83,1000,-17.726,-34.591,6.538,-17.726,-34.591,6.538
151104.817,0.941,-0.132,-0.312,-0.006,0,0,1,0,0,0,0,197,47,0.911,60,0,262.316,23.696,81.540,240.580,-65.440,1.109,0.246,2.964,23.412,-3.656,9.956,3.084,3.022,1.267,1.188,0,2,1,0,7,255,1000,250,88,1000,-18.172,-35.835,6.610,-18.172,-35.835,6.610
151109.815,0.937,-0.134,-0.322,-0.003,0,0,0,0,0,0,0,198,47,0.911,60,0,244.929,26.470,54.560,225.460,-78.620,1.457,0.149,2.791,26.216,-3.656,6.724,3.100,3.038,1.267,1.188,0,2,1,0,7,255,1000,250,93,1000,-18.427,-37.027,6.586,-18.427,-37.027,6.586
151114.815,0.934,-0.134,-0.331,-0.001,0,0,0,0,0,0,0,189,47,0.911,60,0,224.026,28.394,25.520,210.060,-73.560,1.833,0.023,2.582,28.150,-3.712,2.586,3.116,3.052,1.267,1.188,0,2,1,0,7,255,1000,250,98,1000,-18.539,-38.139,6.565,-18.539,-38.139,6.565
151119.815,0.932,-0.133,-0.339,0.001,0,0,4,0,1,0,0,197,47,0.911,60,0,197.236,30.164,5.300,187.420,-61.220,2.105,-0.073,2.302,29.886,-4.088,-2.068,3.130,3.066,1.267,1.188,0,2,1,0,7,255,1000,250,103,1000,-18.569,-39.124,6.575,-18.569,-39.124,6.575
151124.816,0.929,-0.133,-0.346,0.002,0,0,0,0,0,0,0,203,47,0.911,60,0,172.882,30.540,9.880,166.060,-47.060,2.402,-0.186,2.083,30.264,-4.098,-6.508,3.140,3.076,1.267,1.188,0,2,1,0,7,255,1000,250,108,1000,-18.649,-39.986,6.629,-18.649,-39.986,6.629
151129.816,0.927,-0.133,-0.352,0.002,0,0,0,0,0,0,0,206,47,0.911,60,0,147.229,31.314,15.200,144.700,-22.520,2.690,-0.248,1.876,31.036,-4.162,-10.662,3.148,3.082,1.267,1.188,0,2,1,0,7,255,1000,250,113,1000,-18.828,-40.706,6.793,-18.828,-40.706,6.793
151134.815,0.925,-0.134,-0.356,0.002,0,0,0,0,0,0,0,202,47,0.911,60,0,118.247,32.070,29.780,114.420,-1.900,2.887,-0.363,1.676,31.772,-4.362,-14.508,3.152,3.086,1.267,1.188,0,2,1,0,7,255,1000,250,118,1000,-19.127,-41.249,7.027,-19.127,-41.249,7.027
151139.815,0.923,-0.136,-0.360,0.001,0,0,0,0,0,0,0,199,47,0.911,60,0,103.682,32.105,49.260,88.740,21.180,3.047,-0.516,1.564,31.780,-4.556,-17.778,3.154,3.088,1.267,1.188,0,2,1,0,7,255,1000,250,123,1000,-19.588,-41.632,7.356,-19.588,-41.632,7.356
151144.815,0.922,-0.140,-0.362,-0.000,0,0,0,0,0,0,0,207,47,0.911,60,0,112.290,32.247,71.040,67.620,54.680,3.125,-0.754,1.408,31.772,-5.514,-20.224,3.154,3.086,1.267,1.188,0,2,1,0,7,255,1000,250,128,1000,-20.272,-41.856,7.854,-20.272,-41.856,7.854
151149.815,0.920,-0.146,-0.363,-0.003,0,0,0,0,0,0,0,211,47,0.911,60,0,152.526,32.074,107.960,42.520,99.000,3.065,-1.015,1.323,31.260,-7.180,-22.622,3.150,3.082,1.267,1.188,0,2,1,0,7,255,1000,250,133,1000,-21.290,-41.878,8.576,-21.290,-41.878,8.576
151154.816,0.919,-0.154,-0.363,-0.006,0,0,0,0,0,0,0,205,47,0.911,60,0,214.168,31.390,154.720,17.740,147.020,2.835,-1.141,1.444,29.988,-9.278,-22.622,3.140,3.072,1.267,1.188,0,2,1,0,7,255,1000,250,138,1000,-22.699,-41.684,9.534,-22.699,-41.684,9.534
151159.816,0.918,-0.165,-0.362,-0.010,0,0,5,0,0,0,0,208,47,0.911,60,0,260.274,30.952,192.940,-1.840,174.680,2.463,-1.055,1.726,29.006,-10.802,-21.862,3.124,3.054,1.267,1.188,0,2,1,0,7,255,1000,250,143,1000,-24.366,-41.327,10.597,-24.366,-41.327,10.597
151164.817,0.916,-0.176,-0.359,-0.014,0,0,0,0,0,0,0,211,47,0.911,60,0,266.537,30.334,206.360,-26.740,166.560,2.084,-0.824,2.126,28.346,-10.802,-17.480,3.100,3.030,1.267,1.188,0,2,1,0,7,255,1000,250,148,1000,-26.002,-40.850,11.521,-26.002,-40.850,11.521
151169.815,0.916,-0.185,-0.356,-0.016,0,0,0,0,0,0,0,209,47,0.911,60,0,241.243,30.274,191.780,-51.100,137.140,1.812,-0.564,2.517,28.346,-10.632,-11.778,3.068,2.998,1.267,1.188,0,2,1,0,7,255,1000,250,153,1000,-27.383,-40.314,12.176,-27.383,-40.314,12.176
151174.815,0.915,-0.193,-0.353,-0.017,0,0,0,0,0,0,0,208,47,0.911,60,0,199.944,30.781,154.900,-73.200,103.080,1.631,-0.355,2.839,29.102,-10.028,-6.632,3.026,2.954,1.267,1.188,0,2,1,0,7,255,1000,250,158,1000,-28.392,-39.748,12.546,-28.392,-39.748,12.546
151179.815,0.916,-0.198,-0.349,-0.017,0,0,0,0,0,0,0,211,47,0.911,60,0,153.547,31.512,98.880,-92.240,72.740,1.516,-0.166,3.115,29.980,-9.706,-2.576,2.976,2.904,1.267,1.188,0,2,1,0,7,255,1000,250,163,1000,-28.964,-39.168,12.672,-28.964,-39.168,12.672
151184.816,0.917,-0.201,-0.343,-0.019,0,0,0,0,0,0,0,200,47,0.911,60,0,148.346,31.512,39.540,-121.420,75.500,0.818,-0.602,3.378,29.980,-9.706,0.814,2.914,2.840,1.267,1.188,0,2,1,0,7,255,1000,250,168,1000,-29.186,-38.454,12.716,-29.186,-38.454,12.716
151189.817,0.918,-0.225,-0.324,-0.028,0,0,0,0,0,0,0,199,47,0.911,60,0,729.721,28.373,416.500,-366.220,474.240,0.076,-0.018,0.640,26.796,-9.328,0.814,2.848,2.774,1.267,1.188,0,2,1,0,7,255,1000,250,173,1000,-32.101,-35.669,14.102,-32.101,-35.669,14.102
151194.815,0.921,-0.233,-0.308,-0.046,0,0,0,0,0,0,0,218,47,0.911,60,0,580.567,5.031,23.320,-276.320,510.060,-0.112,0.115,0.636,4.562,-2.120,-4.416,2.774,2.698,1.267,1.188,0,2,1,0,7,255,1000,250,178,1000,-33.174,-33.131,15.799,-33.174,-33.131,15.799
151199.815,0.930,-0.206,-0.297,-0.070,0,0,0,0,0,0,0,201,47,0.911,60,0,769.060,4.770,-655.360,-143.880,375.840,-0.986,2.341,3.013,4.562,-1.392,-4.416,2.698,2.622,1.267,1.188,0,2,1,0,7,255,1000,250,183,1000,-29.941,-31.535,17.247,-29.941,-31.535,17.247
