t_ms,L_q0,L_q1,L_q2,L_q3,L_heel1,L_mid1,L_fore1,L_heel2,L_fore3,L_mid2,L_fore4,L_fore2,L_cadence,L_speed,L_steps,L_zupt,L_gyroNorm,L_accH,L_gyro_x,L_gyro_y,L_gyro_z,L_acc_x,L_acc_y,L_acc_z,L_nav_ax,L_nav_ay,L_nav_az,L_stepVel,L_stepVelj,L_stepDispRaw,L_stepDispZUPT,L_gaitEvent,L_motorMode,L_motorActive,L_motorAlignment,L_motorRegionMask,L_motorAmplitude,L_motorIntervalMs,L_motorDurationMs,L_motorPhaseMs,L_motorCycleMs,L_roll,L_pitch,L_yaw,L_relativeRoll,L_relativePitch,L_relativeYaw
3195.795,0.164,-0.060,-0.200,-0.964,1288,0,62,2671,170,119,141,367,0,0.000,1,0,0.638,5.651,0.480,0.000,0.420,-0.271,-0.094,0.961,4.538,3.368,-1.764,0.000,0.000,0.000,0.000,0,0,0,0,7,255,0,250,0,0,-23.925,2.914,160.041,-23.925,2.914,160.041
3200.795,0.164,-0.058,-0.197,-0.965,1290,0,67,2669,173,122,141,367,0,0.000,1,0,0.764,5.584,0.540,0.000,0.540,-0.271,-0.092,0.960,4.480,3.334,-1.712,0.000,0.000,0.000,0.000,0,0,0,0,7,255,0,250,0,0,-23.491,2.675,160.114,-23.491,2.675,160.114
3205.796,0.164,-0.057,-0.195,-0.965,1292,0,68,2667,172,125,141,373,0,0.000,1,0,0.928,5.500,0.620,-0.120,0.680,-0.271,-0.091,0.961,4.418,3.276,-1.662,0.000,0.000,0.000,0.000,0,0,0,0,7,255,0,250,0,0,-23.348,2.595,160.141,-23.348,2.595,160.141
3210.795,0.164,-0.056,-0.194,-0.965,1291,0,63,2667,179,137,142,367,0,0.000,1,0,0.877,5.477,0.620,0.000,0.620,-0.271,-0.091,0.962,4.404,3.256,-1.634,0.000,0.000,0.000,0.000,0,0,0,0,7,255,0,250,0,0,-23.207,2.516,160.167,-23.207,2.516,160.167
3215.795,0.164,-0.053,-0.191,-0.966,1287,0,63,2668,177,139,143,373,0,0.000,1,0,0.732,5.457,0.480,-0.120,0.540,-0.271,-0.091,0.962,4.386,3.246,-1.610,0.000,0.000,0.000,0.000,0,0,0,0,7,255,0,250,0,0,-22.785,2.281,160.236,-22.785,2.281,160.236
3220.795,0.164,-0.052,-0.190,-0.967,1279,0,67,2668,175,144,141,371,0,0.000,1,0,0.824,5.396,0.540,-0.060,0.620,-0.270,-0.095,0.961,4.326,3.226,-1.572,0.000,0.000,0.000,0.000,0,0,0,0,7,255,0,250,0,0,-22.642,2.203,160.261,-22.642,2.203,160.261
3225.795,0.164,-0.051,-0.189,-0.967,1291,0,63,2663,183,141,141,373,0,0.000,1,0,0.924,5.370,0.540,-0.120,0.740,-0.270,-0.094,0.961,4.310,3.204,-1.568,0.000,0.000,0.000,0.000,0,0,0,0,7,255,0,250,0,0,-22.499,2.125,160.287,-22.499,2.125,160.287
3230.795,0.164,-0.050,-0.188,-0.967,1280,0,63,2675,175,140,144,375,0,0.000,1,0,1.187,5.348,0.740,-0.120,0.920,-0.271,-0.092,0.961,4.286,3.198,-1.556,0.000,0.000,0.000,0.000,0,0,0,0,7,255,0,250,0,0,-22.362,2.048,160.313,-22.362,2.048,160.313
3235.795,0.164,-0.050,-0.187,-0.967,1279,0,63,2664,180,139,140,375,0,0.000,1,0,1.093,5.323,0.540,-0.240,0.920,-0.274,-0.089,0.961,4.278,3.168,-1.532,0.000,0.000,0.000,0.000,0,0,0,0,7,255,0,250,0,0,-22.222,1.970,160.339,-22.222,1.970,160.339
3240.795,0.164,-0.049,-0.186,-0.968,1285,0,61,2667,181,141,141,375,0,0.000,1,0,0.887,5.291,0.300,-0.240,0.800,-0.274,-0.087,0.963,4.276,3.116,-1.506,0.000,0.000,0.000,0.000,0,0,0,0,7,255,0,250,0,0,-22.085,1.893,160.364,-22.085,1.893,160.364
3245.796,0.164,-0.046,-0.183,-0.968,1289,3,63,2667,182,143,141,375,0,0.000,1,0,0.724,5.257,0.060,-0.240,0.680,-0.273,-0.086,0.963,4.250,3.094,-1.466,0.000,0.000,0.000,0.000,0,0,0,0,7,255,0,250,0,0,-21.685,1.664,160.430,-21.685,1.664,160.430
3250.795,0.164,-0.043,-0.180,-0.969,1287,1,71,2665,175,139,140,377,0,0.000,1,0,0.588,5.179,-0.240,-0.240,0.480,-0.271,-0.086,0.965,4.188,3.046,-1.426,0.000,0.000,0.000,0.000,0,0,0,0,7,255,0,250,0,0,-21.293,1.438,160.489,-21.293,1.438,160.489
3255.795,0.164,-0.041,-0.177,-0.970,1287,0,62,2669,175,141,147,379,0,0.000,1,0,0.461,5.107,-0.180,-0.300,0.300,-0.271,-0.088,0.964,4.120,3.018,-1.366,0.000,0.000,0.000,0.000,0,0,0,0,7,255,0,250,0,0,-20.904,1.215,160.546,-20.904,1.215,160.546
3260.795,0.164,-0.038,-0.174,-0.970,1288,0,64,2671,178,135,141,379,0,0.000,1,0,0.393,5.053,-0.180,-0.180,0.300,-0.272,-0.090,0.964,4.072,2.992,-1.342,0.000,0.000,0.000,0.000,0,0,0,0,7,255,0,250,0,0,-20.519,0.993,160.601,-20.519,0.993,160.601
3265.795,0.164,-0.036,-0.171,-0.971,1288,0,63,2669,175,137,141,375,0,0.000,1,0,0.402,5.005,-0.120,-0.240,0.300,-0.272,-0.092,0.962,4.030,2.968,-1.310,0.000,0.000,0.000,0.000,0,0,0,0,7,255,0,250,0,0,-20.135,0.771,160.655,-20.135,0.771,160.655
3270.795,0.164,-0.033,-0.168,-0.971,1287,0,69,2664,175,145,145,379,0,0.000,1,0,0.339,4.954,0.000,-0.240,0.240,-0.273,-0.091,0.961,3.986,2.942,-1.298,0.000,0.000,0.000,0.000,0,0,0,0,7,255,0,250,0,0,-19.758,0.551,160.707,-19.758,0.551,160.707
3275.795,0.164,-0.031,-0.166,-0.972,1287,0,68,2668,179,139,143,377,0,0.000,1,0,0.268,4.882,0.120,-0.240,0.000,-0.272,-0.089,0.962,3.938,2.886,-1.260,0.000,0.000,0.000,0.000,0,0,0,0,7,255,0,250,0,0,-19.387,0.334,160.756,-19.387,0.334,160.756
3280.795,0.164,-0.029,-0.163,-0.972,1291,0,68,2667,175,140,144,379,0,0.000,1,0,0.323,4.801,0.120,-0.240,-0.180,-0.272,-0.088,0.962,3.870,2.842,-1.210,0.000,0.000,0.000,0.000,0,0,0,0,7,255,0,250,0,0,-19.023,0.120,160.804,-19.023,0.120,160.804
3285.795,0.164,-0.026,-0.160,-0.973,1280,0,67,2663,171,139,142,379,0,0.000,1,0,0.262,4.732,0.060,-0.180,-0.180,-0.270,-0.092,0.962,3.816,2.798,-1.170,0.000,0.000,0.000,0.000,0,0,0,0,7,255,0,250,0,0,-18.660,-0.091,160.850,-18.660,-0.091,160.850
3290.795,0.164,-0.024,-0.157,-0.974,1287,0,67,2669,179,138,146,379,0,0.000,1,0,0.190,4.680,0.000,-0.180,0.060,-0.269,-0.095,0.961,3.756,2.792,-1.154,0.000,0.000,0.000,0.000,0,0,0,0,7,255,0,250,0,0,-18.298,-0.301,160.894,-18.298,-0.301,160.894
3295.795,0.164,-0.021,-0.154,-0.974,1279,0,67,2667,176,142,143,377,0,0.000,1,0,0.345,4.634,0.060,-0.240,0.240,-0.269,-0.094,0.959,3.708,2.780,-1.138,0.000,0.000,0.000,0.000,0,0,0,0,7,255,0,250,0,0,-17.940,-0.510,160.936,-17.940,-0.510,160.936
3300.796,0.164,-0.019,-0.152,-0.974,1288,2,63,2664,181,141,142,379,0,0.000,1,0,0.281,4.560,0.180,-0.180,0.120,-0.269,-0.091,0.961,3.650,2.734,-1.122,0.000,0.000,0.000,0.000,0,0,0,0,7,255,0,250,0,0,-17.592,-0.715,160.977,-17.592,-0.715,160.977
3305.795,0.164,-0.017,-0.149,-0.975,1286,0,67,2669,179,141,147,378,0,0.000,1,0,0.312,4.479,0.180,-0.180,0.180,-0.268,-0.090,0.962,3.596,2.670,-1.060,0.000,0.000,0.000,0.000,0,0,0,0,7,255,0,250,0,0,-17.250,-0.916,161.016,-17.250,-0.916,161.016
3310.795,0.164,-0.015,-0.147,-0.975,1288,0,71,2667,182,141,143,379,0,0.000,1,0,0.487,4.412,0.060,-0.240,0.420,-0.268,-0.094,0.962,3.538,2.636,-1.016,0.000,0.000,0.000,0.000,0,0,0,0,7,255,0,250,0,0,-16.910,-1.115,161.053,-16.910,-1.115,161.053
3315.795,0.164,-0.012,-0.144,-0.976,1279,0,67,2665,175,137,145,376,0,0.000,1,0,0.516,4.380,-0.060,-0.180,0.480,-0.270,-0.093,0.962,3.498,2.636,-0.996,0.000,0.000,0.000,0.000,0,0,0,0,7,255,0,250,0,0,-16.577,-1.313,161.088,-16.577,-1.313,161.088
3320.795,0.164,-0.010,-0.142,-0.976,1280,0,61,2669,173,135,143,379,0,0.000,1,0,0.407,4.325,-0.060,-0.180,0.360,-0.271,-0.092,0.961,3.470,2.582,-0.968,0.000,0.000,0.000,0.000,0,0,0,0,7,255,0,250,0,0,-16.248,-1.511,161.123,-16.248,-1.511,161.123
3325.795,0.164,-0.008,-0.139,-0.977,1287,0,69,2664,179,125,145,377,0,0.000,1,0,0.247,4.261,0.120,-0.120,0.180,-0.271,-0.089,0.962,3.432,2.526,-0.944,0.000,0.000,0.000,0.000,0,0,0,0,7,255,0,250,0,0,-15.928,-1.706,161.156,-15.928,-1.706,161.156
3330.795,0.164,-0.006,-0.137,-0.977,1289,0,61,2669,180,123,145,381,0,0.000,1,0,0.180,4.182,0.060,-0.120,0.120,-0.270,-0.089,0.964,3.376,2.468,-0.900,0.000,0.000,0.000,0.000,0,0,0,0,7,255,0,250,0,0,-15.613,-1.896,161.187,-15.613,-1.896,161.187
3335.795,0.164,-0.004,-0.134,-0.977,1280,0,67,2676,179,115,141,380,0,0.000,1,0,0.355,4.119,-0.180,-0.060,0.300,-0.269,-0.090,0.963,3.314,2.446,-0.856,0.000,0.000,0.000,0.000,0,0,0,0,7,255,0,250,0,0,-15.302,-2.084,161.217,-15.302,-2.084,161.217
3340.796,0.164,-0.002,-0.132,-0.978,1285,2,69,2675,181,136,145,381,0,0.000,1,0,0.566,4.069,-0.420,-0.120,0.360,-0.271,-0.090,0.963,3.268,2.424,-0.838,0.000,0.000,0.000,0.000,0,0,0,0,7,255,0,250,0,0,-14.995,-2.271,161.246,-14.995,-2.271,161.246
3345.795,0.164,0.000,-0.130,-0.978,1289,2,71,2675,177,135,143,381,0,0.000,1,0,0.569,4.026,-0.480,-0.060,0.300,-0.271,-0.086,0.961,3.246,2.382,-0.816,0.000,0.000,0.000,0.000,0,0,0,0,7,255,0,250,0,0,-14.694,-2.458,161.274,-14.694,-2.458,161.274
3350.795,0.164,0.002,-0.127,-0.978,1291,1,67,2667,180,145,143,379,0,0.000,1,0,0.360,3.933,-0.360,0.000,0.000,-0.272,-0.089,0.963,3.186,2.306,-0.794,0.000,0.000,0.000,0.000,0,0,0,0,7,255,0,250,0,0,-14.398,-2.642,161.300,-14.398,-2.642,161.300
3355.795,0.164,0.004,-0.125,-0.978,1280,0,69,2669,175,137,148,382,0,0.000,1,0,0.384,3.908,-0.300,0.000,-0.240,-0.271,-0.090,0.963,3.158,2.302,-0.764,0.000,0.000,0.000,0.000,0,0,0,0,7,255,0,250,0,0,-14.104,-2.822,161.325,-14.104,-2.822,161.325
3360.795,0.164,0.006,-0.123,-0.979,1292,0,63,2677,181,141,147,381,0,0.000,1,0,0.457,3.854,-0.420,0.000,-0.180,-0.270,-0.092,0.962,3.104,2.284,-0.738,0.000,0.000,0.000,0.000,0,0,0,0,7,255,0,250,0,0,-13.812,-3.000,161.348,-13.812,-3.000,161.348
3365.796,0.164,0.008,-0.121,-0.979,1287,1,69,2674,174,140,145,379,0,0.000,1,0,0.540,3.814,-0.540,0.000,0.000,-0.272,-0.092,0.962,3.064,2.272,-0.732,0.000,0.000,0.000,0.000,0,0,0,0,7,255,0,250,0,0,-13.525,-3.178,161.371,-13.525,-3.178,161.371
3370.795,0.164,0.010,-0.118,-0.979,1287,1,69,2667,179,147,144,380,0,0.000,1,0,0.623,3.769,-0.620,-0.060,0.000,-0.272,-0.091,0.962,3.038,2.230,-0.706,0.000,0.000,0.000,0.000,0,0,0,0,7,255,0,250,0,0,-13.240,-3.353,161.393,-13.240,-3.353,161.393
3375.795,0.164,0.012,-0.116,-0.980,1289,0,64,2670,173,138,141,384,0,0.000,1,0,0.484,3.713,-0.420,0.000,-0.240,-0.273,-0.089,0.962,2.998,2.190,-0.688,0.000,0.000,0.000,0.000,0,0,0,0,7,255,0,250,0,0,-12.963,-3.528,161.414,-12.963,-3.528,161.414
3380.795,0.164,0.014,-0.114,-0.980,1289,1,67,2675,175,139,141,387,0,0.000,1,0,0.618,3.653,-0.300,0.000,-0.540,-0.271,-0.092,0.962,2.958,2.144,-0.662,0.000,0.000,0.000,0.000,0,0,0,0,7,255,0,250,0,0,-12.688,-3.698,161.433,-12.688,-3.698,161.433
3385.795,0.164,0.016,-0.112,-0.980,1293,0,68,2675,173,141,141,381,0,0.000,1,0,0.646,3.603,-0.180,0.000,-0.620,-0.269,-0.092,0.962,2.900,2.138,-0.646,0.000,0.000,0.000,0.000,0,0,0,0,7,255,0,250,0,0,-12.416,-3.866,161.449,-12.416,-3.866,161.449
3390.795,0.164,0.017,-0.110,-0.980,1295,0,71,2679,175,141,142,391,0,0.000,1,0,0.540,3.546,-0.240,0.060,-0.480,-0.269,-0.095,0.961,2.842,2.120,-0.628,0.000,0.000,0.000,0.000,0,0,0,0,7,255,0,250,0,0,-12.145,-4.031,161.466,-12.145,-4.031,161.466
3395.795,0.164,0.019,-0.108,-0.980,1291,0,69,2676,179,139,143,393,0,0.000,1,0,0.457,3.511,-0.180,0.000,-0.420,-0.269,-0.092,0.961,2.808,2.108,-0.626,0.000,0.000,0.000,0.000,0,0,0,0,7,255,0,250,0,0,-11.880,-4.195,161.482,-11.880,-4.195,161.482
3400.797,0.164,0.021,-0.106,-0.981,1299,2,71,2685,179,145,145,390,0,0.000,1,0,0.498,3.445,-0.060,0.120,-0.480,-0.269,-0.091,0.963,2.766,2.054,-0.598,0.000,0.000,0.000,0.000,0,0,0,0,7,255,0,250,0,0,-11.622,-4.356,161.498,-11.622,-4.356,161.498
3405.795,0.164,0.023,-0.104,-0.981,1293,0,73,2685,181,139,145,396,0,0.000,1,0,0.540,3.386,-0.060,0.240,-0.480,-0.268,-0.092,0.963,2.722,2.014,-0.562,0.000,0.000,0.000,0.000,0,0,0,0,7,255,0,250,0,0,-11.366,-4.513,161.512,-11.366,-4.513,161.512
3410.795,0.164,0.025,-0.102,-0.981,1297,0,69,2679,179,143,147,383,0,0.000,1,0,0.441,3.338,-0.180,0.180,-0.360,-0.269,-0.095,0.961,2.674,1.998,-0.550,0.000,0.000,0.000,0.000,0,0,0,0,7,255,0,250,0,0,-11.111,-4.671,161.526,-11.111,-4.671,161.526
3415.795,0.163,0.026,-0.100,-0.981,1299,1,72,2680,179,139,142,389,0,0.000,1,0,0.360,3.319,-0.120,0.240,-0.240,-0.270,-0.093,0.960,2.658,1.988,-0.548,0.000,0.000,0.000,0.000,0,0,0,0,7,255,0,250,0,0,-10.860,-4.828,161.539,-10.860,-4.828,161.539
3420.795,0.163,0.028,-0.098,-0.981,1301,0,67,2679,178,140,147,389,0,0.000,1,0,0.472,3.264,0.120,0.180,-0.420,-0.272,-0.089,0.958,2.624,1.942,-0.542,0.000,0.000,0.000,0.000,0,0,0,0,7,255,0,250,0,0,-10.615,-4.985,161.551,-10.615,-4.985,161.551
3425.795,0.164,0.029,-0.098,-0.981,1267,0,69,2685,176,139,148,399,0,0.000,1,0,2.803,3.220,1.700,-0.360,-2.200,-0.284,-0.081,0.950,2.624,1.866,-0.542,0.000,0.000,0.000,0.000,0,0,0,0,7,255,0,250,0,0,-10.543,-5.044,161.545,-10.543,-5.044,161.545
3430.795,0.164,0.029,-0.097,-0.981,1299,0,64,2677,183,139,142,383,0,0.000,1,0,3.777,3.194,2.440,0.360,-2.860,-0.263,-0.099,0.967,2.592,1.866,-0.542,0.000,0.000,0.000,0.000,0,0,0,0,7,255,0,250,0,0,-10.470,-5.095,161.534,-10.470,-5.095,161.534
3435.795,0.164,0.030,-0.096,-0.981,1299,1,73,2694,176,138,147,388,0,0.000,1,0,1.108,3.202,0.420,0.300,-0.980,-0.253,-0.104,0.979,2.512,1.986,-0.462,0.000,0.000,0.000,0.000,0,0,0,0,7,255,0,250,0,0,-10.387,-5.140,161.532,-10.387,-5.140,161.532
3440.796,0.164,0.030,-0.096,-0.981,1305,1,71,2679,172,133,147,391,0,0.000,1,0,2.041,3.168,-1.580,0.180,1.280,-0.263,-0.092,0.968,2.468,1.986,-0.430,0.000,0.000,0.000,0.000,0,0,0,0,7,255,0,250,0,0,-10.299,-5.188,161.542,-10.299,-5.188,161.542
3445.795,0.164,0.031,-0.095,-0.981,1299,0,71,2681,171,136,145,389,0,0.000,1,0,2.141,3.115,-1.580,0.360,1.400,-0.276,-0.081,0.956,2.468,1.900,-0.430,0.000,0.000,0.000,0.000,0,0,0,0,7,255,0,250,0,0,-10.214,-5.240,161.553,-10.214,-5.240,161.553
3450.795,0.163,0.032,-0.093,-0.982,1301,2,71,2685,175,125,149,391,0,0.000,1,0,0.441,3.075,-0.180,0.360,-0.180,-0.281,-0.086,0.953,2.546,1.724,-0.510,0.000,0.000,0.000,0.000,0,0,0,0,7,255,0,250,0,0,-9.983,-5.400,161.565,-9.983,-5.400,161.565
3455.795,0.163,0.033,-0.093,-0.982,1304,2,73,2691,179,128,144,382,0,0.000,1,0,1.621,3.075,0.680,0.180,-1.460,-0.273,-0.096,0.960,2.546,1.724,-0.510,0.000,0.000,0.000,0.000,0,0,0,0,7,255,0,250,0,0,-9.905,-5.453,161.561,-9.905,-5.453,161.561
3460.795,0.164,0.033,-0.092,-0.982,1301,1,73,2677,177,131,148,383,0,0.000,1,0,1.443,3.118,0.480,0.240,-1.340,-0.267,-0.095,0.967,2.516,1.842,-0.480,0.000,0.000,0.000,0.000,0,0,0,0,7,255,0,250,0,0,-9.825,-5.502,161.557,-9.825,-5.502,161.557
3465.795,0.163,0.035,-0.090,-0.982,1300,0,71,2680,174,131,144,391,0,0.000,1,0,0.526,3.054,-0.360,0.240,-0.300,-0.265,-0.089,0.968,2.436,1.842,-0.410,0.000,0.000,0.000,0.000,0,0,0,0,7,255,0,250,0,0,-9.600,-5.640,161.565,-9.600,-5.640,161.565
3470.795,0.163,0.036,-0.090,-0.982,1305,0,71,2683,183,124,146,389,0,0.000,1,0,1.017,2.991,-0.920,0.240,0.360,-0.269,-0.089,0.964,2.396,1.790,-0.410,0.000,0.000,0.000,0.000,0,0,0,0,7,255,0,250,0,0,-9.519,-5.688,161.568,-9.519,-5.688,161.568
3475.795,0.163,0.037,-0.088,-0.982,1307,0,71,2681,184,123,149,391,0,0.000,1,0,0.798,2.973,-0.740,0.240,0.180,-0.275,-0.093,0.958,2.396,1.760,-0.414,0.000,0.000,0.000,0.000,0,0,0,0,7,255,0,250,0,0,-9.287,-5.837,161.577,-9.287,-5.837,161.577
3480.795,0.163,0.039,-0.086,-0.982,1304,1,71,2686,179,119,141,389,0,0.000,1,0,0.597,2.971,-0.180,0.180,-0.540,-0.276,-0.095,0.957,2.408,1.740,-0.454,0.000,0.000,0.000,0.000,0,0,0,0,7,255,0,250,0,0,-9.060,-5.985,161.585,-9.060,-5.985,161.585
3485.795,0.163,0.039,-0.086,-0.982,1301,0,73,2681,182,119,148,390,0,0.000,1,0,0.998,2.964,0.180,0.060,-0.980,-0.272,-0.092,0.961,2.408,1.728,-0.454,0.000,0.000,0.000,0.000,0,0,0,0,7,255,0,250,0,0,-8.984,-6.034,161.582,-8.984,-6.034,161.582
3490.795,0.163,0.040,-0.085,-0.982,1299,0,73,2679,180,117,149,383,0,0.000,1,0,0.811,2.910,0.060,0.120,-0.800,-0.268,-0.090,0.964,2.354,1.710,-0.406,0.000,0.000,0.000,0.000,0,0,0,0,7,255,0,250,0,0,-8.910,-6.081,161.580,-8.910,-6.081,161.580
3495.795,0.163,0.041,-0.083,-0.982,1301,0,73,2681,181,119,143,391,0,0.000,1,0,0.345,2.850,-0.240,0.060,-0.240,-0.268,-0.093,0.964,2.288,1.700,-0.378,0.000,0.000,0.000,0.000,0,0,0,0,7,255,0,250,0,0,-8.694,-6.216,161.587,-8.694,-6.216,161.587
3500.796,0.163,0.043,-0.082,-0.982,1303,0,73,2684,176,117,145,383,0,0.000,1,0,0.569,2.830,-0.540,0.180,0.000,-0.271,-0.093,0.963,2.264,1.698,-0.366,0.000,0.000,0.000,0.000,0,0,0,0,7,255,0,250,0,0,-8.481,-6.351,161.592,-8.481,-6.351,161.592
3505.795,0.163,0.044,-0.080,-0.982,1301,2,72,2696,180,117,148,382,0,0.000,1,0,0.441,2.808,-0.420,0.120,-0.060,-0.272,-0.093,0.959,2.260,1.666,-0.366,0.000,0.000,0.000,0.000,0,0,0,0,7,255,0,250,0,0,-8.269,-6.488,161.598,-8.269,-6.488,161.598
3510.795,0.163,0.046,-0.078,-0.982,1303,1,69,2683,179,115,147,387,0,0.000,1,0,0.441,2.778,-0.060,0.120,-0.420,-0.272,-0.091,0.959,2.248,1.632,-0.370,0.000,0.000,0.000,0.000,0,0,0,0,7,255,0,250,0,0,-8.061,-6.623,161.603,-8.061,-6.623,161.603
3515.795,0.163,0.047,-0.077,-0.982,1303,0,73,2697,179,119,143,388,0,0.000,1,0,0.648,2.719,0.180,0.060,-0.620,-0.270,-0.092,0.962,2.204,1.592,-0.370,0.000,0.000,0.000,0.000,0,0,0,0,7,255,0,250,0,0,-7.857,-6.754,161.604,-7.857,-6.754,161.604
3520.795,0.163,0.048,-0.075,-0.983,1304,0,73,2693,179,117,147,384,0,0.000,1,0,0.424,2.674,0.000,0.060,-0.420,-0.269,-0.091,0.964,2.154,1.584,-0.332,0.000,0.000,0.000,0.000,0,0,0,0,7,255,0,250,0,0,-7.658,-6.880,161.608,-7.658,-6.880,161.608
3525.795,0.163,0.050,-0.074,-0.983,1308,2,73,2685,180,120,143,387,0,0.000,1,0,0.441,2.622,-0.360,0.180,-0.180,-0.269,-0.091,0.964,2.110,1.556,-0.308,0.000,0.000,0.000,0.000,0,0,0,0,7,255,0,250,0,0,-7.462,-7.005,161.611,-7.462,-7.005,161.611
3530.795,0.163,0.051,-0.072,-0.983,1303,2,71,2707,173,117,143,389,0,0.000,1,0,0.657,2.587,-0.620,0.120,-0.180,-0.270,-0.090,0.961,2.080,1.538,-0.308,0.000,0.000,0.000,0.000,0,0,0,0,7,255,0,250,0,0,-7.265,-7.131,161.614,-7.265,-7.131,161.614
3535.795,0.163,0.052,-0.071,-0.983,1307,2,71,2702,181,122,147,383,0,0.000,1,0,0.582,2.545,-0.420,0.180,-0.360,-0.270,-0.092,0.961,2.058,1.498,-0.302,0.000,0.000,0.000,0.000,0,0,0,0,7,255,0,250,0,0,-7.073,-7.254,161.616,-7.073,-7.254,161.616
3540.797,0.163,0.054,-0.069,-0.983,1307,0,75,2695,171,119,147,389,0,0.000,1,0,0.526,2.519,-0.120,0.180,-0.480,-0.270,-0.095,0.961,2.028,1.494,-0.302,0.000,0.000,0.000,0.000,0,0,0,0,7,255,0,250,0,0,-6.881,-7.376,161.618,-6.881,-7.376,161.618
3545.795,0.163,0.055,-0.068,-0.983,1303,0,75,2669,179,121,147,383,0,0.000,1,0,0.449,2.502,0.120,0.240,-0.360,-0.269,-0.097,0.962,2.008,1.492,-0.294,0.000,0.000,0.000,0.000,0,0,0,0,7,255,0,250,0,0,-6.690,-7.495,161.619,-6.690,-7.495,161.619
3550.795,0.163,0.056,-0.066,-0.983,1305,0,73,2695,182,121,151,381,0,0.000,1,0,0.199,2.479,0.060,0.180,-0.060,-0.271,-0.095,0.962,1.980,1.492,-0.284,0.000,0.000,0.000,0.000,0,0,0,0,7,255,0,250,0,0,-6.504,-7.614,161.621,-6.504,-7.614,161.621
3555.795,0.163,0.058,-0.065,-0.983,1303,0,71,2693,175,122,147,383,0,0.000,1,0,0.120,2.437,0.000,0.120,0.000,-0.273,-0.090,0.961,1.962,1.446,-0.270,0.000,0.000,0.000,0.000,0,0,0,0,7,255,0,250,0,0,-6.325,-7.733,161.622,-6.325,-7.733,161.622
3560.795,0.163,0.059,-0.064,-0.983,1305,0,75,2697,171,118,147,391,0,0.000,1,0,0.199,2.380,-0.060,0.060,-0.180,-0.273,-0.088,0.961,1.942,1.376,-0.256,0.000,0.000,0.000,0.000,0,0,0,0,7,255,0,250,0,0,-6.150,-7.851,161.623,-6.150,-7.851,161.623
3565.796,0.163,0.060,-0.062,-0.983,1307,1,69,2699,179,116,148,382,0,0.000,1,0,0.428,2.330,-0.060,0.060,-0.420,-0.272,-0.088,0.964,1.908,1.338,-0.246,0.000,0.000,0.000,0.000,0,0,0,0,7,255,0,250,0,0,-5.979,-7.965,161.623,-5.979,-7.965,161.623
3570.795,0.163,0.061,-0.061,-0.983,1302,0,73,2685,171,117,151,376,0,0.000,1,0,0.556,2.293,-0.060,0.120,-0.540,-0.269,-0.093,0.964,1.862,1.338,-0.218,0.000,0.000,0.000,0.000,0,0,0,0,7,255,0,250,0,0,-5.806,-8.075,161.622,-5.806,-8.075,161.622
3575.797,0.163,0.063,-0.060,-0.983,1300,0,75,2691,172,117,147,382,0,0.000,1,0,0.428,2.274,-0.060,0.060,-0.420,-0.268,-0.096,0.961,1.822,1.360,-0.218,0.000,0.000,0.000,0.000,0,0,0,0,7,255,0,250,0,0,-5.632,-8.184,161.622,-5.632,-8.184,161.622
3580.795,0.163,0.064,-0.058,-0.983,1305,0,74,2699,179,115,147,381,0,0.000,1,0,0.085,2.256,-0.060,0.060,0.000,-0.269,-0.096,0.960,1.800,1.360,-0.236,0.000,0.000,0.000,0.000,0,0,0,0,7,255,0,250,0,0,-5.459,-8.293,161.621,-5.459,-8.293,161.621
3585.795,0.162,0.065,-0.057,-0.983,1301,0,75,2699,179,119,144,383,0,0.000,1,0,0.255,2.229,0.180,0.000,0.180,-0.271,-0.093,0.959,1.784,1.336,-0.236,0.000,0.000,0.000,0.000,0,0,0,0,7,255,0,250,0,0,-5.292,-8.403,161.620,-5.292,-8.403,161.620
3590.795,0.162,0.066,-0.056,-0.983,1307,0,75,2695,173,119,148,389,0,0.000,1,0,0.306,2.184,0.300,0.060,0.000,-0.272,-0.091,0.961,1.770,1.280,-0.232,0.000,0.000,0.000,0.000,0,0,0,0,7,255,0,250,0,0,-5.130,-8.511,161.618,-5.130,-8.511,161.618
3595.795,0.162,0.067,-0.055,-0.983,1304,3,74,2683,175,117,149,384,0,0.000,1,0,0.355,2.144,0.180,0.060,-0.300,-0.270,-0.092,0.962,1.746,1.244,-0.202,0.000,0.000,0.000,0.000,0,0,0,0,7,255,0,250,0,0,-4.969,-8.616,161.617,-4.969,-8.616,161.617
3600.795,0.162,0.068,-0.053,-0.983,1301,0,72,2695,177,121,144,381,0,0.000,1,0,0.268,2.105,0.120,0.000,-0.240,-0.268,-0.093,0.961,1.700,1.242,-0.202,0.000,0.000,0.000,0.000,0,0,0,0,7,255,0,250,0,0,-4.809,-8.718,161.615,-4.809,-8.718,161.615
3605.796,0.162,0.069,-0.052,-0.983,1299,2,73,2687,172,117,145,383,0,0.000,1,0,0.120,2.074,0.000,0.000,0.120,-0.269,-0.094,0.961,1.662,1.240,-0.196,0.000,0.000,0.000,0.000,0,0,0,0,7,255,0,250,0,0,-4.651,-8.818,161.612,-4.651,-8.818,161.612
3610.795,0.162,0.070,-0.051,-0.983,1305,0,74,2696,178,115,149,389,0,0.000,1,0,0.420,2.050,0.000,0.000,0.420,-0.271,-0.093,0.961,1.644,1.224,-0.190,0.000,0.000,0.000,0.000,0,0,0,0,7,255,0,250,0,0,-4.496,-8.919,161.610,-4.496,-8.919,161.610
3615.795,0.162,0.072,-0.050,-0.983,1299,0,75,2699,173,115,149,383,0,0.000,1,0,0.420,2.027,0.000,0.000,0.420,-0.272,-0.090,0.961,1.636,1.196,-0.180,0.000,0.000,0.000,0.000,0,0,0,0,7,255,0,250,0,0,-4.347,-9.020,161.607,-4.347,-9.020,161.607
3620.795,0.162,0.073,-0.049,-0.983,1302,0,75,2699,179,110,151,383,0,0.000,1,0,0.147,1.979,-0.060,-0.060,0.120,-0.273,-0.088,0.962,1.618,1.140,-0.174,0.000,0.000,0.000,0.000,0,0,0,0,7,255,0,250,0,0,-4.201,-9.119,161.605,-4.201,-9.119,161.605
3625.795,0.162,0.074,-0.048,-0.983,1305,1,75,2705,176,110,149,390,0,0.000,1,0,0.345,1.941,-0.240,-0.060,-0.240,-0.271,-0.087,0.964,1.592,1.110,-0.152,0.000,0.000,0.000,0.000,0,0,0,0,7,255,0,250,0,0,-4.060,-9.215,161.602,-4.060,-9.215,161.602
3630.795,0.162,0.075,-0.047,-0.983,1303,0,75,2699,172,110,149,393,0,0.000,1,0,0.384,1.903,-0.300,0.000,-0.240,-0.269,-0.091,0.963,1.546,1.110,-0.138,0.000,0.000,0.000,0.000,0,0,0,0,7,255,0,250,0,0,-3.916,-9.308,161.599,-3.916,-9.308,161.599
3635.795,0.162,0.076,-0.045,-0.983,1303,0,77,2696,179,113,148,390,0,0.000,1,0,0.420,1.882,-0.420,0.000,0.000,-0.269,-0.094,0.962,1.518,1.112,-0.138,0.000,0.000,0.000,0.000,0,0,0,0,7,255,0,250,0,0,-3.772,-9.401,161.595,-3.772,-9.401,161.595
3640.795,0.162,0.077,-0.044,-0.983,1305,1,75,2701,180,111,148,392,0,0.000,1,0,0.329,1.872,-0.300,-0.060,0.120,-0.271,-0.094,0.960,1.506,1.112,-0.150,0.000,0.000,0.000,0.000,0,0,0,0,7,255,0,250,0,0,-3.629,-9.494,161.592,-3.629,-9.494,161.592
3645.796,0.162,0.078,-0.043,-0.983,1303,0,75,2685,179,115,148,393,0,0.000,1,0,0.247,1.865,-0.180,-0.120,0.120,-0.273,-0.093,0.960,1.506,1.100,-0.150,0.000,0.000,0.000,0.000,0,0,0,0,7,255,0,250,0,0,-3.489,-9.588,161.588,-3.489,-9.588,161.588
3650.795,0.162,0.079,-0.042,-0.983,1301,0,73,2686,173,111,147,392,0,0.000,1,0,0.120,1.838,0.000,-0.120,0.000,-0.273,-0.090,0.962,1.496,1.068,-0.146,0.000,0.000,0.000,0.000,0,0,0,0,7,255,0,250,0,0,-3.355,-9.679,161.584,-3.355,-9.679,161.584
3655.795,0.162,0.080,-0.041,-0.983,1303,3,73,2701,171,112,145,384,0,0.000,1,0,0.275,1.784,0.060,-0.120,-0.240,-0.272,-0.090,0.962,1.462,1.022,-0.124,0.000,0.000,0.000,0.000,0,0,0,0,7,255,0,250,0,0,-3.223,-9.769,161.580,-3.223,-9.769,161.580
3660.795,0.162,0.080,-0.040,-0.983,1305,1,73,2695,171,109,147,388,0,0.000,1,0,0.453,1.754,-0.300,-0.240,-0.240,-0.271,-0.091,0.961,1.436,1.008,-0.124,0.000,0.000,0.000,0.000,0,0,0,0,7,255,0,250,0,0,-3.091,-9.856,161.576,-3.091,-9.856,161.576
3665.795,0.162,0.081,-0.040,-0.983,1305,0,75,2695,172,111,147,384,0,0.000,1,0,0.825,1.735,-0.740,-0.360,0.060,-0.272,-0.092,0.958,1.414,1.006,-0.124,0.000,0.000,0.000,0.000,0,0,0,0,7,255,0,250,0,0,-3.041,-9.887,161.575,-3.041,-9.887,161.575
3670.795,0.162,0.081,-0.040,-0.983,1305,0,75,2687,175,113,149,389,0,0.000,1,0,1.119,1.733,-0.920,-0.480,0.420,-0.274,-0.092,0.959,1.414,1.002,-0.134,0.000,0.000,0.000,0.000,0,0,0,0,7,255,0,250,0,0,-2.991,-9.918,161.573,-2.991,-9.918,161.573
3675.795,0.162,0.081,-0.039,-0.983,1301,0,73,2685,171,109,148,387,0,0.000,1,0,1.184,1.738,-0.980,-0.620,-0.240,-0.276,-0.094,0.957,1.426,0.994,-0.148,0.000,0.000,0.000,0.000,0,0,0,0,7,255,0,250,0,0,-2.940,-9.947,161.571,-2.940,-9.947,161.571
3680.795,0.162,0.082,-0.039,-0.983,1309,0,83,2693,177,112,149,390,0,0.000,1,0,2.765,1.752,0.420,-1.700,-2.140,-0.283,-0.088,0.938,1.446,0.990,-0.152,0.000,0.000,0.000,0.000,0,0,0,0,7,255,0,250,0,0,-2.896,-9.972,161.559,-2.896,-9.972,161.559
3685.795,0.162,0.082,-0.038,-0.983,1304,1,87,2687,179,109,148,389,0,0.000,1,0,4.338,1.796,1.900,-0.680,-3.840,-0.277,-0.109,0.951,1.496,0.994,-0.214,0.000,0.000,0.000,0.000,0,0,0,0,7,255,0,250,0,0,-2.852,-10.001,161.537,-2.852,-10.001,161.537
3690.795,0.162,0.082,-0.038,-0.983,1305,0,81,2677,176,109,143,383,0,0.000,1,0,2.538,1.869,0.980,-1.960,-1.280,-0.248,-0.122,0.969,1.496,1.120,-0.214,0.000,0.000,0.000,0.000,0,0,0,0,7,255,0,250,0,0,-2.803,-10.014,161.528,-2.803,-10.014,161.528
3695.795,0.162,0.082,-0.038,-0.983,1304,2,87,2679,177,109,147,384,0,0.000,1,0,2.850,1.707,-1.220,-1.340,2.200,-0.260,-0.102,0.966,1.288,1.120,-0.092,0.000,0.000,0.000,0.000,0,0,0,0,7,255,0,250,0,0,-2.752,-10.032,161.537,-2.752,-10.032,161.537
3700.795,0.162,0.083,-0.037,-0.983,1299,0,82,2670,173,105,147,393,0,0.000,1,0,4.967,1.696,-2.320,-1.900,3.960,-0.271,-0.097,0.962,1.288,1.104,-0.092,0.000,0.000,0.000,0.000,0,0,0,0,7,255,0,250,0,0,-2.699,-10.051,161.555,-2.699,-10.051,161.555
3705.796,0.161,0.083,-0.037,-0.983,1299,0,82,2663,173,106,152,390,0,0.000,1,0,4.656,1.707,-2.260,-1.900,3.600,-0.282,-0.103,0.950,1.372,1.016,-0.108,0.000,0.000,0.000,0.000,0,0,0,0,7,255,0,250,0,0,-2.644,-10.074,161.571,-2.644,-10.074,161.571
3710.795,0.161,0.083,-0.036,-0.983,1293,0,78,2650,175,105,154,391,0,0.000,1,0,3.952,1.815,-0.480,-2.620,2.920,-0.282,-0.112,0.944,1.504,1.016,-0.208,0.000,0.000,0.000,0.000,0,0,0,0,7,255,0,250,0,0,-2.597,-10.093,161.583,-2.597,-10.093,161.583
3715.795,0.161,0.083,-0.036,-0.983,1273,0,81,2640,175,95,151,395,0,0.000,1,0,4.176,1.853,0.620,-2.920,2.920,-0.274,-0.108,0.953,1.504,1.082,-0.208,0.000,0.000,0.000,0.000,0,0,0,0,7,255,0,250,0,0,-2.555,-10.108,161.595,-2.555,-10.108,161.595
3720.795,0.161,0.084,-0.036,-0.983,1247,0,83,2621,171,100,151,384,0,0.000,1,0,5.107,1.793,0.540,-3.180,3.960,-0.272,-0.094,0.965,1.430,1.082,-0.194,0.000,0.000,0.000,0.000,0,0,0,0,7,255,0,250,0,0,-2.515,-10.119,161.613,-2.515,-10.119,161.613
3725.795,0.161,0.084,-0.035,-0.983,1240,0,79,2627,175,107,152,395,0,0.000,1,0,5.350,1.652,0.120,-3.660,3.900,-0.275,-0.078,0.969,1.346,0.958,-0.066,0.000,0.000,0.000,0.000,0,0,0,0,7,255,0,250,0,0,-2.482,-10.129,161.630,-2.482,-10.129,161.630
3730.795,0.161,0.084,-0.035,-0.983,1229,0,77,2586,171,107,149,393,0,0.000,1,0,5.031,1.590,-1.220,-3.360,3.540,-0.272,-0.087,0.966,1.318,0.890,-0.052,0.000,0.000,0.000,0.000,0,0,0,0,7,255,0,250,0,0,-2.438,-10.140,161.646,-2.438,-10.140,161.646
3735.795,0.161,0.084,-0.035,-0.983,1213,0,82,2554,179,104,151,393,0,0.000,1,0,5.419,1.590,-1.460,-3.720,3.660,-0.271,-0.098,0.959,1.318,0.890,-0.052,0.000,0.000,0.000,0.000,0,0,0,0,7,255,0,250,0,0,-2.389,-10.149,161.662,-2.389,-10.149,161.662
3740.795,0.160,0.084,-0.034,-0.983,1198,0,81,2525,175,107,147,396,0,0.000,1,0,6.278,1.644,-1.340,-4.080,4.580,-0.264,-0.105,0.957,1.318,0.982,-0.130,0.000,0.000,0.000,0.000,0,0,0,0,7,255,0,250,0,0,-2.340,-10.155,161.682,-2.340,-10.155,161.682
3745.796,0.160,0.084,-0.034,-0.983,1188,0,82,2507,172,109,139,395,0,0.000,1,0,6.059,1.670,-0.240,-3.960,4.580,-0.273,-0.103,0.953,1.340,0.996,-0.162,0.000,0.000,0.000,0.000,0,0,0,0,7,255,0,250,0,0,-2.299,-10.164,161.703,-2.299,-10.164,161.703
3750.795,0.160,0.084,-0.033,-0.983,1175,0,83,2475,174,106,147,394,0,0.000,1,0,6.440,1.681,0.740,-4.340,4.700,-0.267,-0.105,0.960,1.318,1.044,-0.162,0.000,0.000,0.000,0.000,0,0,0,0,7,255,0,250,0,0,-2.261,-10.169,161.724,-2.261,-10.169,161.724
3755.795,0.160,0.084,-0.033,-0.983,1149,0,83,2454,175,119,143,393,0,0.000,1,0,6.228,1.681,0.480,-3.840,4.880,-0.261,-0.104,0.967,1.318,1.044,-0.120,0.000,0.000,0.000,0.000,0,0,0,0,7,255,0,250,0,0,-2.221,-10.173,161.746,-2.221,-10.173,161.746
3760.795,0.159,0.085,-0.033,-0.983,1125,1,81,2426,179,116,149,395,0,0.000,1,0,7.600,1.624,-0.800,-4.020,6.400,-0.254,-0.102,0.971,1.242,1.046,-0.064,0.000,0.000,0.000,0.000,0,0,0,0,7,255,0,250,0,0,-2.179,-10.175,161.776,-2.179,-10.175,161.776
3765.796,0.159,0.085,-0.032,-0.983,1112,0,76,2419,174,111,141,403,0,0.000,1,0,8.388,1.599,-0.740,-4.340,7.140,-0.266,-0.072,0.947,1.210,1.046,-0.064,0.000,0.000,0.000,0.000,0,0,0,0,7,255,0,250,0,0,-2.148,-10.179,161.810,-2.148,-10.179,161.810
3770.795,0.159,0.085,-0.032,-0.983,1093,0,77,2403,180,116,139,407,0,0.000,1,0,7.647,1.403,0.420,-3.840,6.600,-0.271,-0.070,0.959,1.210,0.710,-0.112,0.000,0.000,0.000,0.000,0,0,0,0,7,255,0,250,0,0,-2.119,-10.187,161.841,-2.119,-10.187,161.841
3775.795,0.159,0.085,-0.032,-0.983,1083,0,81,2367,181,122,141,408,0,0.000,1,0,6.143,1.418,1.640,-3.960,4.400,-0.272,-0.078,0.969,1.228,0.710,-0.112,0.000,0.000,0.000,0.000,0,0,0,0,7,255,0,250,0,0,-2.096,-10.194,161.861,-2.096,-10.194,161.861
3780.795,0.158,0.085,-0.032,-0.983,1063,0,79,2345,179,121,142,407,0,0.000,1,0,4.519,1.443,0.360,-3.360,3.000,-0.259,-0.108,0.977,1.228,0.758,-0.018,0.000,0.000,0.000,0.000,0,0,0,0,7,255,0,250,0,0,-2.055,-10.200,161.873,-2.055,-10.200,161.873
3785.795,0.158,0.085,-0.031,-0.983,1047,0,71,2335,181,121,133,413,0,0.000,1,0,5.721,1.619,-1.960,-3.000,4.460,-0.244,-0.125,0.967,1.206,1.080,-0.018,0.000,0.000,0.000,0.000,0,0,0,0,7,255,0,250,0,0,-1.999,-10.204,161.893,-1.999,-10.204,161.893
3790.795,0.158,0.085,-0.031,-0.983,1036,0,75,2320,183,125,125,419,0,0.000,1,0,8.578,1.680,-3.180,-3.000,7.380,-0.242,-0.124,0.956,1.132,1.242,-0.096,0.000,0.000,0.000,0.000,0,0,0,0,7,255,0,250,0,0,-1.940,-10.208,161.928,-1.940,-10.208,161.928
3795.795,0.157,0.085,-0.030,-0.983,1017,0,72,2311,183,125,121,424,0,0.000,1,0,10.663,1.680,-1.900,-3.360,9.940,-0.253,-0.104,0.943,1.132,1.242,-0.204,0.000,0.000,0.000,0.000,0,0,0,0,7,255,0,250,0,0,-1.897,-10.214,161.975,-1.897,-10.214,161.975
3800.796,0.157,0.085,-0.030,-0.983,1004,0,70,2281,173,109,123,430,0,0.000,1,0,10.140,1.559,0.740,-3.240,9.580,-0.269,-0.092,0.945,1.184,1.014,-0.250,0.000,0.000,0.000,0.000,0,0,0,0,7,255,0,250,0,0,-1.871,-10.224,162.022,-1.871,-10.224,162.022
3805.795,0.157,0.086,-0.030,-0.983,991,0,71,2271,178,125,119,437,0,0.000,1,0,9.320,1.584,2.620,-3.180,8.360,-0.273,-0.100,0.965,1.284,0.928,-0.250,0.000,0.000,0.000,0.000,0,0,0,0,7,255,0,250,0,0,-1.850,-10.235,162.062,-1.850,-10.235,162.062
3810.795,0.156,0.086,-0.030,-0.984,983,2,72,2237,179,126,118,438,0,0.000,1,0,8.324,1.584,1.220,-3.120,7.620,-0.269,-0.104,0.973,1.284,0.928,-0.054,0.000,0.000,0.000,0.000,0,0,0,0,7,255,0,250,0,0,-1.822,-10.244,162.098,-1.822,-10.244,162.098
3815.795,0.156,0.086,-0.029,-0.984,968,0,64,2221,181,121,121,440,0,0.000,1,0,8.266,1.602,-0.180,-3.000,7.700,-0.260,-0.102,0.970,1.266,0.982,-0.030,0.000,0.000,0.000,0.000,0,0,0,0,7,255,0,250,0,0,-1.788,-10.251,162.135,-1.788,-10.251,162.135
3820.795,0.156,0.086,-0.029,-0.984,952,0,70,2189,176,103,123,454,0,0.000,1,0,9.715,1.538,-0.920,-2.920,9.220,-0.258,-0.096,0.968,1.184,0.982,-0.030,0.000,0.000,0.000,0.000,0,0,0,0,7,255,0,250,0,0,-1.752,-10.259,162.179,-1.752,-10.259,162.179
3825.795,0.155,0.086,-0.029,-0.984,947,0,69,2157,178,100,121,440,0,0.000,1,0,10.525,1.490,-0.420,-3.000,10.080,-0.266,-0.079,0.962,1.166,0.928,-0.046,0.000,0.000,0.000,0.000,0,0,0,0,7,255,0,250,0,0,-1.725,-10.269,162.228,-1.725,-10.269,162.228
3830.795,0.155,0.086,-0.028,-0.984,917,0,69,2127,173,111,123,455,0,0.000,1,0,9.372,1.380,0.120,-2.680,8.980,-0.274,-0.074,0.966,1.166,0.738,-0.046,0.000,0.000,0.000,0.000,0,0,0,0,7,255,0,250,0,0,-1.701,-10.283,162.272,-1.701,-10.283,162.272
3835.795,0.154,0.086,-0.028,-0.984,931,0,69,2121,176,103,121,458,0,0.000,1,0,7.563,1.399,0.860,-2.680,7.020,-0.273,-0.077,0.967,1.216,0.692,-0.028,0.000,0.000,0.000,0.000,0,0,0,0,7,255,0,250,0,0,-1.678,-10.296,162.306,-1.678,-10.296,162.306
3840.796,0.154,0.087,-0.028,-0.984,917,0,67,2100,171,103,116,458,0,0.000,1,0,6.336,1.399,-0.240,-2.080,5.980,-0.260,-0.085,0.982,1.216,0.692,-0.024,0.000,0.000,0.000,0.000,0,0,0,0,7,255,0,250,0,0,-1.649,-10.307,162.334,-1.649,-10.307,162.334
3845.795,0.154,0.087,-0.028,-0.984,915,2,63,2101,169,101,117,461,0,0.000,1,0,6.299,1.325,-0.740,-2.020,5.920,-0.254,-0.078,0.965,1.090,0.754,-0.024,0.000,0.000,0.000,0.000,0,0,0,0,7,255,0,250,0,0,-1.617,-10.319,162.362,-1.617,-10.319,162.362
3850.795,0.154,0.087,-0.027,-0.984,911,0,69,2063,175,103,117,463,0,0.000,1,0,6.067,1.324,0.000,-1.780,5.800,-0.260,-0.077,0.964,1.088,0.754,-0.072,0.000,0.000,0.000,0.000,0,0,0,0,7,255,0,250,0,0,-1.588,-10.334,162.390,-1.588,-10.334,162.390
3855.795,0.153,0.087,-0.027,-0.984,896,1,62,2055,170,105,118,460,0,0.000,1,0,5.999,1.285,-0.120,-1.280,5.860,-0.254,-0.079,0.978,1.040,0.754,-0.072,0.000,0.000,0.000,0.000,0,0,0,0,7,255,0,250,0,0,-1.561,-10.348,162.418,-1.561,-10.348,162.418
3860.795,0.153,0.087,-0.027,-0.984,893,0,62,2029,170,107,112,465,0,0.000,1,0,5.870,1.279,-1.040,-1.340,5.620,-0.264,-0.060,0.965,1.058,0.718,-0.052,0.000,0.000,0.000,0.000,0,0,0,0,7,255,0,250,0,0,-1.532,-10.366,162.445,-1.532,-10.366,162.445
3865.795,0.153,0.087,-0.027,-0.984,885,0,62,2023,172,105,113,467,0,0.000,1,0,4.036,1.191,-0.480,-0.920,3.900,-0.275,-0.062,0.968,1.058,0.548,-0.004,0.000,0.000,0.000,0.000,0,0,0,0,7,255,0,250,0,0,-1.508,-10.389,162.463,-1.508,-10.389,162.463
3870.795,0.153,0.088,-0.026,-0.984,880,0,60,2003,179,104,111,471,0,0.000,1,0,1.543,1.272,-0.060,-0.860,1.280,-0.267,-0.085,0.969,1.148,0.548,-0.014,0.000,0.000,0.000,0.000,0,0,0,0,7,255,0,250,0,0,-1.475,-10.410,162.468,-1.475,-10.410,162.468
3875.795,0.153,0.088,-0.026,-0.984,879,0,59,2002,173,101,113,469,0,0.000,1,0,2.025,1.381,-1.700,-0.360,1.040,-0.252,-0.118,0.975,1.148,0.768,-0.004,0.000,0.000,0.000,0.000,0,0,0,0,7,255,0,250,0,0,-1.424,-10.430,162.471,-1.424,-10.430,162.471
3880.795,0.153,0.088,-0.026,-0.984,875,0,61,1980,181,97,119,469,0,0.000,1,0,4.468,1.566,-2.800,-0.120,3.480,-0.243,-0.117,0.965,1.096,1.118,-0.014,0.000,0.000,0.000,0.000,0,0,0,0,7,255,0,250,0,0,-1.368,-10.449,162.486,-1.368,-10.449,162.486
3885.795,0.152,0.088,-0.025,-0.984,870,0,61,1974,173,100,120,488,0,0.000,1,0,6.582,1.545,-2.740,-0.240,5.980,-0.253,-0.094,0.948,1.066,1.118,-0.094,0.000,0.000,0.000,0.000,0,0,0,0,7,255,0,250,0,0,-1.323,-10.471,162.514,-1.323,-10.471,162.514
3890.795,0.152,0.089,-0.025,-0.984,868,0,63,1952,179,99,115,469,0,0.000,1,0,5.555,1.368,1.100,-1.160,5.320,-0.279,-0.068,0.934,1.066,0.858,-0.234,0.000,0.000,0.000,0.000,0,0,0,0,7,255,0,250,0,0,-1.305,-10.494,162.540,-1.305,-10.494,162.540
3895.795,0.152,0.089,-0.025,-0.984,868,0,56,1950,180,103,125,471,0,0.000,1,0,4.353,1.391,2.740,-0.740,3.300,-0.276,-0.084,0.975,1.194,0.714,-0.234,0.000,0.000,0.000,0.000,0,0,0,0,7,255,0,250,0,0,-1.290,-10.516,162.555,-1.290,-10.516,162.555
3900.797,0.152,0.089,-0.025,-0.984,867,0,59,1928,180,103,122,472,0,0.000,1,0,1.792,1.391,0.980,-0.540,1.400,-0.264,-0.095,0.987,1.194,0.714,0.064,0.000,0.000,0.000,0.000,0,0,0,0,7,255,0,250,0,0,-1.262,-10.537,162.560,-1.262,-10.537,162.560
3905.795,0.152,0.089,-0.024,-0.984,857,0,57,1911,173,101,115,473,0,0.000,1,0,1.309,1.332,0.540,-0.980,0.680,-0.259,-0.087,0.955,1.086,0.772,0.064,0.000,0.000,0.000,0.000,0,0,0,0,7,255,0,250,0,0,-1.228,-10.556,162.562,-1.228,-10.556,162.562
3910.795,0.152,0.090,-0.024,-0.984,850,0,59,1902,172,103,107,476,0,0.000,1,0,2.699,1.369,1.220,-0.360,2.380,-0.249,-0.097,0.968,1.068,0.856,-0.046,0.000,0.000,0.000,0.000,0,0,0,0,7,255,0,250,0,0,-1.198,-10.575,162.572,-1.198,-10.575,162.572
3915.795,0.152,0.090,-0.024,-0.984,832,0,57,1884,179,97,122,472,0,0.000,1,0,4.193,1.274,0.920,-0.300,4.080,-0.253,-0.090,0.978,0.972,0.824,-0.046,0.000,0.000,0.000,0.000,0,0,0,0,7,255,0,250,0,0,-1.173,-10.595,162.591,-1.173,-10.595,162.591
3920.795,0.151,0.090,-0.024,-0.984,825,0,59,1866,171,101,111,473,0,0.000,1,0,4.470,1.274,-0.300,0.000,4.460,-0.261,-0.078,0.973,0.972,0.824,0.024,0.000,0.000,0.000,0.000,0,0,0,0,7,255,0,250,0,0,-1.146,-10.616,162.612,-1.146,-10.616,162.612
3925.795,0.151,0.090,-0.024,-0.984,817,0,47,1863,176,102,109,475,0,0.000,1,0,3.700,1.221,-0.540,0.060,3.660,-0.271,-0.069,0.962,1.014,0.680,0.024,0.000,0.000,0.000,0.000,0,0,0,0,7,255,0,250,0,0,-1.121,-10.642,162.629,-1.121,-10.642,162.629
3930.795,0.151,0.090,-0.023,-0.984,811,0,58,1833,173,106,109,475,0,0.000,1,0,2.447,1.260,0.060,-0.180,2.440,-0.273,-0.079,0.958,1.086,0.638,-0.060,0.000,0.000,0.000,0.000,0,0,0,0,7,255,0,250,0,0,-1.091,-10.669,162.639,-1.091,-10.669,162.639
3935.795,0.151,0.091,-0.023,-0.984,797,0,55,1819,176,104,109,475,0,0.000,1,0,1.632,1.308,0.860,-0.360,1.340,-0.275,-0.087,0.963,1.142,0.638,-0.060,0.000,0.000,0.000,0.000,0,0,0,0,7,255,0,250,0,0,-1.063,-10.696,162.644,-1.063,-10.696,162.644
3940.796,0.151,0.091,-0.023,-0.984,793,0,53,1802,173,107,109,482,0,0.000,1,0,1.547,1.350,1.280,-0.540,0.680,-0.276,-0.085,0.967,1.160,0.690,-0.044,0.000,0.000,0.000,0.000,0,0,0,0,7,255,0,250,0,0,-1.038,-10.723,162.646,-1.038,-10.723,162.646
3945.795,0.151,0.091,-0.023,-0.984,762,0,57,1767,169,111,111,481,0,0.000,1,0,1.646,1.350,1.520,-0.620,0.120,-0.276,-0.075,0.970,1.160,0.690,-0.004,0.000,0.000,0.000,0.000,0,0,0,0,7,255,0,250,0,0,-1.016,-10.745,162.644,-1.016,-10.745,162.644
3950.795,0.151,0.091,-0.023,-0.984,739,0,56,1741,179,109,127,478,0,0.000,1,0,1.537,1.278,1.280,-0.740,-0.420,-0.279,-0.072,0.972,1.130,0.596,0.032,0.000,0.000,0.000,0.000,0,0,0,0,7,255,0,250,0,0,-0.995,-10.768,162.643,-0.995,-10.768,162.643
3955.795,0.151,0.092,-0.023,-0.984,719,0,55,1723,179,109,110,480,0,0.000,1,0,2.046,1.260,1.220,-0.860,-1.400,-0.283,-0.072,0.967,1.130,0.558,0.032,0.000,0.000,0.000,0.000,0,0,0,0,7,255,0,250,0,0,-0.972,-10.791,162.634,-0.972,-10.791,162.634
3960.795,0.151,0.092,-0.022,-0.984,693,0,55,1699,181,105,115,479,0,0.000,1,0,3.565,1.260,1.580,-1.100,-3.000,-0.278,-0.073,0.966,1.130,0.558,0.018,0.000,0.000,0.000,0.000,0,0,0,0,7,255,0,250,0,0,-0.948,-10.813,162.617,-0.948,-10.813,162.617
3965.796,0.151,0.092,-0.022,-0.984,672,3,59,1673,179,107,109,481,0,0.000,1,0,6.970,1.247,4.080,-2.260,-5.180,-0.278,-0.059,0.941,1.124,0.540,0.000,0.000,0.000,0.000,0.000,0,0,0,0,7,255,0,250,0,0,-0.940,-10.829,162.589,-0.940,-10.829,162.589
3970.795,0.152,0.092,-0.022,-0.984,664,3,55,1629,181,117,107,483,0,0.000,1,0,8.147,1.257,5.500,-1.780,-5.740,-0.263,-0.084,0.977,1.122,0.566,0.000,0.000,0.000,0.000,0.000,0,0,0,0,7,255,0,250,0,0,-0.931,-10.842,162.558,-0.931,-10.842,162.558
3975.795,0.152,0.092,-0.022,-0.984,664,1,56,1607,173,107,105,485,0,0.000,1,0,5.160,1.229,2.620,-2.020,-3.960,-0.247,-0.093,1.002,0.998,0.718,0.070,0.000,0.000,0.000,0.000,0,0,0,0,7,255,0,250,0,0,-0.910,-10.847,162.536,-0.910,-10.847,162.536
3980.795,0.152,0.092,-0.022,-0.984,651,0,56,1575,178,109,107,482,0,0.000,1,0,2.359,1.096,-0.800,-1.040,-1.960,-0.249,-0.071,0.985,0.828,0.718,0.128,0.000,0.000,0.000,0.000,0,0,0,0,7,255,0,250,0,0,-0.877,-10.858,162.524,-0.877,-10.858,162.524
3985.795,0.152,0.093,-0.022,-0.984,629,0,55,1561,175,107,109,480,0,0.000,1,0,2.143,1.043,-0.980,-0.680,-1.780,-0.257,-0.059,0.963,0.828,0.634,0.128,0.000,0.000,0.000,0.000,0,0,0,0,7,255,0,250,0,0,-0.846,-10.876,162.514,-0.846,-10.876,162.514
3990.795,0.152,0.093,-0.021,-0.984,617,0,59,1541,177,109,108,485,0,0.000,1,0,3.046,1.048,0.540,-0.680,-2.920,-0.263,-0.072,0.957,0.876,0.576,-0.068,0.000,0.000,0.000,0.000,0,0,0,0,7,255,0,250,0,0,-0.815,-10.896,162.497,-0.815,-10.896,162.497
3995.795,0.152,0.093,-0.021,-0.984,600,0,57,1509,172,111,107,487,0,0.000,1,0,5.490,1.120,2.200,-1.220,-4.880,-0.265,-0.071,0.948,0.976,0.550,-0.114,0.000,0.000,0.000,0.000,0,0,0,0,7,255,0,250,0,0,-0.794,-10.914,162.471,-0.794,-10.914,162.471
4000.796,0.153,0.093,-0.021,-0.984,586,0,59,1485,174,111,109,485,0,0.000,1,0,9.672,1.148,4.520,-1.100,-8.480,-0.270,-0.070,0.960,1.008,0.550,-0.114,0.000,0.000,0.000,0.000,0,0,0,0,7,255,0,250,0,0,-0.781,-10.934,162.426,-0.781,-10.934,162.426
4005.795,0.153,0.093,-0.021,-0.984,574,0,45,1481,169,109,107,486,0,0.000,1,0,8.010,1.148,3.180,-0.680,-7.320,-0.227,-0.101,0.992,1.008,0.550,-0.066,0.000,0.000,0.000,0.000,0,0,0,0,7,255,0,250,0,0,-0.756,-10.941,162.386,-0.756,-10.941,162.386
4010.795,0.153,0.093,-0.021,-0.984,559,0,49,1457,173,110,106,487,0,0.000,1,0,3.708,1.165,-1.400,0.300,-3.420,-0.224,-0.104,0.988,0.660,0.960,0.108,0.000,0.000,0.000,0.000,0,0,0,0,7,255,0,250,0,0,-0.710,-10.951,162.367,-0.710,-10.951,162.367
4015.795,0.153,0.094,-0.020,-0.984,555,0,58,1453,170,107,105,491,0,0.000,1,0,3.265,1.165,-3.240,0.360,0.180,-0.242,-0.094,0.960,0.660,0.960,0.108,0.000,0.000,0.000,0.000,0,0,0,0,7,255,0,250,0,0,-0.660,-10.967,162.365,-0.660,-10.967,162.365
4020.795,0.153,0.094,-0.020,-0.984,550,0,47,1436,173,107,107,487,0,0.000,1,0,1.561,1.160,-1.400,0.680,0.120,-0.264,-0.086,0.943,0.824,0.816,-0.124,0.000,0.000,0.000,0.000,0,0,0,0,7,255,0,250,0,0,-0.623,-10.994,162.363,-0.623,-10.994,162.363
4025.795,0.153,0.094,-0.020,-0.984,541,0,60,1437,172,110,109,489,0,0.000,1,0,2.402,1.224,0.740,0.620,-2.200,-0.270,-0.085,0.954,1.030,0.662,-0.132,0.000,0.000,0.000,0.000,0,0,0,0,7,255,0,250,0,0,-0.593,-11.021,162.350,-0.593,-11.021,162.350
4030.795,0.153,0.094,-0.020,-0.983,545,0,44,1438,175,111,113,487,0,0.000,1,0,4.162,1.223,1.160,0.540,-3.960,-0.257,-0.082,0.972,1.030,0.660,-0.132,0.000,0.000,0.000,0.000,0,0,0,0,7,255,0,250,0,0,-0.566,-11.041,162.328,-0.566,-11.041,162.328
4035.795,0.154,0.094,-0.019,-0.983,541,0,45,1434,179,111,108,488,0,0.000,1,0,3.607,1.108,-0.120,0.680,-3.540,-0.243,-0.079,0.979,0.890,0.660,0.020,0.000,0.000,0.000,0.000,0,0,0,0,7,255,0,250,0,0,-0.534,-11.059,162.308,-0.534,-11.059,162.308
4040.796,0.154,0.095,-0.019,-0.983,537,1,49,1424,183,109,109,491,0,0.000,1,0,2.276,1.006,-1.520,0.860,-1.460,-0.244,-0.081,0.974,0.752,0.668,0.020,0.000,0.000,0.000,0.000,0,0,0,0,7,255,0,250,0,0,-0.497,-11.079,162.299,-0.497,-11.079,162.299
4045.795,0.154,0.095,-0.019,-0.983,536,0,47,1429,184,117,113,489,0,0.000,1,0,2.107,1.006,-1.900,0.860,-0.300,-0.256,-0.083,0.968,0.752,0.668,0.020,0.000,0.000,0.000,0.000,0,0,0,0,7,255,0,250,0,0,-0.458,-11.103,162.297,-0.458,-11.103,162.297
4050.795,0.154,0.095,-0.019,-0.983,531,0,46,1435,183,116,115,490,0,0.000,1,0,2.043,1.095,-1.460,0.980,-1.040,-0.268,-0.080,0.963,0.880,0.652,-0.016,0.000,0.000,0.000,0.000,0,0,0,0,7,255,0,250,0,0,-0.421,-11.131,162.290,-0.421,-11.131,162.290
4055.795,0.154,0.096,-0.018,-0.983,529,0,48,1405,175,124,114,490,0,0.000,1,0,3.099,1.121,-1.100,1.100,-2.680,-0.268,-0.074,0.964,0.956,0.586,-0.024,0.000,0.000,0.000,0.000,0,0,0,0,7,255,0,250,0,0,-0.386,-11.159,162.274,-0.386,-11.159,162.274
4060.795,0.154,0.096,-0.018,-0.983,527,0,49,1435,173,111,116,493,0,0.000,1,0,3.635,1.117,-0.980,0.980,-3.360,-0.260,-0.078,0.968,0.956,0.578,-0.024,0.000,0.000,0.000,0.000,0,0,0,0,7,255,0,250,0,0,-0.351,-11.184,162.256,-0.351,-11.184,162.256
4065.797,0.154,0.096,-0.018,-0.983,527,0,48,1445,173,117,113,492,0,0.000,1,0,3.333,1.058,-1.520,0.980,-2.800,-0.260,-0.083,0.970,0.886,0.578,-0.006,0.000,0.000,0.000,0.000,0,0,0,0,7,255,0,250,0,0,-0.311,-11.208,162.239,-0.311,-11.208,162.239
4070.795,0.154,0.096,-0.017,-0.983,523,0,53,1434,177,115,110,493,0,0.000,1,0,3.330,1.087,-2.140,0.920,-2.380,-0.263,-0.092,0.967,0.886,0.630,-0.004,0.000,0.000,0.000,0.000,0,0,0,0,7,255,0,250,0,0,-0.267,-11.233,162.225,-0.267,-11.233,162.225
4075.795,0.154,0.097,-0.017,-0.983,522,0,52,1439,183,117,115,492,0,0.000,1,0,3.364,1.168,-2.080,0.860,-2.500,-0.266,-0.097,0.960,0.938,0.696,-0.004,0.000,0.000,0.000,0.000,0,0,0,0,7,255,0,250,0,0,-0.222,-11.260,162.210,-0.222,-11.260,162.210
4080.795,0.154,0.097,-0.017,-0.983,521,0,51,1439,179,111,117,489,0,0.000,1,0,3.258,1.212,-1.340,0.800,-2.860,-0.265,-0.098,0.958,0.976,0.718,-0.064,0.000,0.000,0.000,0.000,0,0,0,0,7,255,0,250,0,0,-0.179,-11.286,162.194,-0.179,-11.286,162.194
4085.795,0.154,0.097,-0.017,-0.983,519,0,53,1438,179,113,115,492,0,0.000,1,0,3.034,1.212,-0.540,0.620,-2.920,-0.261,-0.092,0.961,0.976,0.718,-0.064,0.000,0.000,0.000,0.000,0,0,0,0,7,255,0,250,0,0,-0.145,-11.309,162.176,-0.145,-11.309,162.176
4090.795,0.154,0.097,-0.016,-0.983,509,0,51,1441,183,115,112,491,0,0.000,1,0,2.904,1.142,-0.360,0.680,-2.800,-0.259,-0.087,0.969,0.916,0.682,-0.062,0.000,0.000,0.000,0.000,0,0,0,0,7,255,0,250,0,0,-0.113,-11.331,162.160,-0.113,-11.331,162.160
4095.795,0.154,0.098,-0.016,-0.983,508,0,51,1443,180,115,112,493,0,0.000,1,0,3.018,1.074,-0.980,0.800,-2.740,-0.258,-0.086,0.972,0.864,0.638,0.006,0.000,0.000,0.000,0.000,0,0,0,0,7,255,0,250,0,0,-0.077,-11.354,162.144,-0.077,-11.354,162.144
4100.797,0.155,0.098,-0.016,-0.983,509,0,53,1434,187,115,116,492,0,0.000,1,0,3.188,1.051,-1.460,0.920,-2.680,-0.256,-0.085,0.968,0.838,0.634,0.006,0.000,0.000,0.000,0.000,0,0,0,0,7,255,0,250,0,0,-0.039,-11.376,162.129,-0.039,-11.376,162.129
4105.795,0.155,0.098,-0.015,-0.983,505,1,51,1437,184,115,109,496,0,0.000,1,0,3.057,1.031,-1.520,1.040,-2.440,-0.255,-0.086,0.963,0.822,0.622,-0.002,0.000,0.000,0.000,0.000,0,0,0,0,7,255,0,250,0,0,-0.001,-11.399,162.114,-0.001,-11.399,162.114
4110.795,0.155,0.098,-0.015,-0.983,510,1,55,1440,181,115,112,493,0,0.000,1,0,2.754,1.024,-1.340,1.100,-2.140,-0.254,-0.085,0.962,0.814,0.622,-0.056,0.000,0.000,0.000,0.000,0,0,0,0,7,255,0,250,0,0,0.036,-11.423,162.101,0.036,-11.423,162.101
4115.795,0.155,0.099,-0.015,-0.983,509,0,53,1449,183,115,111,493,0,0.000,1,0,2.744,1.009,-1.400,1.220,-2.020,-0.254,-0.086,0.966,0.798,0.618,-0.056,0.000,0.000,0.000,0.000,0,0,0,0,7,255,0,250,0,0,0.073,-11.446,162.089,0.073,-11.446,162.089
4120.795,0.155,0.099,-0.015,-0.983,508,0,55,1451,183,115,112,491,0,0.000,1,0,2.909,1.001,-1.700,1.400,-1.900,-0.254,-0.086,0.968,0.788,0.618,-0.028,0.000,0.000,0.000,0.000,0,0,0,0,7,255,0,250,0,0,0.111,-11.470,162.078,0.111,-11.470,162.078
4125.795,0.155,0.099,-0.014,-0.983,517,0,51,1477,179,115,115,491,0,0.000,1,0,3.147,0.996,-2.080,1.640,-1.700,-0.252,-0.088,0.967,0.780,0.620,-0.016,0.000,0.000,0.000,0.000,0,0,0,0,7,255,0,250,0,0,0.152,-11.495,162.067,0.152,-11.495,162.067
4130.795,0.155,0.099,-0.014,-0.983,520,0,55,1497,181,112,110,517,0,0.000,1,0,3.233,1.004,-2.260,1.840,-1.400,-0.252,-0.093,0.964,0.780,0.632,-0.016,0.000,0.000,0.000,0.000,0,0,0,0,7,255,0,250,0,0,0.194,-11.521,162.058,0.194,-11.521,162.058
4135.795,0.155,0.100,-0.014,-0.983,523,0,55,1505,183,112,111,495,0,0.000,1,0,3.187,1.030,-2.260,1.960,-1.100,-0.255,-0.094,0.963,0.782,0.670,-0.042,0.000,0.000,0.000,0.000,0,0,0,0,7,255,0,250,0,0,0.236,-11.548,162.050,0.236,-11.548,162.050
4140.796,0.155,0.100,-0.013,-0.983,533,0,54,1513,189,109,115,499,0,0.000,1,0,3.050,1.045,-2.140,2.020,-0.800,-0.257,-0.090,0.962,0.802,0.670,-0.046,0.000,0.000,0.000,0.000,0,0,0,0,7,255,0,250,0,0,0.276,-11.576,162.044,0.276,-11.576,162.044
4145.795,0.155,0.100,-0.013,-0.983,539,1,76,1525,185,111,115,495,0,0.000,1,0,3.125,1.020,-2.020,2.200,-0.920,-0.262,-0.085,0.965,0.808,0.622,-0.046,0.000,0.000,0.000,0.000,0,0,0,0,7,255,0,250,0,0,0.314,-11.605,162.037,0.314,-11.605,162.037
4150.795,0.155,0.101,-0.013,-0.983,543,2,55,1553,184,109,117,492,0,0.000,1,0,3.451,1.005,-2.200,2.260,-1.400,-0.262,-0.088,0.967,0.822,0.578,-0.018,0.000,0.000,0.000,0.000,0,0,0,0,7,255,0,250,0,0,0.353,-11.635,162.028,0.353,-11.635,162.028
4155.795,0.155,0.101,-0.012,-0.983,551,0,56,1559,181,109,115,491,0,0.000,1,0,3.744,1.005,-2.380,2.380,-1.640,-0.259,-0.093,0.966,0.822,0.578,-0.008,0.000,0.000,0.000,0.000,0,0,0,0,7,255,0,250,0,0,0.395,-11.664,162.017,0.395,-11.664,162.017
4160.795,0.155,0.101,-0.012,-0.983,555,0,55,1577,179,107,118,493,0,0.000,1,0,3.507,1.019,-2.440,2.320,-0.980,-0.257,-0.093,0.963,0.802,0.628,-0.008,0.000,0.000,0.000,0.000,0,0,0,0,7,255,0,250,0,0,0.436,-11.693,162.010,0.436,-11.693,162.010
4165.796,0.155,0.102,-0.012,-0.983,563,0,56,1579,180,113,117,491,0,0.000,1,0,3.216,1.005,-2.260,2.260,-0.360,-0.260,-0.086,0.965,0.784,0.628,-0.018,0.000,0.000,0.000,0.000,0,0,0,0,7,255,0,250,0,0,0.474,-11.722,162.008,0.474,-11.722,162.008
4170.795,0.155,0.102,-0.012,-0.983,570,0,52,1598,183,109,117,490,0,0.000,1,0,3.217,0.960,-2.200,2.320,-0.360,-0.265,-0.078,0.969,0.784,0.554,-0.018,0.000,0.000,0.000,0.000,0,0,0,0,7,255,0,250,0,0,0.508,-11.752,162.006,0.508,-11.752,162.006
4175.795,0.155,0.102,-0.011,-0.983,583,0,53,1609,184,108,116,489,0,0.000,1,0,3.681,0.910,-2.440,2.500,-1.160,-0.264,-0.078,0.972,0.784,0.462,0.030,0.000,0.000,0.000,0.000,0,0,0,0,7,255,0,250,0,0,0.543,-11.782,161.998,0.543,-11.782,161.998
4180.795,0.155,0.102,-0.011,-0.983,587,0,56,1623,183,106,119,489,0,0.000,1,0,4.183,0.896,-2.860,2.680,-1.460,-0.260,-0.082,0.971,0.768,0.462,0.044,0.000,0.000,0.000,0.000,0,0,0,0,7,255,0,250,0,0,0.583,-11.812,161.989,0.583,-11.812,161.989
4185.795,0.155,0.103,-0.011,-0.982,599,0,55,1640,179,105,120,485,0,0.000,1,0,4.496,0.888,-3.300,2.800,-1.220,-0.258,-0.085,0.965,0.734,0.500,0.044,0.000,0.000,0.000,0.000,0,0,0,0,7,255,0,250,0,0,0.625,-11.842,161.981,0.625,-11.842,161.981
4190.795,0.155,0.103,-0.010,-0.982,614,0,55,1671,185,104,116,489,0,0.000,1,0,4.481,0.888,-3.660,2.560,-0.360,-0.264,-0.080,0.957,0.734,0.500,-0.014,0.000,0.000,0.000,0.000,0,0,0,0,7,255,0,250,0,0,0.667,-11.874,161.979,0.667,-11.874,161.979
4195.795,0.155,0.103,-0.010,-0.982,618,0,56,1689,187,105,117,484,0,0.000,1,0,3.938,0.905,-3.180,2.320,-0.120,-0.276,-0.081,0.958,0.782,0.456,-0.046,0.000,0.000,0.000,0.000,0,0,0,0,7,255,0,250,0,0,0.706,-11.907,161.977,0.706,-11.907,161.977
4200.796,0.155,0.104,-0.010,-0.982,631,0,54,1713,182,107,120,487,0,0.000,1,0,4.515,0.993,-2.860,2.500,-2.440,-0.279,-0.101,0.964,0.882,0.456,-0.046,0.000,0.000,0.000,0.000,0,0,0,0,7,255,0,250,0,0,0.751,-11.941,161.962,0.751,-11.941,161.962
4205.795,0.155,0.104,-0.009,-0.982,629,0,55,1727,175,104,117,485,0,0.000,1,0,5.954,1.064,-3.000,2.560,-4.460,-0.261,-0.130,0.957,0.882,0.596,-0.046,0.000,0.000,0.000,0.000,0,0,0,0,7,255,0,250,0,0,0.809,-11.971,161.936,0.809,-11.971,161.936
4210.795,0.155,0.104,-0.009,-0.982,637,0,55,1751,181,107,119,487,0,0.000,1,0,4.303,1.269,-2.320,2.440,-2.680,-0.241,-0.144,0.945,0.882,0.912,-0.078,0.000,0.000,0.000,0.000,0,0,0,0,7,255,0,250,0,0,0.864,-11.995,161.919,0.864,-11.995,161.919
4215.795,0.155,0.105,-0.009,-0.982,639,0,52,1759,175,105,115,487,0,0.000,1,0,2.763,1.256,-1.160,2.080,1.400,-0.247,-0.135,0.941,0.786,0.980,-0.232,0.000,0.000,0.000,0.000,0,0,0,0,7,255,0,250,0,0,0.906,-12.019,161.923,0.906,-12.019,161.923
4220.795,0.155,0.105,-0.008,-0.982,652,0,56,1766,182,107,119,487,0,0.000,1,0,3.890,1.256,-0.360,1.700,3.480,-0.270,-0.109,0.951,0.786,0.980,-0.232,0.000,0.000,0.000,0.000,0,0,0,0,7,255,0,250,0,0,0.933,-12.048,161.938,0.933,-12.048,161.938
4225.795,0.155,0.105,-0.008,-0.982,659,0,52,1785,169,105,117,487,0,0.000,1,0,2.423,1.121,-0.300,1.700,1.700,-0.282,-0.091,0.960,0.894,0.676,-0.116,0.000,0.000,0.000,0.000,0,0,0,0,7,255,0,250,0,0,0.956,-12.078,161.945,0.956,-12.078,161.945
4230.795,0.155,0.105,-0.008,-0.982,675,0,55,1813,169,109,117,485,0,0.000,1,0,2.284,1.040,-0.540,1.960,-1.040,-0.269,-0.093,0.962,0.894,0.532,-0.016,0.000,0.000,0.000,0.000,0,0,0,0,7,255,0,250,0,0,0.983,-12.106,161.937,0.983,-12.106,161.937
4235.795,0.155,0.106,-0.008,-0.982,685,0,53,1821,173,103,117,483,0,0.000,1,0,2.329,0.959,-0.620,2.020,-0.980,-0.246,-0.104,0.962,0.798,0.532,-0.016,0.000,0.000,0.000,0.000,0,0,0,0,7,255,0,250,0,0,1.016,-12.128,161.930,1.016,-12.128,161.930
4240.796,0.155,0.106,-0.008,-0.982,711,0,55,1839,177,102,121,486,0,0.000,1,0,2.735,0.932,-0.480,2.020,1.780,-0.241,-0.108,0.963,0.616,0.700,-0.058,0.000,0.000,0.000,0.000,0,0,0,0,7,255,0,250,0,0,1.044,-12.149,161.937,1.044,-12.149,161.937
4245.795,0.155,0.106,-0.007,-0.982,733,1,45,1863,173,102,119,479,0,0.000,1,0,4.780,0.932,-0.680,2.140,4.220,-0.255,-0.101,0.964,0.616,0.700,-0.058,0.000,0.000,0.000,0.000,0,0,0,0,7,255,0,250,0,0,1.070,-12.174,161.956,1.070,-12.174,161.956
4250.795,0.155,0.106,-0.007,-0.982,753,1,53,1875,176,103,118,475,0,0.000,1,0,4.703,0.926,-0.920,2.260,4.020,-0.273,-0.086,0.964,0.678,0.630,-0.018,0.000,0.000,0.000,0.000,0,0,0,0,7,255,0,250,0,0,1.093,-12.204,161.974,1.093,-12.204,161.974
4255.795,0.155,0.107,-0.007,-0.982,757,0,52,1892,179,103,112,475,0,0.000,1,0,3.256,0.903,-0.800,2.320,2.140,-0.278,-0.079,0.964,0.788,0.440,0.016,0.000,0.000,0.000,0.000,0,0,0,0,7,255,0,250,0,0,1.114,-12.236,161.983,1.114,-12.236,161.983
4260.795,0.155,0.107,-0.007,-0.982,765,0,47,1908,177,105,110,479,0,0.000,1,0,2.620,0.903,-0.480,2.500,0.620,-0.269,-0.086,0.965,0.788,0.440,0.016,0.000,0.000,0.000,0.000,0,0,0,0,7,255,0,250,0,0,1.136,-12.266,161.984,1.136,-12.266,161.984
4265.795,0.155,0.107,-0.007,-0.982,785,0,49,1927,173,102,111,473,0,0.000,1,0,2.799,0.865,-0.860,2.500,0.920,-0.262,-0.097,0.966,0.736,0.454,0.016,0.000,0.000,0.000,0.000,0,0,0,0,7,255,0,250,0,0,1.165,-12.293,161.986,1.165,-12.293,161.986
4270.795,0.154,0.108,-0.007,-0.982,793,0,47,1945,171,106,117,473,0,0.000,1,0,3.499,0.927,-1.400,2.440,2.080,-0.264,-0.102,0.964,0.732,0.568,0.014,0.000,0.000,0.000,0.000,0,0,0,0,7,255,0,250,0,0,1.196,-12.322,161.995,1.196,-12.322,161.995
4275.795,0.154,0.108,-0.006,-0.982,809,0,49,1949,171,105,112,475,0,0.000,1,0,3.872,0.927,-1.520,2.200,2.800,-0.272,-0.094,0.958,0.732,0.568,0.000,0.000,0.000,0.000,0.000,0,0,0,0,7,255,0,250,0,0,1.226,-12.351,162.007,1.226,-12.351,162.007
4280.795,0.154,0.108,-0.006,-0.982,839,0,47,1961,175,107,115,473,0,0.000,1,0,3.206,0.934,-0.920,2.080,2.260,-0.277,-0.090,0.958,0.786,0.504,-0.026,0.000,0.000,0.000,0.000,0,0,0,0,7,255,0,250,0,0,1.251,-12.382,162.016,1.251,-12.382,162.016
4285.795,0.154,0.108,-0.006,-0.982,855,0,43,1988,175,103,112,475,0,0.000,1,0,2.280,0.909,-0.420,1.840,1.280,-0.274,-0.090,0.962,0.786,0.456,-0.026,0.000,0.000,0.000,0.000,0,0,0,0,7,255,0,250,0,0,1.272,-12.409,162.020,1.272,-12.409,162.020
4290.795,0.154,0.109,-0.006,-0.982,879,0,43,1980,175,99,109,473,0,0.000,1,0,2.211,0.895,-0.540,1.840,1.100,-0.270,-0.092,0.966,0.770,0.456,0.004,0.000,0.000,0.000,0.000,0,0,0,0,7,255,0,250,0,0,1.294,-12.435,162.024,1.294,-12.435,162.024
4295.795,0.154,0.109,-0.006,-0.982,889,0,51,2005,183,104,115,471,0,0.000,1,0,2.669,0.860,-0.920,1.700,1.840,-0.267,-0.089,0.965,0.722,0.468,0.020,0.000,0.000,0.000,0.000,0,0,0,0,7,255,0,250,0,0,1.319,-12.459,162.031,1.319,-12.459,162.031
4300.797,0.154,0.109,-0.005,-0.982,908,1,46,2011,175,104,115,465,0,0.000,1,0,2.969,0.860,-1.100,1.580,2.260,-0.272,-0.089,0.963,0.722,0.468,0.020,0.000,0.000,0.000,0.000,0,0,0,0,7,255,0,250,0,0,1.344,-12.485,162.040,1.344,-12.485,162.040
4305.795,0.154,0.109,-0.005,-0.982,929,0,45,2021,181,101,115,467,0,0.000,1,0,2.580,0.872,-0.980,1.520,1.840,-0.275,-0.094,0.960,0.736,0.468,0.008,0.000,0.000,0.000,0.000,0,0,0,0,7,255,0,250,0,0,1.371,-12.511,162.047,1.371,-12.511,162.047
4310.795,0.154,0.110,-0.005,-0.982,941,0,47,2029,169,99,115,464,0,0.000,1,0,1.995,0.913,-0.740,1.340,1.280,-0.275,-0.100,0.958,0.774,0.484,-0.008,0.000,0.000,0.000,0.000,0,0,0,0,7,255,0,250,0,0,1.398,-12.536,162.051,1.398,-12.536,162.051
4315.795,0.154,0.110,-0.005,-0.982,954,0,43,2028,180,103,110,467,0,0.000,1,0,1.645,0.938,-0.120,1.160,1.160,-0.269,-0.105,0.958,0.774,0.530,-0.034,0.000,0.000,0.000,0.000,0,0,0,0,7,255,0,250,0,0,1.424,-12.558,162.055,1.424,-12.558,162.055
4320.795,0.154,0.110,-0.005,-0.982,955,0,41,2037,172,104,107,465,0,0.000,1,0,1.907,0.952,0.240,1.040,1.580,-0.266,-0.106,0.959,0.742,0.596,-0.034,0.000,0.000,0.000,0.000,0,0,0,0,7,255,0,250,0,0,1.450,-12.579,162.061,1.450,-12.579,162.061
4325.795,0.153,0.110,-0.004,-0.982,967,0,41,2040,175,105,106,465,0,0.000,1,0,2.621,0.929,0.420,0.860,2.440,-0.266,-0.104,0.958,0.712,0.596,-0.042,0.000,0.000,0.000,0.000,0,0,0,0,7,255,0,250,0,0,1.473,-12.599,162.071,1.473,-12.599,162.071
4330.795,0.153,0.111,-0.004,-0.982,968,0,41,2055,173,107,101,463,0,0.000,1,0,3.234,0.921,0.420,0.740,3.120,-0.272,-0.098,0.958,0.712,0.584,-0.034,0.000,0.000,0.000,0.000,0,0,0,0,7,255,0,250,0,0,1.494,-12.620,162.084,1.494,-12.620,162.084
4335.795,0.153,0.111,-0.004,-0.982,979,0,41,2057,165,109,105,461,0,0.000,1,0,3.194,0.899,0.420,0.540,3.120,-0.275,-0.096,0.958,0.738,0.514,-0.030,0.000,0.000,0.000,0.000,0,0,0,0,7,255,0,250,0,0,1.515,-12.638,162.098,1.515,-12.638,162.098
4340.797,0.153,0.111,-0.004,-0.982,988,0,41,2060,183,109,105,465,0,0.000,1,0,2.522,0.906,0.480,0.420,2.440,-0.275,-0.098,0.959,0.758,0.496,-0.028,0.000,0.000,0.000,0.000,0,0,0,0,7,255,0,250,0,0,1.536,-12.656,162.109,1.536,-12.656,162.109
4345.795,0.153,0.111,-0.004,-0.982,994,0,43,2063,173,109,103,467,0,0.000,1,0,2.050,0.906,0.480,0.360,1.960,-0.270,-0.097,0.960,0.758,0.496,-0.014,0.000,0.000,0.000,0.000,0,0,0,0,7,255,0,250,0,0,1.557,-12.672,162.116,1.557,-12.672,162.116
4350.795,0.153,0.111,-0.004,-0.982,1017,0,41,2069,179,115,103,459,0,0.000,1,0,2.293,0.860,0.740,0.360,2.140,-0.265,-0.091,0.962,0.702,0.496,-0.012,0.000,0.000,0.000,0.000,0,0,0,0,7,255,0,250,0,0,1.573,-12.687,162.125,1.573,-12.687,162.125
4355.795,0.153,0.111,-0.004,-0.982,1039,0,40,2071,183,115,101,462,0,0.000,1,0,2.568,0.780,0.680,0.420,2.440,-0.265,-0.088,0.968,0.630,0.460,-0.008,0.000,0.000,0.000,0.000,0,0,0,0,7,255,0,250,0,0,1.587,-12.701,162.136,1.587,-12.701,162.136
4360.795,0.153,0.112,-0.003,-0.982,1041,0,40,2079,175,115,101,463,0,0.000,1,0,2.505,0.752,0.300,0.480,2.440,-0.267,-0.086,0.969,0.614,0.434,0.048,0.000,0.000,0.000,0.000,0,0,0,0,7,255,0,250,0,0,1.604,-12.715,162.147,1.604,-12.715,162.147
4365.796,0.153,0.112,-0.003,-0.982,1043,0,43,2077,171,113,99,461,0,0.000,1,0,2.347,0.739,0.120,0.620,2.260,-0.268,-0.086,0.967,0.614,0.412,0.048,0.000,0.000,0.000,0.000,0,0,0,0,7,255,0,250,0,0,1.621,-12.733,162.156,1.621,-12.733,162.156
4370.795,0.152,0.112,-0.003,-0.982,1052,0,41,2088,172,116,100,463,0,0.000,1,0,2.277,0.739,0.240,0.740,2.140,-0.268,-0.083,0.965,0.616,0.408,0.044,0.000,0.000,0.000,0.000,0,0,0,0,7,255,0,250,0,0,1.637,-12.752,162.166,1.637,-12.752,162.166
4375.795,0.152,0.112,-0.003,-0.982,1055,0,38,2088,172,115,101,460,0,0.000,1,0,2.082,0.724,0.420,0.740,1.900,-0.270,-0.082,0.967,0.618,0.378,0.042,0.000,0.000,0.000,0.000,0,0,0,0,7,255,0,250,0,0,1.653,-12.770,162.173,1.653,-12.770,162.173
4380.795,0.152,0.112,-0.003,-0.982,1062,0,37,2091,173,115,104,467,0,0.000,1,0,1.849,0.712,0.300,0.800,1.640,-0.271,-0.082,0.969,0.616,0.358,0.042,0.000,0.000,0.000,0.000,0,0,0,0,7,255,0,250,0,0,1.669,-12.789,162.180,1.669,-12.789,162.180
4385.795,0.152,0.112,-0.003,-0.982,1064,1,40,2094,183,115,103,463,0,0.000,1,0,1.669,0.710,-0.120,0.800,1.460,-0.270,-0.082,0.967,0.616,0.354,0.050,0.000,0.000,0.000,0.000,0,0,0,0,7,255,0,250,0,0,1.686,-12.808,162.186,1.686,-12.808,162.186
4390.795,0.152,0.113,-0.003,-0.982,1075,0,41,2091,180,115,101,461,0,0.000,1,0,1.757,0.710,-0.480,0.740,1.520,-0.270,-0.083,0.964,0.616,0.354,0.050,0.000,0.000,0.000,0.000,0,0,0,0,7,255,0,250,0,0,1.703,-12.827,162.192,1.703,-12.827,162.192
4395.795,0.152,0.113,-0.003,-0.982,1079,0,41,2103,172,117,100,462,0,0.000,1,0,1.969,0.710,-0.800,0.740,1.640,-0.270,-0.082,0.962,0.616,0.354,0.018,0.000,0.000,0.000,0.000,0,0,0,0,7,255,0,250,0,0,1.723,-12.845,162.198,1.723,-12.845,162.198
4400.796,0.152,0.113,-0.002,-0.982,1093,0,40,2105,173,116,100,465,0,0.000,1,0,1.726,0.711,-0.620,0.680,1.460,-0.272,-0.082,0.964,0.620,0.348,0.018,0.000,0.000,0.000,0.000,0,0,0,0,7,255,0,250,0,0,1.742,-12.864,162.204,1.742,-12.864,162.204
4405.795,0.152,0.113,-0.002,-0.982,1096,0,42,2120,169,119,100,459,0,0.000,1,0,1.355,0.716,-0.740,0.740,0.860,-0.272,-0.090,0.965,0.626,0.348,0.022,0.000,0.000,0.000,0.000,0,0,0,0,7,255,0,250,0,0,1.765,-12.883,162.206,1.765,-12.883,162.206
4410.795,0.152,0.113,-0.002,-0.982,1100,1,42,2121,171,115,101,462,0,0.000,1,0,1.364,0.766,-1.040,0.740,0.480,-0.271,-0.101,0.960,0.646,0.412,0.022,0.000,0.000,0.000,0.000,0,0,0,0,7,255,0,250,0,0,1.794,-12.902,162.204,1.794,-12.902,162.204
4415.795,0.152,0.114,-0.002,-0.982,1115,3,40,2131,171,117,105,465,0,0.000,1,0,1.328,0.842,-0.800,0.620,0.860,-0.271,-0.105,0.956,0.670,0.510,-0.006,0.000,0.000,0.000,0.000,0,0,0,0,7,255,0,250,0,0,1.822,-12.920,162.206,1.822,-12.920,162.206
4420.795,0.152,0.114,-0.002,-0.982,1117,0,41,2124,173,120,100,462,0,0.000,1,0,1.170,0.869,-0.240,0.480,1.040,-0.275,-0.104,0.955,0.690,0.528,-0.046,0.000,0.000,0.000,0.000,0,0,0,0,7,255,0,250,0,0,1.845,-12.937,162.209,1.845,-12.937,162.209
4425.795,0.152,0.114,-0.001,-0.982,1125,0,39,2127,175,119,100,461,0,0.000,1,0,0.751,0.894,0.300,0.300,0.620,-0.277,-0.103,0.955,0.722,0.528,-0.046,0.000,0.000,0.000,0.000,0,0,0,0,7,255,0,250,0,0,1.912,-12.985,162.206,1.912,-12.985,162.206
