t_ms,L_q0,L_q1,L_q2,L_q3,L_heel1,L_mid1,L_fore1,L_heel2,L_fore3,L_mid2,L_fore4,L_fore2,L_cadence,L_speed,L_steps,L_zupt,L_gyroNorm,L_accH,L_gyro_x,L_gyro_y,L_gyro_z,L_acc_x,L_acc_y,L_acc_z,L_nav_ax,L_nav_ay,L_nav_az,L_stepVel,L_stepVelj,L_stepDispRaw,L_stepDispZUPT,L_gaitEvent,L_motorMode,L_motorActive,L_motorAlignment,L_motorRegionMask,L_motorAmplitude,L_motorIntervalMs,L_motorDurationMs,L_motorPhaseMs,L_motorCycleMs,L_roll,L_pitch,L_yaw,L_relativeRoll,L_relativePitch,L_relativeYaw
303944.799,-0.983,0.069,-0.061,0.158,89,71,58,63,21,0,41,57,0,0.000,0,0,47.537,1.720,-18.340,43.840,1.220,0.172,-0.068,0.983,0.812,-1.516,-0.134,0.000,0.000,0.000,0.000,0,0,0,0,7,255,0,250,0,0,-6.702,8.129,17.753,-6.702,8.129,17.753
303949.799,-0.983,0.067,-0.059,0.158,84,91,59,75,25,0,43,44,0,0.000,0,0,47.904,1.813,-21.080,42.940,2.560,0.168,-0.069,0.980,0.852,-1.600,-0.188,0.000,0.000,0.000,0.000,0,0,0,0,7,255,0,250,0,0,-6.581,7.919,17.791,-6.581,7.919,17.791
303954.799,-0.984,0.066,-0.058,0.158,51,69,77,38,43,6,64,37,0,0.000,0,0,48.025,1.814,-22.300,42.440,2.820,0.173,-0.073,0.976,0.854,-1.600,-0.222,0.000,0.000,0.000,0.000,0,0,0,0,7,255,0,250,0,0,-6.454,7.712,17.830,-6.454,7.712,17.830
303959.799,-0.984,0.065,-0.056,0.158,85,102,51,65,15,0,41,22,0,0.000,0,0,45.391,1.841,-20.220,40.500,3.360,0.171,-0.075,0.965,0.938,-1.584,-0.264,0.000,0.000,0.000,0.000,0,0,0,0,7,255,0,250,0,0,-6.334,7.516,17.870,-6.334,7.516,17.870
303964.801,-0.984,0.063,-0.055,0.159,50,71,80,45,25,0,59,44,0,0.000,0,0,39.964,1.819,-17.180,35.920,3.420,0.170,-0.056,0.956,0.938,-1.558,-0.370,0.000,0.000,0.000,0.000,0,0,0,0,7,255,0,250,0,0,-6.225,7.344,17.907,-6.225,7.344,17.907
303969.799,-0.984,0.062,-0.054,0.159,84,83,53,83,17,0,31,23,0,0.000,0,0,33.177,1.652,-13.340,30.240,2.880,0.173,-0.048,0.950,0.952,-1.350,-0.434,0.000,0.000,0.000,0.000,0,0,0,0,7,255,0,250,0,0,-6.131,7.203,17.938,-6.131,7.203,17.938
303974.799,-0.984,0.062,-0.053,0.159,85,88,55,69,17,0,33,37,0,0.000,0,0,27.481,1.546,-9.660,25.600,2.560,0.169,-0.046,0.954,0.926,-1.238,-0.446,0.000,0.000,0.000,0.000,0,0,0,0,7,255,0,250,0,0,-6.049,7.086,17.965,-6.049,7.086,17.965
303979.799,-0.984,0.061,-0.052,0.159,77,65,95,73,11,0,59,51,0,0.000,0,0,24.937,1.528,-8.020,23.520,2.080,0.150,-0.041,0.967,0.914,-1.224,-0.446,0.000,0.000,0.000,0.000,0,0,0,0,7,255,0,250,0,0,-5.974,6.976,17.989,-5.974,6.976,17.989
303984.799,-0.984,0.060,-0.051,0.159,87,61,83,61,26,0,46,51,0,0.000,0,0,24.886,1.422,-7.100,23.820,1.220,0.146,-0.042,0.977,0.724,-1.224,-0.336,0.000,0.000,0.000,0.000,0,0,0,0,7,255,0,250,0,0,-5.903,6.864,18.008,-5.903,6.864,18.008
303989.799,-0.984,0.059,-0.050,0.159,85,93,65,72,25,0,37,29,0,0.000,0,0,24.222,1.439,-4.300,23.820,0.920,0.147,-0.050,0.983,0.724,-1.244,-0.240,0.000,0.000,0.000,0.000,0,0,0,0,7,255,0,250,0,0,-5.844,6.753,18.026,-5.844,6.753,18.026
303994.799,-0.984,0.059,-0.049,0.159,57,98,77,45,39,1,69,12,0,0.000,0,0,22.397,1.505,-1.060,22.360,0.740,0.146,-0.058,0.994,0.748,-1.306,-0.190,0.000,0.000,0.000,0.000,0,0,0,0,7,255,0,250,0,0,-5.797,6.649,18.042,-5.797,6.649,18.042
303999.799,-0.984,0.058,-0.049,0.159,52,73,87,43,40,0,73,43,0,0.000,0,0,20.230,1.584,0.640,20.220,0.060,0.142,-0.068,1.010,0.764,-1.388,-0.090,0.000,0.000,0.000,0.000,0,0,0,0,7,255,0,250,0,0,-5.757,6.554,18.054,-5.757,6.554,18.054
304004.803,-0.984,0.058,-0.048,0.159,56,87,73,43,39,0,61,17,0,0.000,0,0,17.834,1.688,1.320,17.780,-0.420,0.141,-0.075,1.024,0.766,-1.504,0.048,0.000,0.000,0.000,0.000,0,0,0,0,7,255,0,250,0,0,-5.719,6.471,18.064,-5.719,6.471,18.064
304009.799,-0.984,0.058,-0.047,0.159,79,89,83,73,11,0,47,47,0,0.000,0,0,15.848,1.748,1.980,15.720,-0.360,0.138,-0.077,1.035,0.764,-1.572,0.178,0.000,0.000,0.000,0.000,0,0,0,0,7,255,0,250,0,0,-5.683,6.398,18.073,-5.683,6.398,18.073
304014.799,-0.984,0.057,-0.047,0.159,44,92,77,40,49,0,67,9,0,0.000,0,0,15.166,1.773,2.960,14.860,-0.660,0.133,-0.078,1.038,0.756,-1.604,0.278,0.000,0.000,0.000,0.000,0,0,0,0,7,255,0,250,0,0,-5.653,6.328,18.078,-5.653,6.328,18.078
304019.799,-0.984,0.057,-0.046,0.159,57,63,91,41,40,0,60,40,0,0.000,0,0,14.944,1.795,4.680,14.180,-0.600,0.134,-0.082,1.034,0.756,-1.628,0.278,0.000,0.000,0.000,0.000,0,0,0,0,7,255,0,250,0,0,-5.629,6.262,18.083,-5.629,6.262,18.083
304024.799,-0.985,0.057,-0.046,0.159,89,83,53,61,16,0,51,26,0,0.000,0,0,13.999,1.812,6.880,12.180,-0.540,0.139,-0.084,1.030,0.758,-1.646,0.260,0.000,0.000,0.000,0.000,0,0,0,0,7,255,0,250,0,0,-5.615,6.207,18.091,-5.615,6.207,18.091
304029.799,-0.985,0.057,-0.045,0.159,72,92,54,40,35,0,41,13,0,0.000,0,0,12.313,1.838,8.700,8.700,-0.480,0.147,-0.083,1.027,0.818,-1.646,0.226,0.000,0.000,0.000,0.000,0,0,0,0,7,255,0,250,0,0,-5.610,6.173,18.096,-5.610,6.173,18.096
304034.799,-0.985,0.057,-0.045,0.159,55,73,85,61,25,0,69,51,0,0.000,0,0,10.723,1.841,9.860,4.180,-0.540,0.153,-0.080,1.022,0.904,-1.604,0.212,0.000,0.000,0.000,0.000,0,0,0,0,7,255,0,250,0,0,-5.611,6.163,18.099,-5.611,6.163,18.099
304039.799,-0.985,0.057,-0.045,0.159,100,93,74,71,17,0,37,51,0,0.000,0,0,10.641,1.812,10.600,0.260,-0.900,0.155,-0.070,1.018,0.942,-1.548,0.174,0.000,0.000,0.000,0.000,0,0,0,0,7,255,0,250,0,0,-5.619,6.174,18.095,-5.619,6.174,18.095
304044.799,-0.985,0.057,-0.046,0.159,72,61,82,63,15,0,71,41,0,0.000,0,0,10.201,1.727,9.920,-1.920,-1.400,0.149,-0.056,1.013,0.942,-1.448,0.142,0.000,0.000,0.000,0.000,0,0,0,0,7,255,0,250,0,0,-5.626,6.193,18.088,-5.626,6.193,18.088
304049.799,-0.985,0.057,-0.046,0.159,89,91,53,63,21,6,33,35,0,0.000,0,0,10.088,1.571,9.380,-2.900,-2.320,0.139,-0.051,1.010,0.842,-1.326,0.098,0.000,0.000,0.000,0.000,0,0,0,0,7,255,0,250,0,0,-5.631,6.214,18.076,-5.631,6.214,18.076
304054.799,-0.985,0.057,-0.046,0.159,56,81,59,40,37,0,61,20,0,0.000,0,0,10.254,1.509,9.620,-2.180,-2.800,0.136,-0.051,1.005,0.732,-1.320,0.062,0.000,0.000,0.000,0.000,0,0,0,0,7,255,0,250,0,0,-5.637,6.231,18.062,-5.637,6.231,18.062
304059.799,-0.985,0.057,-0.046,0.159,58,86,57,37,43,0,67,28,0,0.000,0,0,10.460,1.495,10.040,-0.880,-2.800,0.132,-0.050,0.999,0.706,-1.318,0.012,0.000,0.000,0.000,0.000,0,0,0,0,7,255,0,250,0,0,-5.644,6.241,18.048,-5.644,6.241,18.048
304064.801,-0.985,0.057,-0.046,0.159,78,89,52,71,43,0,36,27,0,0.000,0,0,9.743,1.478,9.320,0.940,-2.680,0.119,-0.053,0.994,0.664,-1.320,-0.054,0.000,0.000,0.000,0.000,0,0,0,0,7,255,0,250,0,0,-5.645,6.238,18.037,-5.645,6.238,18.037
304069.799,-0.985,0.057,-0.046,0.159,59,97,51,33,43,3,58,20,0,0.000,0,0,9.174,1.483,7.660,4.240,-2.740,0.111,-0.058,0.983,0.558,-1.374,-0.116,0.000,0.000,0.000,0.000,0,0,0,0,7,255,0,250,0,0,-5.637,6.216,18.027,-5.637,6.216,18.027
304074.799,-0.985,0.057,-0.045,0.159,76,108,45,51,29,0,41,21,0,0.000,0,0,9.939,1.537,5.160,8.080,-2.620,0.114,-0.063,0.969,0.558,-1.432,-0.234,0.000,0.000,0.000,0.000,0,0,0,0,7,255,0,250,0,0,-5.617,6.177,18.019,-5.617,6.177,18.019
304079.799,-0.985,0.056,-0.045,0.159,76,92,55,36,38,4,40,22,0,0.000,0,0,11.105,1.540,1.560,10.760,-2.260,0.120,-0.065,0.960,0.566,-1.432,-0.368,0.000,0.000,0.000,0.000,0,0,0,0,7,255,0,250,0,0,-5.579,6.127,18.014,-5.579,6.127,18.014
304084.799,-0.985,0.056,-0.045,0.159,76,51,87,71,11,0,51,51,0,0.000,0,0,11.299,1.564,-2.400,10.900,-1.760,0.132,-0.063,0.955,0.638,-1.428,-0.448,0.000,0.000,0.000,0.000,0,0,0,0,7,255,0,250,0,0,-5.523,6.080,18.012,-5.523,6.080,18.012
304089.799,-0.985,0.055,-0.045,0.159,91,90,55,75,23,0,39,36,0,0.000,0,0,9.159,1.555,-4.720,7.780,-1.040,0.143,-0.056,0.945,0.754,-1.360,-0.484,0.000,0.000,0.000,0.000,0,0,0,0,7,255,0,250,0,0,-5.458,6.052,18.011,-5.458,6.052,18.011
304094.799,-0.985,0.055,-0.045,0.159,59,73,77,54,11,0,41,41,0,0.000,0,0,3.788,1.492,-3.320,1.800,-0.300,0.153,-0.048,0.936,0.842,-1.232,-0.560,0.000,0.000,0.000,0.000,0,0,0,0,7,255,0,250,0,0,-5.403,6.056,18.012,-5.403,6.056,18.012
304099.801,-0.985,0.055,-0.045,0.159,53,67,85,45,47,2,69,27,0,0.000,0,0,6.844,1.437,1.680,-6.620,0.440,0.164,-0.040,0.938,0.912,-1.110,-0.588,0.000,0.000,0.000,0.000,0,0,0,0,7,255,0,250,0,0,-5.376,6.106,18.009,-5.376,6.106,18.009
304104.799,-0.985,0.055,-0.046,0.159,83,67,52,71,17,0,49,51,0,0.000,0,0,17.486,1.404,6.940,-16.020,0.980,0.175,-0.039,0.955,0.980,-1.006,-0.588,0.000,0.000,0.000,0.000,0,0,0,0,7,255,0,250,0,0,-5.376,6.205,18.007,-5.376,6.205,18.007
304109.799,-0.985,0.055,-0.047,0.159,56,91,56,45,27,0,59,21,0,0.000,0,0,27.308,1.454,10.360,-25.240,1.160,0.180,-0.041,0.978,1.050,-1.006,-0.412,0.000,0.000,0.000,0.000,0,0,0,0,7,255,0,250,0,0,-5.400,6.345,18.001,-5.400,6.345,18.001
304114.799,-0.985,0.056,-0.049,0.159,72,93,67,45,37,4,55,16,0,0.000,0,0,36.327,1.467,12.300,-34.160,1.220,0.182,-0.043,0.993,1.050,-1.024,-0.188,0.000,0.000,0.000,0.000,0,0,0,0,7,255,0,250,0,0,-5.443,6.525,17.991,-5.443,6.525,17.991
304119.799,-0.984,0.057,-0.051,0.159,79,83,59,77,18,0,43,44,0,0.000,0,0,45.061,1.505,13.960,-42.820,1.420,0.184,-0.044,1.003,1.050,-1.078,-0.042,0.000,0.000,0.000,0.000,0,0,0,0,7,255,0,250,0,0,-5.504,6.744,17.977,-5.504,6.744,17.977
304124.799,-0.984,0.058,-0.053,0.159,89,99,53,63,24,0,40,19,0,0.000,0,0,53.727,1.522,15.480,-51.420,1.720,0.186,-0.047,1.010,1.030,-1.120,0.064,0.000,0.000,0.000,0.000,0,0,0,0,7,255,0,250,0,0,-5.582,7.002,17.961,-5.582,7.002,17.961
304129.799,-0.984,0.059,-0.055,0.159,52,67,50,28,39,0,64,22,0,0.000,0,0,61.533,1.553,16.520,-59.240,2.020,0.189,-0.051,1.014,1.014,-1.176,0.132,0.000,0.000,0.000,0.000,0,0,0,0,7,255,0,250,0,0,-5.666,7.298,17.942,-5.666,7.298,17.942
304134.799,-0.984,0.060,-0.058,0.158,75,85,53,56,10,0,51,20,0,0.000,0,0,68.940,1.594,18.520,-66.380,1.840,0.189,-0.056,1.019,1.014,-1.230,0.166,0.000,0.000,0.000,0.000,0,0,0,0,7,255,0,250,0,0,-5.762,7.629,17.917,-5.762,7.629,17.917
304139.799,-0.984,0.061,-0.061,0.158,55,70,89,39,41,0,59,31,0,0.000,0,0,75.565,1.640,20.900,-72.600,1.600,0.195,-0.053,1.027,0.970,-1.322,0.214,0.000,0.000,0.000,0.000,0,0,0,0,7,255,0,250,0,0,-5.870,7.991,17.888,-5.870,7.991,17.888
304144.799,-0.983,0.063,-0.064,0.158,59,59,92,67,29,0,60,40,0,0.000,0,0,82.161,1.643,23.300,-78.780,1.100,0.207,-0.054,1.035,0.970,-1.326,0.306,0.000,0.000,0.000,0.000,0,0,0,0,7,255,0,250,0,0,-5.991,8.384,17.853,-5.991,8.384,17.853
304149.799,-0.983,0.065,-0.068,0.158,59,78,91,75,37,0,73,45,0,0.000,0,0,90.353,1.679,25.980,-86.520,1.720,0.221,-0.053,1.041,0.996,-1.352,0.396,0.000,0.000,0.000,0.000,0,0,0,0,7,255,0,250,0,0,-6.126,8.815,17.815,-6.126,8.815,17.815
304154.799,-0.983,0.066,-0.072,0.158,51,67,81,61,19,0,51,57,0,0.000,0,0,101.615,1.714,28.720,-97.380,4.220,0.249,-0.042,1.042,1.054,-1.352,0.472,0.000,0.000,0.000,0.000,0,0,0,0,7,255,0,250,0,0,-6.274,9.302,17.783,-6.274,9.302,17.783
304159.800,-0.982,0.069,-0.076,0.158,86,91,79,71,23,0,51,45,0,0.000,0,0,114.954,1.707,33.240,-109.900,5.620,0.274,-0.040,1.041,1.192,-1.222,0.546,0.000,0.000,0.000,0.000,0,0,0,0,7,255,0,250,0,0,-6.445,9.852,17.750,-6.445,9.852,17.750
304164.800,-0.981,0.071,-0.081,0.158,53,59,87,79,22,0,39,49,0,0.000,0,0,129.732,1.792,37.820,-123.880,7.340,0.297,-0.037,1.036,1.342,-1.188,0.574,0.000,0.000,0.000,0.000,0,0,0,0,7,255,0,250,0,0,-6.640,10.472,17.715,-6.640,10.472,17.715
304169.799,-0.981,0.074,-0.087,0.158,83,91,55,59,23,0,51,28,0,0.000,0,0,143.343,1.850,40.920,-137.060,9.340,0.321,-0.021,1.028,1.448,-1.152,0.576,0.000,0.000,0.000,0.000,0,0,0,0,7,255,0,250,0,0,-6.850,11.158,17.680,-6.850,11.158,17.680
304174.799,-0.980,0.077,-0.093,0.159,73,63,67,63,7,0,39,43,0,0.000,0,0,155.687,1.827,43.380,-149.080,11.480,0.342,-0.010,1.013,1.528,-1.002,0.576,0.000,0.000,0.000,0.000,0,0,0,0,7,255,0,250,0,0,-7.074,11.905,17.646,-7.074,11.905,17.646
304179.799,-0.979,0.080,-0.099,0.159,56,72,91,74,16,0,60,46,0,0.000,0,0,167.454,1.817,46.180,-160.320,14.340,0.360,-0.007,1.000,1.588,-0.884,0.496,0.000,0.000,0.000,0.000,0,0,0,0,7,255,0,250,0,0,-7.310,12.710,17.616,-7.310,12.710,17.616
304184.799,-0.978,0.083,-0.106,0.159,75,100,60,41,40,0,57,20,0,0.000,0,0,178.036,1.855,50.200,-169.840,18.200,0.377,-0.003,0.989,1.638,-0.870,0.420,0.000,0.000,0.000,0.000,0,0,0,0,7,255,0,250,0,0,-7.566,13.564,17.596,-7.566,13.564,17.596
304189.799,-0.977,0.086,-0.114,0.160,79,87,55,46,39,4,43,21,0,0.000,0,0,188.212,1.876,54.240,-178.860,22.160,0.405,0.004,0.972,1.672,-0.850,0.380,0.000,0.000,0.000,0.000,0,0,0,0,7,255,0,250,0,0,-7.839,14.465,17.585,-7.839,14.465,17.585
304194.799,-0.975,0.090,-0.122,0.161,56,70,81,43,27,0,73,39,0,0.000,0,0,200.804,1.946,57.840,-190.400,26.920,0.443,0.015,0.947,1.790,-0.764,0.310,0.000,0.000,0.000,0.000,0,0,0,0,7,255,0,250,0,0,-8.127,15.427,17.586,-8.127,15.427,17.586
304199.799,-0.974,0.094,-0.130,0.161,53,73,83,47,39,0,64,37,0,0.000,0,0,216.580,2.087,61.620,-205.120,32.180,0.484,0.031,0.929,2.000,-0.596,0.208,0.000,0.000,0.000,0.000,0,0,0,0,7,255,0,250,0,0,-8.431,16.465,17.598,-8.431,16.465,17.598
304204.800,-0.972,0.098,-0.139,0.162,55,70,77,43,36,0,61,19,0,0.000,0,0,233.703,2.231,65.220,-221.400,36.680,0.506,0.043,0.919,2.196,-0.394,0.208,0.000,0.000,0.000,0.000,0,0,0,0,7,255,0,250,0,0,-8.752,17.588,17.615,-8.752,17.588,17.615
304209.799,-0.970,0.102,-0.149,0.163,78,99,56,72,23,0,35,52,0,0.000,0,0,251.677,2.233,68.020,-239.040,39.680,0.524,0.042,0.909,2.206,-0.348,0.218,0.000,0.000,0.000,0.000,0,0,0,0,7,255,0,250,0,0,-9.088,18.799,17.626,-9.088,18.799,17.626
304214.799,-0.968,0.107,-0.159,0.165,59,71,80,42,45,0,72,20,0,0.000,0,0,270.436,2.233,70.840,-257.660,41.580,0.542,0.048,0.898,2.206,-0.348,0.222,0.000,0.000,0.000,0.000,0,0,0,0,7,255,0,250,0,0,-9.443,20.105,17.624,-9.443,20.105,17.624
304219.799,-0.965,0.112,-0.171,0.166,55,67,76,47,37,0,68,19,0,0.000,0,0,288.884,2.200,74.020,-276.100,41.760,0.551,0.044,0.897,2.172,-0.348,0.226,0.000,0.000,0.000,0.000,0,0,0,0,7,255,0,250,0,0,-9.822,21.501,17.597,-9.822,21.501,17.597
304224.799,-0.962,0.116,-0.183,0.166,55,89,56,33,45,0,55,14,0,0.000,0,0,306.096,2.113,74.620,-293.980,41.260,0.563,0.037,0.903,2.058,-0.478,0.282,0.000,0.000,0.000,0.000,0,0,0,0,7,255,0,250,0,0,-10.216,22.984,17.540,-10.216,22.984,17.540
304229.799,-0.959,0.121,-0.195,0.167,59,77,89,72,20,0,73,55,0,0.000,0,0,314.527,2.049,61.680,-305.580,41.760,0.582,0.027,0.914,1.936,-0.670,0.402,0.000,0.000,0.000,0.000,0,0,0,0,7,255,0,250,0,0,-10.555,24.525,17.463,-10.555,24.525,17.463
304234.799,-0.955,0.125,-0.209,0.167,80,91,51,67,33,0,47,16,0,0.000,0,0,323.872,2.046,38.480,-319.180,39.200,0.584,-0.020,0.915,1.850,-0.874,0.570,0.000,0.000,0.000,0.000,0,0,0,0,7,255,0,250,0,0,-10.796,26.130,17.349,-10.796,26.130,17.349
304239.799,-0.952,0.128,-0.222,0.167,73,61,99,60,25,0,62,45,0,0.000,0,0,332.663,2.267,23.220,-329.680,37.900,0.553,-0.025,0.929,1.770,-1.416,0.570,0.000,0.000,0.000,0.000,0,0,0,0,7,255,0,250,0,0,-10.975,27.785,17.209,-10.975,27.785,17.209
304244.799,-0.948,0.130,-0.236,0.167,70,70,57,77,19,0,45,46,0,0.000,0,0,332.213,2.082,12.680,-329.620,39.440,0.522,-0.005,0.941,1.202,-1.700,0.566,0.000,0.000,0.000,0.000,0,0,0,0,7,255,0,250,0,0,-11.104,29.440,17.070,-11.104,29.440,17.070
304249.799,-0.945,0.132,-0.250,0.167,67,59,91,40,28,4,73,43,0,0.000,0,0,321.705,1.830,4.000,-318.820,42.800,0.496,-0.004,0.930,0.542,-1.748,0.560,0.000,0.000,0.000,0.000,0,0,0,0,7,255,0,250,0,0,-11.181,31.046,16.956,-11.181,31.046,16.956
304254.799,-0.941,0.134,-0.262,0.167,69,89,72,40,39,0,58,20,0,0.000,0,0,305.613,1.869,-3.200,-302.400,44.080,0.470,-0.035,0.907,0.098,-1.866,0.338,0.000,0.000,0.000,0.000,0,0,0,0,7,255,0,250,0,0,-11.213,32.572,16.865,-11.213,32.572,16.865
304259.799,-0.937,0.135,-0.274,0.167,51,61,59,33,43,0,58,22,0,0.000,0,0,287.207,2.217,-9.000,-283.720,43.700,0.447,-0.063,0.888,-0.150,-2.212,-0.058,0.000,0.000,0.000,0.000,0,0,0,0,7,255,0,250,0,0,-11.207,34.006,16.791,-11.207,34.006,16.791
304264.800,-0.934,0.136,-0.285,0.167,54,71,83,64,6,0,43,45,0,0.000,0,0,267.125,2.554,-14.980,-263.100,43.700,0.449,-0.079,0.873,-0.374,-2.526,-0.400,0.000,0.000,0.000,0.000,0,0,0,0,7,255,0,250,0,0,-11.160,35.340,16.742,-11.160,35.340,16.742
304269.799,-0.931,0.136,-0.296,0.167,87,69,85,69,23,1,51,51,0,0.000,0,0,248.091,2.599,-20.540,-243.020,45.480,0.481,-0.090,0.827,-0.374,-2.572,-0.558,0.000,0.000,0.000,0.000,0,0,0,0,7,255,0,250,0,0,-11.065,36.576,16.728,-11.065,36.576,16.728
304274.799,-0.927,0.136,-0.305,0.168,87,91,58,47,31,0,53,15,0,0.000,0,0,234.937,2.575,-22.660,-228.620,49.140,0.520,-0.102,0.781,-0.126,-2.572,-0.768,0.000,0.000,0.000,0.000,0,0,0,0,7,255,0,250,0,0,-10.934,37.745,16.757,-10.934,37.745,16.757
304279.799,-0.924,0.136,-0.315,0.168,82,61,86,69,27,0,47,38,0,0.000,0,0,229.022,2.480,-25.720,-220.980,54.380,0.552,-0.101,0.752,0.260,-2.466,-0.916,0.000,0.000,0.000,0.000,0,0,0,0,7,255,0,250,0,0,-10.758,38.882,16.832,-10.758,38.882,16.832
304284.799,-0.921,0.135,-0.324,0.169,59,63,87,43,33,6,67,33,0,0.000,0,0,225.475,2.376,-32.200,-215.300,58.720,0.576,-0.109,0.743,0.466,-2.330,-0.916,0.000,0.000,0.000,0.000,0,0,0,0,7,255,0,250,0,0,-10.523,39.994,16.948,-10.523,39.994,16.948
304289.799,-0.918,0.134,-0.333,0.170,77,91,61,72,22,0,49,51,0,0.000,0,0,222.720,2.376,-41.900,-209.820,61.840,0.575,-0.117,0.745,0.466,-2.330,-0.864,0.000,0.000,0.000,0.000,0,0,0,0,7,255,0,250,0,0,-10.214,41.082,17.100,-10.214,41.082,17.100
304294.799,-0.914,0.133,-0.342,0.170,59,108,57,56,41,0,35,12,0,0.000,0,0,220.280,2.452,-48.180,-204.800,65.260,0.566,-0.109,0.757,0.380,-2.422,-0.860,0.000,0.000,0.000,0.000,0,0,0,0,7,255,0,250,0,0,-9.846,42.148,17.291,-9.846,42.148,17.291
304299.799,-0.911,0.131,-0.351,0.171,51,68,57,49,27,0,47,21,0,0.000,0,0,212.895,2.422,-53.560,-194.740,67.320,0.559,-0.096,0.770,0.044,-2.422,-0.822,0.000,0.000,0.000,0.000,0,0,0,0,7,255,0,250,0,0,-9.422,43.164,17.521,-9.422,43.164,17.521
304304.799,-0.908,0.129,-0.359,0.172,75,77,85,59,16,0,61,51,0,0.000,0,0,202.926,2.385,-57.580,-182.160,68.420,0.539,-0.087,0.774,-0.298,-2.366,-0.822,0.000,0.000,0.000,0.000,0,0,0,0,7,255,0,250,0,0,-8.950,44.118,17.786,-8.950,44.118,17.786
304309.800,-0.905,0.127,-0.366,0.173,45,61,45,33,23,0,46,11,0,0.000,0,0,191.817,2.436,-57.460,-170.200,67.260,0.532,-0.079,0.776,-0.656,-2.346,-0.862,0.000,0.000,0.000,0.000,0,0,0,0,7,255,0,250,0,0,-8.462,45.011,18.072,-8.462,45.011,18.072
304314.799,-0.903,0.125,-0.373,0.173,77,68,77,57,19,0,47,45,0,0.000,0,0,176.111,2.455,-52.880,-155.000,64.760,0.533,-0.065,0.783,-0.904,-2.282,-0.862,0.000,0.000,0.000,0.000,0,0,0,0,7,255,0,250,0,0,-7.984,45.824,18.371,-7.984,45.824,18.371
304319.799,-0.900,0.124,-0.379,0.174,56,93,57,39,43,4,66,21,0,0.000,0,0,157.172,2.447,-43.900,-138.580,59.760,0.544,-0.056,0.784,-1.130,-2.170,-0.850,0.000,0.000,0.000,0.000,0,0,0,0,7,255,0,250,0,0,-7.553,46.552,18.663,-7.553,46.552,18.663
304324.799,-0.898,0.123,-0.385,0.175,87,98,67,63,20,0,44,40,0,0.000,0,0,136.842,2.397,-29.440,-122.100,54.320,0.559,-0.026,0.786,-1.228,-2.058,-0.766,0.000,0.000,0.000,0.000,0,0,0,0,7,255,0,250,0,0,-7.202,47.192,18.942,-7.202,47.192,18.942
304329.799,-0.896,0.122,-0.389,0.176,85,91,61,73,24,0,44,45,0,0.000,0,0,117.633,2.237,-12.960,-106.780,47.620,0.574,-0.011,0.790,-1.370,-1.768,-0.642,0.000,0.000,0.000,0.000,0,0,0,0,7,255,0,250,0,0,-6.951,47.752,19.194,-6.951,47.752,19.194
304334.799,-0.894,0.122,-0.393,0.178,59,101,53,40,40,1,54,18,0,0.000,0,0,101.852,2.117,5.220,-93.480,40.100,0.591,-0.015,0.779,-1.370,-1.614,-0.506,0.000,0.000,0.000,0.000,0,0,0,0,7,255,0,250,0,0,-6.817,48.240,19.408,-6.817,48.240,19.408
304339.799,-0.892,0.123,-0.396,0.179,85,105,57,45,28,0,31,19,0,0.000,0,0,88.846,2.082,22.680,-79.800,31.800,0.616,-0.017,0.751,-1.342,-1.592,-0.474,0.000,0.000,0.000,0.000,0,0,0,0,7,255,0,250,0,0,-6.806,48.656,19.575,-6.806,48.656,19.575
304344.799,-0.891,0.125,-0.399,0.180,75,63,86,58,23,0,85,37,0,0.000,0,0,78.471,1.822,34.340,-66.800,22.720,0.640,-0.018,0.725,-1.060,-1.482,-0.474,0.000,0.000,0.000,0.000,0,0,0,0,7,255,0,250,0,0,-6.894,49.001,19.685,-6.894,49.001,19.685
304349.799,-0.889,0.126,-0.400,0.181,55,61,99,44,33,0,62,42,0,0.000,0,0,69.621,1.603,39.960,-54.720,16.000,0.662,-0.028,0.709,-0.780,-1.400,-0.474,0.000,0.000,0.000,0.000,0,0,0,0,7,255,0,250,0,0,-7.039,49.283,19.756,-7.039,49.283,19.756
304354.799,-0.888,0.128,-0.402,0.182,78,89,51,57,35,0,37,17,0,0.000,0,0,59.563,1.501,39.460,-43.000,11.900,0.680,-0.042,0.706,-0.542,-1.400,-0.432,0.000,0.000,0.000,0.000,0,0,0,0,7,255,0,250,0,0,-7.198,49.504,19.806,-7.198,49.504,19.806
304359.801,-0.888,0.129,-0.403,0.183,57,87,53,44,29,6,43,16,0,0.000,0,0,47.618,1.471,34.640,-31.040,10.200,0.692,-0.042,0.688,-0.378,-1.422,-0.362,0.000,0.000,0.000,0.000,0,0,0,0,7,255,0,250,0,0,-7.328,49.661,19.857,-7.328,49.661,19.857
304364.799,-0.887,0.130,-0.403,0.183,83,92,69,67,21,0,46,44,0,0.000,0,0,36.104,1.436,28.540,-21.160,6.420,0.706,-0.041,0.684,-0.200,-1.422,-0.332,0.000,0.000,0.000,0.000,0,0,0,0,7,255,0,250,0,0,-7.431,49.762,19.892,-7.431,49.762,19.892
304369.800,-0.887,0.131,-0.404,0.184,53,87,46,43,41,0,60,21,0,0.000,0,0,24.975,1.426,21.940,-10.360,5.920,0.711,-0.058,0.682,-0.106,-1.422,-0.290,0.000,0.000,0.000,0.000,0,0,0,0,7,255,0,250,0,0,-7.481,49.805,19.942,-7.481,49.805,19.942
304374.799,-0.887,0.131,-0.403,0.184,67,93,52,40,22,0,45,13,0,0.000,0,0,17.237,1.390,15.840,-1.020,6.720,0.720,-0.049,0.668,0.004,-1.390,-0.284,0.000,0.000,0.000,0.000,0,0,0,0,7,255,0,250,0,0,-7.485,49.803,20.008,-7.485,49.803,20.008
304379.799,-0.887,0.131,-0.403,0.185,80,73,48,75,17,0,33,43,0,0.000,0,0,15.964,1.389,11.580,7.780,7.760,0.731,-0.041,0.660,0.114,-1.384,-0.274,0.000,0.000,0.000,0.000,0,0,0,0,7,255,0,250,0,0,-7.455,49.761,20.090,-7.455,49.761,20.090
304384.799,-0.887,0.131,-0.402,0.185,83,97,81,61,28,0,33,47,0,0.000,0,0,21.078,1.263,9.440,16.820,8.500,0.738,-0.030,0.653,0.204,-1.246,-0.244,0.000,0.000,0.000,0.000,0,0,0,0,7,255,0,250,0,0,-7.412,49.678,20.184,-7.412,49.678,20.184
304389.799,-0.887,0.131,-0.401,0.186,67,83,57,35,39,0,41,16,0,0.000,0,0,29.053,1.131,9.140,26.280,8.360,0.741,-0.021,0.651,0.254,-1.102,-0.230,0.000,0.000,0.000,0.000,0,0,0,0,7,255,0,250,0,0,-7.369,49.551,20.282,-7.369,49.551,20.282
304394.799,-0.888,0.131,-0.400,0.187,88,98,60,73,13,0,40,53,0,0.000,0,0,37.018,1.036,10.220,34.640,8.120,0.743,-0.017,0.654,0.270,-1.000,-0.212,0.000,0.000,0.000,0.000,0,0,0,0,7,255,0,250,0,0,-7.333,49.382,20.383,-7.333,49.382,20.383
304399.800,-0.888,0.131,-0.398,0.187,89,99,54,71,28,1,45,24,0,0.000,0,0,45.468,0.995,11.580,43.300,7.640,0.741,-0.012,0.662,0.270,-0.958,-0.174,0.000,0.000,0.000,0.000,0,0,0,0,7,255,0,250,0,0,-7.308,49.171,20.486,-7.308,49.171,20.486
304404.799,-0.889,0.131,-0.396,0.188,55,89,57,44,41,0,58,9,0,0.000,0,0,55.992,0.962,12.540,53.980,8.000,0.729,-0.009,0.667,0.222,-0.936,-0.174,0.000,0.000,0.000,0.000,0,0,0,0,7,255,0,250,0,0,-7.285,48.909,20.599,-7.285,48.909,20.599
304409.799,-0.890,0.131,-0.394,0.189,55,99,89,45,37,0,53,9,0,0.000,0,0,67.998,0.947,13.220,66.000,9.640,0.713,-0.014,0.677,0.142,-0.936,-0.188,0.000,0.000,0.000,0.000,0,0,0,0,7,255,0,250,0,0,-7.248,48.588,20.735,-7.248,48.588,20.735
304414.799,-0.891,0.130,-0.390,0.190,69,83,84,76,18,0,45,45,0,0.000,0,0,83.052,1.024,12.860,81.080,12.580,0.693,-0.018,0.698,0.056,-1.022,-0.238,0.000,0.000,0.000,0.000,0,0,0,0,7,255,0,250,0,0,-7.185,48.194,20.906,-7.185,48.194,20.906
304419.799,-0.893,0.130,-0.387,0.192,81,57,83,74,20,0,39,37,0,0.000,0,0,99.675,1.162,10.960,97.740,16.180,0.662,-0.022,0.719,-0.118,-1.156,-0.256,0.000,0.000,0.000,0.000,0,0,0,0,7,255,0,250,0,0,-7.083,47.719,21.116,-7.083,47.719,21.116
304424.799,-0.894,0.129,-0.382,0.193,82,89,85,58,15,0,29,45,0,0.000,0,0,117.196,1.351,9.000,115.080,20.260,0.630,-0.019,0.746,-0.352,-1.304,-0.344,0.000,0.000,0.000,0.000,0,0,0,0,7,255,0,250,0,0,-6.941,47.161,21.368,-6.941,47.161,21.368
304429.799,-0.896,0.127,-0.377,0.195,77,88,46,55,27,0,31,11,0,0.000,0,0,135.422,1.546,8.100,132.900,24.720,0.600,-0.021,0.767,-0.642,-1.406,-0.380,0.000,0.000,0.000,0.000,0,0,0,0,7,255,0,250,0,0,-6.766,46.516,21.664,-6.766,46.516,21.664
304434.799,-0.899,0.126,-0.371,0.197,91,88,64,75,13,0,42,39,0,0.000,0,0,155.837,1.748,8.880,153.040,28.020,0.563,-0.034,0.788,-0.856,-1.524,-0.442,0.000,0.000,0.000,0.000,0,0,0,0,7,255,0,250,0,0,-6.572,45.773,21.993,-6.572,45.773,21.993
304439.799,-0.901,0.124,-0.364,0.200,75,87,59,49,45,3,57,28,0,0.000,0,0,179.779,2.031,9.320,177.080,29.600,0.528,-0.042,0.806,-1.050,-1.738,-0.548,0.000,0.000,0.000,0.000,0,0,0,0,7,255,0,250,0,0,-6.369,44.910,22.344,-6.369,44.910,22.344
304444.799,-0.904,0.122,-0.356,0.202,61,87,45,43,42,5,51,7,0,0.000,0,0,203.058,2.258,9.500,200.700,29.360,0.503,-0.042,0.815,-1.224,-1.898,-0.650,0.000,0.000,0.000,0.000,0,0,0,0,7,255,0,250,0,0,-6.165,43.929,22.702,-6.165,43.929,22.702
304449.799,-0.907,0.120,-0.348,0.204,55,52,87,57,12,0,47,44,0,0.000,0,0,223.935,2.277,10.220,221.940,28.020,0.494,-0.048,0.818,-1.224,-1.920,-0.716,0.000,0.000,0.000,0.000,0,0,0,0,7,255,0,250,0,0,-5.973,42.841,23.055,-5.973,42.841,23.055
304454.799,-0.910,0.118,-0.338,0.207,98,95,51,57,38,0,38,31,0,0.000,0,0,241.777,2.264,14.140,239.780,27.600,0.488,-0.060,0.812,-1.184,-1.930,-0.724,0.000,0.000,0.000,0.000,0,0,0,0,7,255,0,250,0,0,-5.807,41.663,23.406,-5.807,41.663,23.406
304459.801,-0.914,0.117,-0.328,0.210,81,85,51,63,16,0,36,41,0,0.000,0,0,255.841,2.159,22.260,253.560,25.820,0.490,-0.069,0.793,-0.968,-1.930,-0.776,0.000,0.000,0.000,0.000,0,0,0,0,7,255,0,250,0,0,-5.695,40.414,23.745,-5.695,40.414,23.745
304464.799,-0.917,0.115,-0.317,0.212,83,83,63,43,45,0,43,17,0,0.000,0,0,269.059,1.963,31.900,266.260,21.920,0.514,-0.082,0.776,-0.628,-1.860,-0.840,0.000,0.000,0.000,0.000,0,0,0,0,7,255,0,250,0,0,-5.654,39.101,24.058,-5.654,39.101,24.058
304469.799,-0.921,0.114,-0.306,0.215,52,61,75,75,12,0,54,41,0,0.000,0,0,282.088,1.760,40.140,278.600,18.560,0.536,-0.080,0.763,-0.120,-1.756,-0.840,0.000,0.000,0.000,0.000,0,0,0,0,7,255,0,250,0,0,-5.672,37.724,24.351,-5.672,37.724,24.351
304474.799,-0.924,0.113,-0.294,0.218,87,91,53,69,22,0,41,24,0,0.000,0,0,293.233,1.566,47.820,288.780,17.460,0.549,-0.065,0.758,0.304,-1.536,-0.790,0.000,0.000,0.000,0.000,0,0,0,0,7,255,0,250,0,0,-5.737,36.297,24.640,-5.737,36.297,24.640
304479.799,-0.927,0.112,-0.281,0.221,57,59,84,83,27,0,75,55,0,0.000,0,0,301.334,1.382,58.200,295.260,15.380,0.548,-0.047,0.786,0.568,-1.260,-0.732,0.000,0.000,0.000,0.000,0,0,0,0,7,255,0,250,0,0,-5.866,34.836,24.917,-5.866,34.836,24.917
304484.799,-0.930,0.112,-0.269,0.223,56,87,79,43,37,6,71,24,0,0.000,0,0,304.266,1.252,63.700,297.200,13.860,0.547,-0.037,0.840,0.568,-1.116,-0.506,0.000,0.000,0.000,0.000,0,0,0,0,7,255,0,250,0,0,-6.033,33.366,25.186,-6.033,33.366,25.186
304489.799,-0.933,0.111,-0.256,0.226,79,108,45,60,26,0,30,20,0,0.000,0,0,303.744,1.227,62.240,297.020,12.880,0.536,-0.029,0.875,0.510,-1.116,-0.074,0.000,0.000,0.000,0.000,0,0,0,0,7,255,0,250,0,0,-6.202,31.896,25.450,-6.202,31.896,25.450
304494.799,-0.936,0.111,-0.244,0.228,79,81,78,62,18,2,49,39,0,0.000,0,0,301.766,1.227,60.340,295.500,10.080,0.510,-0.041,0.875,0.510,-1.116,0.010,0.000,0.000,0.000,0.000,0,0,0,0,7,255,0,250,0,0,-6.375,30.434,25.698,-6.375,30.434,25.698
304499.800,-0.939,0.110,-0.231,0.231,61,73,97,57,22,0,60,43,0,0.000,0,0,298.396,1.357,60.280,292.200,5.080,0.485,-0.057,0.873,0.594,-1.220,0.010,0.000,0.000,0.000,0.000,0,0,0,0,7,255,0,250,0,0,-6.567,28.985,25.917,-6.567,28.985,25.917
304504.799,-0.941,0.109,-0.219,0.233,80,73,51,75,7,0,40,39,0,0.000,0,0,295.229,1.510,56.240,289.820,1.280,0.459,-0.050,0.883,0.696,-1.340,-0.142,0.000,0.000,0.000,0.000,0,0,0,0,7,255,0,250,0,0,-6.754,27.547,26.115,-6.754,27.547,26.115
304509.799,-0.944,0.108,-0.206,0.234,84,95,47,55,11,0,37,40,0,0.000,0,0,293.228,1.510,47.220,289.400,-0.660,0.435,-0.031,0.896,0.696,-1.340,-0.160,0.000,0.000,0.000,0.000,0,0,0,0,7,255,0,250,0,0,-6.904,26.110,26.304,-6.904,26.110,26.304
304514.799,-0.946,0.107,-0.194,0.236,88,98,59,77,24,0,45,51,0,0.000,0,0,291.088,1.405,38.360,288.540,-2.380,0.426,-0.036,0.896,0.696,-1.220,-0.172,0.000,0.000,0.000,0.000,0,0,0,0,7,255,0,250,0,0,-7.018,24.677,26.484,-7.018,24.677,26.484
304519.799,-0.948,0.106,-0.182,0.238,81,87,47,62,10,0,33,23,0,0.000,0,0,289.929,1.451,35.740,287.680,-4.640,0.409,-0.044,0.909,0.786,-1.220,-0.172,0.000,0.000,0.000,0.000,0,0,0,0,7,255,0,250,0,0,-7.128,23.247,26.653,-7.128,23.247,26.653
304524.799,-0.950,0.104,-0.169,0.239,53,77,81,39,25,0,52,15,0,0.000,0,0,287.729,1.557,35.680,285.420,-7.080,0.394,-0.064,0.923,0.874,-1.288,-0.172,0.000,0.000,0.000,0.000,0,0,0,0,7,255,0,250,0,0,-7.246,21.827,26.808,-7.246,21.827,26.808
304529.799,-0.952,0.103,-0.157,0.240,59,99,69,51,39,4,67,19,0,0.000,0,0,283.353,1.793,34.940,281.100,-7.140,0.392,-0.079,0.933,1.040,-1.460,-0.136,0.000,0.000,0.000,0.000,0,0,0,0,7,255,0,250,0,0,-7.365,20.429,26.962,-7.365,20.429,26.962
304534.799,-0.954,0.101,-0.145,0.241,79,89,57,61,16,0,38,40,0,0.000,0,0,278.774,1.991,33.300,276.700,-6.580,0.411,-0.093,0.950,1.290,-1.516,-0.080,0.000,0.000,0.000,0.000,0,0,0,0,7,255,0,250,0,0,-7.479,19.053,27.117,-7.479,19.053,27.117
304539.799,-0.956,0.100,-0.134,0.242,85,89,52,69,19,0,33,29,0,0.000,0,0,273.041,2.284,30.680,271.200,-7.800,0.421,-0.107,0.976,1.698,-1.528,0.102,0.000,0.000,0.000,0.000,0,0,0,0,7,255,0,250,0,0,-7.586,17.704,27.263,-7.586,17.704,27.263
304544.799,-0.957,0.098,-0.123,0.243,71,57,74,57,16,0,53,45,0,0.000,0,0,262.136,2.552,22.800,260.960,-9.760,0.413,-0.111,0.995,2.020,-1.560,0.330,0.000,0.000,0.000,0.000,0,0,0,0,7,255,0,250,0,0,-7.661,16.405,27.394,-7.661,16.405,27.394
304549.799,-0.959,0.096,-0.112,0.244,75,59,55,71,8,0,40,39,0,0.000,0,0,246.013,2.656,13.520,245.320,-12.560,0.406,-0.103,1.004,2.150,-1.560,0.444,0.000,0.000,0.000,0.000,0,0,0,0,7,255,0,250,0,0,-7.699,15.181,27.499,-7.699,15.181,27.499
304554.799,-0.960,0.094,-0.103,0.244,59,93,53,45,33,0,51,24,0,0.000,0,0,227.463,2.665,4.680,226.840,-16.160,0.394,-0.094,1.024,2.234,-1.454,0.500,0.000,0.000,0.000,0.000,0,0,0,0,7,255,0,250,0,0,-7.703,14.047,27.573,-7.703,14.047,27.573
304559.800,-0.961,0.091,-0.094,0.244,59,63,87,39,28,0,63,43,0,0.000,0,0,209.173,2.626,-4.660,208.340,-18.060,0.356,-0.061,1.027,2.234,-1.380,0.604,0.000,0.000,0.000,0.000,0,0,0,0,7,255,0,250,0,0,-7.668,13.003,27.625,-7.668,13.003,27.625
304564.799,-0.962,0.089,-0.086,0.244,87,90,79,83,11,0,54,57,0,0.000,0,0,192.340,2.266,-9.480,191.060,-20.020,0.315,-0.037,1.011,1.936,-1.178,0.604,0.000,0.000,0.000,0.000,0,0,0,0,7,255,0,250,0,0,-7.613,12.043,27.653,-7.613,12.043,27.653
304569.800,-0.963,0.087,-0.078,0.244,59,72,83,45,46,9,59,23,0,0.000,0,0,178.373,1.936,-7.100,176.780,-22.700,0.270,-0.016,1.010,1.638,-1.032,0.374,0.000,0.000,0.000,0.000,0,0,0,0,7,255,0,250,0,0,-7.576,11.152,27.657,-7.576,11.152,27.657
304574.799,-0.964,0.085,-0.071,0.243,85,107,61,63,26,0,45,47,0,0.000,0,0,170.447,1.620,-1.560,168.540,-25.380,0.232,-0.001,1.015,1.294,-0.974,0.296,0.000,0.000,0.000,0.000,0,0,0,0,7,255,0,250,0,0,-7.571,10.300,27.642,-7.571,10.300,27.642
304579.799,-0.964,0.084,-0.064,0.243,81,79,51,67,21,0,41,53,0,0.000,0,0,165.743,1.418,3.400,163.540,-26.720,0.193,0.002,1.027,1.030,-0.974,0.296,0.000,0.000,0.000,0.000,0,0,0,0,7,255,0,250,0,0,-7.592,9.473,27.617,-7.592,9.473,27.617
304584.799,-0.965,0.082,-0.057,0.242,79,90,56,43,41,0,43,11,0,0.000,0,0,163.541,1.334,5.720,161.340,-26.120,0.155,0.000,1.026,0.804,-1.064,0.284,0.000,0.000,0.000,0.000,0,0,0,0,7,255,0,250,0,0,-7.623,8.656,27.594,-7.623,8.656,27.594
304589.799,-0.966,0.081,-0.050,0.242,68,75,89,69,19,0,49,47,0,0.000,0,0,164.240,1.372,8.880,162.080,-25.020,0.141,-0.011,1.012,0.682,-1.190,0.254,0.000,0.000,0.000,0.000,0,0,0,0,7,255,0,250,0,0,-7.670,7.836,27.578,-7.670,7.836,27.578
304594.799,-0.966,0.080,-0.043,0.241,46,77,81,43,47,0,63,10,0,0.000,0,0,166.046,1.438,11.940,163.660,-25.380,0.136,-0.025,1.007,0.682,-1.266,0.082,0.000,0.000,0.000,0.000,0,0,0,0,7,255,0,250,0,0,-7.731,7.009,27.562,-7.731,7.009,27.562
304599.800,-0.967,0.079,-0.036,0.241,85,69,53,76,19,0,38,57,0,0.000,0,0,166.789,1.569,12.800,164.340,-25.440,0.142,-0.034,1.000,0.838,-1.326,0.008,0.000,0.000,0.000,0.000,0,0,0,0,7,255,0,250,0,0,-7.796,6.178,27.547,-7.796,6.178,27.547
304604.799,-0.967,0.078,-0.029,0.240,77,92,51,46,35,0,41,18,0,0.000,0,0,164.909,1.711,11.580,162.560,-25.200,0.138,-0.044,1.010,1.064,-1.340,0.006,0.000,0.000,0.000,0.000,0,0,0,0,7,255,0,250,0,0,-7.855,5.356,27.532,-7.855,5.356,27.532
304609.799,-0.968,0.076,-0.022,0.240,105,97,47,61,12,0,31,41,0,0.000,0,0,161.763,1.746,6.320,159.940,-23.380,0.105,-0.045,1.029,1.064,-1.384,0.006,0.000,0.000,0.000,0.000,0,0,0,0,7,255,0,250,0,0,-7.887,4.548,27.526,-7.887,4.548,27.526
304614.799,-0.968,0.075,-0.015,0.239,88,81,59,72,23,0,41,45,0,0.000,0,0,160.879,1.844,-0.520,159.320,-22.340,0.063,-0.047,1.033,1.050,-1.516,0.150,0.000,0.000,0.000,0.000,0,0,0,0,7,255,0,250,0,0,-7.886,3.744,27.525,-7.886,3.744,27.525
304619.799,-0.968,0.073,-0.009,0.239,75,63,80,68,24,0,43,43,0,0.000,0,0,160.686,1.890,-3.500,159.140,-21.960,0.049,-0.064,1.023,0.896,-1.664,0.150,0.000,0.000,0.000,0.000,0,0,0,0,7,255,0,250,0,0,-7.868,2.941,27.525,-7.868,2.941,27.525
304624.799,-0.969,0.071,-0.002,0.239,59,85,59,45,45,2,53,17,0,0.000,0,0,158.526,2.000,-3.880,157.000,-21.600,0.040,-0.074,1.015,0.896,-1.788,0.036,0.000,0.000,0.000,0.000,0,0,0,0,7,255,0,250,0,0,-7.848,2.149,27.525,-7.848,2.149,27.525
304629.799,-0.969,0.069,0.005,0.238,79,88,61,45,35,0,43,19,0,0.000,0,0,154.522,2.048,-4.300,152.740,-23.000,0.010,-0.078,1.009,0.896,-1.842,-0.062,0.000,0.000,0.000,0.000,0,0,0,0,7,255,0,250,0,0,-7.827,1.377,27.515,-7.827,1.377,27.515
304634.799,-0.969,0.067,0.011,0.237,51,81,93,71,25,0,63,39,0,0.000,0,0,150.539,2.116,-6.560,148.280,-25.140,-0.023,-0.082,1.008,0.846,-1.940,-0.132,0.000,0.000,0.000,0.000,0,0,0,0,7,255,0,250,0,0,-7.794,0.626,27.491,-7.794,0.626,27.491
304639.799,-0.969,0.065,0.017,0.237,89,68,69,62,19,0,29,47,0,0.000,0,0,148.328,2.102,-9.120,145.660,-26.480,-0.030,-0.078,0.998,0.710,-1.978,-0.148,0.000,0.000,0.000,0.000,0,0,0,0,7,255,0,250,0,0,-7.748,-0.113,27.459,-7.748,-0.113,27.459
304644.799,-0.969,0.063,0.023,0.236,51,70,89,42,45,7,70,38,0,0.000,0,0,146.109,2.102,-10.960,143.040,-27.700,-0.018,-0.073,0.995,0.710,-1.978,-0.238,0.000,0.000,0.000,0.000,0,0,0,0,7,255,0,250,0,0,-7.692,-0.840,27.417,-7.692,-0.840,27.417
304649.799,-0.970,0.061,0.029,0.235,77,62,79,60,22,0,43,47,0,0.000,0,0,143.140,2.022,-13.700,139.800,-27.520,-0.015,-0.066,0.989,0.890,-1.816,-0.256,0.000,0.000,0.000,0.000,0,0,0,0,7,255,0,250,0,0,-7.622,-1.551,27.374,-7.622,-1.551,27.374
304654.799,-0.970,0.059,0.034,0.234,55,85,60,47,37,2,67,23,0,0.000,0,0,139.093,1.935,-17.360,135.580,-25.760,-0.014,-0.057,0.985,0.978,-1.670,-0.302,0.000,0.000,0.000,0.000,0,0,0,0,7,255,0,250,0,0,-7.534,-2.240,27.336,-7.534,-2.240,27.336
304659.800,-0.970,0.057,0.040,0.234,79,60,54,63,9,0,41,42,0,0.000,0,0,134.266,1.841,-20.540,130.400,-24.520,-0.006,-0.050,0.988,1.038,-1.520,-0.302,0.000,0.000,0.000,0.000,0,0,0,0,7,255,0,250,0,0,-7.429,-2.902,27.299,-7.429,-2.902,27.299
304664.799,-0.970,0.055,0.045,0.233,83,85,77,81,21,0,37,41,0,0.000,0,0,128.114,1.790,-23.960,123.560,-23.920,-0.010,-0.037,0.995,1.166,-1.358,-0.294,0.000,0.000,0.000,0.000,0,0,0,0,7,255,0,250,0,0,-7.306,-3.530,27.260,-7.306,-3.530,27.260
304669.799,-0.970,0.052,0.049,0.233,59,59,77,62,9,0,39,40,0,0.000,0,0,119.714,1.673,-27.300,114.340,-22.640,-0.019,-0.023,0.993,1.166,-1.200,-0.216,0.000,0.000,0.000,0.000,0,0,0,0,7,255,0,250,0,0,-7.167,-4.111,27.219,-7.167,-4.111,27.219
304674.799,-0.970,0.050,0.054,0.232,53,89,60,49,43,2,56,19,0,0.000,0,0,109.920,1.525,-27.000,104.340,-21.600,-0.021,-0.008,0.990,1.100,-1.056,-0.216,0.000,0.000,0.000,0.000,0,0,0,0,7,255,0,250,0,0,-7.028,-4.641,27.176,-7.028,-4.641,27.176
304679.799,-0.970,0.048,0.057,0.231,69,64,83,67,22,0,59,37,0,0.000,0,0,98.035,1.391,-22.540,93.220,-20.320,-0.028,-0.007,0.991,1.080,-0.876,-0.214,0.000,0.000,0.000,0.000,0,0,0,0,7,255,0,250,0,0,-6.911,-5.116,27.132,-6.911,-5.116,27.132
304684.799,-0.970,0.047,0.061,0.231,59,95,65,49,45,4,39,17,0,0.000,0,0,84.699,1.366,-16.740,81.080,-17.880,-0.045,-0.003,0.998,1.076,-0.842,-0.210,0.000,0.000,0.000,0.000,0,0,0,0,7,255,0,250,0,0,-6.823,-5.529,27.091,-6.823,-5.529,27.091
304689.799,-0.970,0.045,0.064,0.230,87,91,52,59,20,0,30,18,0,0.000,0,0,71.817,1.292,-10.400,69.240,-15.980,-0.062,-0.005,1.007,0.980,-0.842,-0.120,0.000,0.000,0.000,0.000,0,0,0,0,7,255,0,250,0,0,-6.766,-5.882,27.053,-6.766,-5.882,27.053
304694.799,-0.970,0.044,0.066,0.230,88,90,60,76,20,0,38,28,0,0.000,0,0,60.591,1.281,-4.720,58.680,-14.340,-0.071,-0.008,1.014,0.902,-0.910,-0.024,0.000,0.000,0.000,0.000,0,0,0,0,7,255,0,250,0,0,-6.738,-6.181,27.016,-6.738,-6.181,27.016
304699.801,-0.970,0.044,0.068,0.229,59,71,81,79,24,0,40,51,0,0.000,0,0,50.612,1.304,-0.640,49.160,-12.020,-0.071,-0.010,1.014,0.902,-0.942,0.044,0.000,0.000,0.000,0.000,0,0,0,0,7,255,0,250,0,0,-6.727,-6.431,26.984,-6.727,-6.431,26.984
304704.799,-0.970,0.043,0.070,0.229,84,75,85,83,21,0,40,44,0,0.000,0,0,41.781,1.328,1.860,40.740,-9.080,-0.066,-0.009,1.009,0.936,-0.942,0.044,0.000,0.000,0.000,0.000,0,0,0,0,7,255,0,250,0,0,-6.721,-6.634,26.962,-6.721,-6.634,26.962
304709.799,-0.970,0.043,0.071,0.229,52,83,83,41,39,0,69,23,0,0.000,0,0,33.044,1.343,3.640,32.260,-6.160,-0.061,-0.009,1.001,0.998,-0.898,-0.010,0.000,0.000,0.000,0.000,0,0,0,0,7,255,0,250,0,0,-6.716,-6.789,26.949,-6.716,-6.789,26.949
304714.799,-0.970,0.043,0.072,0.229,85,75,82,71,26,0,41,43,0,0.000,0,0,23.852,1.353,4.860,23.100,-3.420,-0.061,-0.007,0.994,1.048,-0.856,-0.086,0.000,0.000,0.000,0.000,0,0,0,0,7,255,0,250,0,0,-6.710,-6.893,26.943,-6.710,-6.893,26.943
304719.799,-0.970,0.043,0.072,0.229,77,61,85,73,10,0,47,40,0,0.000,0,0,15.182,1.352,5.840,13.820,-2.320,-0.070,-0.006,0.988,1.048,-0.854,-0.162,0.000,0.000,0.000,0.000,0,0,0,0,7,255,0,250,0,0,-6.701,-6.949,26.937,-6.701,-6.949,26.937
304724.799,-0.970,0.043,0.073,0.229,91,92,60,66,21,0,43,41,0,0.000,0,0,9.122,1.286,6.320,6.060,-2.560,-0.085,-0.004,0.986,0.962,-0.854,-0.202,0.000,0.000,0.000,0.000,0,0,0,0,7,255,0,250,0,0,-6.695,-6.971,26.926,-6.695,-6.971,26.926
304729.799,-0.970,0.042,0.073,0.228,89,64,61,64,19,0,38,44,0,0.000,0,0,6.889,1.209,5.780,1.920,-3.220,-0.092,0.000,0.988,0.818,-0.890,-0.202,0.000,0.000,0.000,0.000,0,0,0,0,7,255,0,250,0,0,-6.686,-6.974,26.909,-6.686,-6.974,26.909
304734.799,-0.970,0.042,0.072,0.228,59,93,69,43,47,0,55,25,0,0.000,0,0,6.295,1.206,4.500,-1.320,-4.200,-0.085,-0.002,0.987,0.814,-0.890,-0.194,0.000,0.000,0.000,0.000,0,0,0,0,7,255,0,250,0,0,-6.670,-6.959,26.885,-6.670,-6.959,26.885
304739.799,-0.970,0.042,0.072,0.228,87,87,59,61,35,0,29,15,0,0.000,0,0,8.462,1.199,2.840,-6.620,-4.440,-0.068,-0.003,0.990,0.814,-0.880,-0.180,0.000,0.000,0.000,0.000,0,0,0,0,7,255,0,250,0,0,-6.644,-6.914,26.856,-6.644,-6.914,26.856
304744.799,-0.970,0.042,0.071,0.228,48,70,76,39,43,0,67,12,0,0.000,0,0,15.306,1.254,1.620,-14.680,-4.020,-0.058,0.002,0.991,0.956,-0.812,-0.180,0.000,0.000,0.000,0.000,0,0,0,0,7,255,0,250,0,0,-6.614,-6.826,26.825,-6.614,-6.826,26.825
304749.799,-0.970,0.042,0.070,0.228,54,69,77,33,29,2,73,14,0,0.000,0,0,25.633,1.241,1.920,-25.420,-2.680,-0.049,0.008,0.993,1.008,-0.724,-0.180,0.000,0.000,0.000,0.000,0,0,0,0,7,255,0,250,0,0,-6.596,-6.686,26.795,-6.596,-6.686,26.795
304754.799,-0.970,0.043,0.068,0.228,44,61,81,39,37,0,64,19,0,0.000,0,0,38.579,1.226,4.500,-38.300,-1.100,-0.035,0.013,0.994,1.042,-0.646,-0.158,0.000,0.000,0.000,0.000,0,0,0,0,7,255,0,250,0,0,-6.602,-6.487,26.766,-6.602,-6.487,26.766
304759.799,-0.971,0.044,0.066,0.227,72,75,55,73,28,0,45,57,0,0.000,0,0,54.391,1.247,7.900,-53.800,1.220,-0.007,0.017,0.993,1.118,-0.552,-0.158,0.000,0.000,0.000,0.000,0,0,0,0,7,255,0,250,0,0,-6.638,-6.219,26.741,-6.638,-6.219,26.741
304764.801,-0.971,0.045,0.063,0.227,65,89,57,71,15,0,33,25,0,0.000,0,0,74.244,1.371,10.840,-73.340,3.980,0.020,0.022,0.995,1.302,-0.428,-0.188,0.000,0.000,0.000,0.000,0,0,0,0,7,255,0,250,0,0,-6.689,-5.852,26.718,-6.689,-5.852,26.718
304769.799,-0.971,0.046,0.059,0.228,87,93,53,43,43,0,44,18,0,0.000,0,0,97.830,1.498,13.100,-96.720,6.660,0.044,0.024,0.995,1.468,-0.298,-0.190,0.000,0.000,0.000,0.000,0,0,0,0,7,255,0,250,0,0,-6.752,-5.368,26.694,-6.752,-5.368,26.694
304774.799,-0.971,0.048,0.054,0.228,87,93,59,69,7,0,37,18,0,0.000,0,0,125.369,1.613,15.120,-124.060,9.900,0.076,0.024,0.991,1.598,-0.220,-0.200,0.000,0.000,0.000,0.000,0,0,0,0,7,255,0,250,0,0,-6.825,-4.745,26.670,-6.825,-4.745,26.670
304779.799,-0.971,0.051,0.048,0.228,81,60,89,72,21,5,49,41,0,0.000,0,0,155.980,1.791,15.720,-154.640,13.000,0.104,0.038,0.986,1.786,-0.134,-0.252,0.000,0.000,0.000,0.000,0,0,0,0,7,255,0,250,0,0,-6.901,-3.970,26.642,-6.901,-3.970,26.642
304784.799,-0.971,0.053,0.040,0.228,77,91,55,67,29,0,41,22,0,0.000,0,0,190.172,1.862,11.320,-189.480,11.600,0.139,0.054,0.971,1.862,0.038,-0.284,0.000,0.000,0.000,0.000,0,0,0,0,7,255,0,250,0,0,-6.954,-3.022,26.585,-6.954,-3.022,26.585
304789.799,-0.972,0.055,0.030,0.228,47,67,53,37,30,0,57,19,0,0.000,0,0,230.610,1.954,0.820,-230.500,7.080,0.198,0.043,0.937,1.936,0.266,-0.404,0.000,0.000,0.000,0.000,0,0,0,0,7,255,0,250,0,0,-6.953,-1.873,26.481,-6.953,-1.873,26.481
304794.799,-0.972,0.058,0.018,0.227,77,57,69,71,27,0,36,40,0,0.000,0,0,276.104,2.337,-9.920,-275.920,1.780,0.264,0.019,0.920,2.308,0.364,-0.728,0.000,0.000,0.000,0.000,0,0,0,0,7,255,0,250,0,0,-6.899,-0.502,26.323,-6.899,-0.502,26.323
304799.801,-0.972,0.060,0.004,0.226,77,95,56,63,22,0,35,45,0,0.000,0,0,319.906,2.806,-15.960,-319.500,-2.200,0.298,-0.004,0.941,2.782,0.364,-0.728,0.000,0.000,0.000,0.000,0,0,0,0,7,255,0,250,0,0,-6.820,1.083,26.122,-6.820,1.083,26.122
304804.799,-0.972,0.063,-0.011,0.225,54,69,83,36,28,4,75,44,0,0.000,0,0,355.695,2.804,-15.960,-355.320,-3.480,0.310,-0.002,0.979,2.798,0.178,-0.618,0.000,0.000,0.000,0.000,0,0,0,0,7,255,0,250,0,0,-6.748,2.845,25.894,-6.748,2.845,25.894
304809.799,-0.972,0.066,-0.027,0.224,79,92,47,60,35,0,33,24,0,0.000,0,0,381.023,2.799,-9.000,-380.900,-3.540,0.309,0.007,1.025,2.798,0.078,-0.162,0.000,0.000,0.000,0.000,0,0,0,0,7,255,0,250,0,0,-6.718,4.734,25.653,-6.718,4.734,25.653
304814.799,-0.971,0.070,-0.044,0.222,87,85,55,45,33,0,59,21,0,0.000,0,0,396.238,2.455,0.400,-396.220,-3.720,0.303,0.000,1.078,2.454,-0.058,0.374,0.000,0.000,0.000,0.000,0,0,0,0,7,255,0,250,0,0,-6.743,6.700,25.401,-6.743,6.700,25.401
304819.799,-0.971,0.074,-0.061,0.221,43,71,73,53,41,6,71,20,0,0.000,0,0,401.783,2.117,7.180,-401.700,-3.840,0.299,-0.016,1.126,2.082,-0.386,0.938,0.000,0.000,0.000,0.000,0,0,0,0,7,255,0,250,0,0,-6.813,8.692,25.143,-6.813,8.692,25.143
304824.799,-0.969,0.079,-0.078,0.220,69,77,45,73,16,0,38,43,0,0.000,0,0,398.439,1.923,10.360,-398.280,-4.380,0.308,-0.040,1.164,1.746,-0.806,1.436,0.000,0.000,0.000,0.000,0,0,0,0,7,255,0,250,0,0,-6.908,10.667,24.879,-6.908,10.667,24.879
304829.799,-0.968,0.083,-0.094,0.218,47,71,85,39,41,0,63,17,0,0.000,0,0,388.631,1.968,8.460,-388.520,-3.840,0.316,-0.051,1.180,1.530,-1.238,1.812,0.000,0.000,0.000,0.000,0,0,0,0,7,255,0,250,0,0,-7.002,12.593,24.620,-7.002,12.593,24.620
304834.799,-0.966,0.086,-0.110,0.216,70,73,55,72,20,0,39,51,0,0.000,0,0,375.847,1.987,1.140,-375.820,-4.320,0.321,-0.049,1.170,1.280,-1.520,1.920,0.000,0.000,0.000,0.000,0,0,0,0,7,255,0,250,0,0,-7.068,14.455,24.361,-7.068,14.455,24.361
304839.799,-0.964,0.089,-0.125,0.215,86,93,48,69,31,0,47,28,0,0.000,0,0,363.599,1.907,-11.140,-363.380,-5.920,0.342,-0.063,1.131,0.974,-1.640,1.920,0.000,0.000,0.000,0.000,0,0,0,0,7,255,0,250,0,0,-7.081,16.255,24.098,-7.081,16.255,24.098
304844.799,-0.963,0.091,-0.140,0.213,83,97,67,63,10,0,43,40,0,0.000,0,0,355.110,2.003,-26.020,-354.100,-6.280,0.388,-0.083,1.075,0.974,-1.750,1.604,0.000,0.000,0.000,0.000,0,0,0,0,7,255,0,250,0,0,-7.027,18.008,23.838,-7.027,18.008,23.838
304849.799,-0.961,0.093,-0.155,0.211,50,77,61,31,37,6,61,23,0,0.000,0,0,351.315,2.139,-38.540,-349.100,-8.120,0.425,-0.096,1.032,1.224,-1.754,1.202,0.000,0.000,0.000,0.000,0,0,0,0,7,255,0,250,0,0,-6.920,19.736,23.572,-6.920,19.736,23.572
304854.799,-0.958,0.094,-0.170,0.209,75,69,49,58,17,0,33,41,0,0.000,0,0,349.731,2.168,-49.760,-346.040,-9.580,0.444,-0.092,1.006,1.274,-1.754,0.924,0.000,0.000,0.000,0.000,0,0,0,0,7,255,0,250,0,0,-6.766,21.448,23.301,-6.766,21.448,23.301
304859.800,-0.956,0.095,-0.185,0.206,87,90,55,73,33,0,46,24,0,0.000,0,0,348.784,2.121,-58.980,-343.540,-12.320,0.453,-0.089,0.984,1.274,-1.696,0.782,0.000,0.000,0.000,0.000,0,0,0,0,7,255,0,250,0,0,-6.578,23.148,23.019,-6.578,23.148,23.019
304864.799,-0.954,0.095,-0.200,0.204,51,75,89,53,20,0,67,46,0,0.000,0,0,347.697,2.016,-65.460,-341.100,-16.100,0.451,-0.093,0.960,1.090,-1.696,0.638,0.000,0.000,0.000,0.000,0,0,0,0,7,255,0,250,0,0,-6.371,24.833,22.721,-6.371,24.833,22.721
304869.799,-0.951,0.096,-0.214,0.201,69,103,57,55,43,0,59,20,0,0.000,0,0,344.896,1.963,-70.940,-336.880,-20.800,0.446,-0.104,0.941,0.862,-1.764,0.426,0.000,0.000,0.000,0.000,0,0,0,0,7,255,0,250,0,0,-6.154,26.496,22.402,-6.154,26.496,22.402
304874.799,-0.948,0.095,-0.229,0.198,81,67,57,71,10,0,29,39,0,0.000,0,0,339.957,2.014,-80.100,-329.380,-25.760,0.442,-0.117,0.921,0.638,-1.910,0.236,0.000,0.000,0.000,0.000,0,0,0,0,7,255,0,250,0,0,-5.909,28.121,22.063,-5.909,28.121,22.063
304879.799,-0.946,0.095,-0.243,0.194,79,86,60,69,21,0,39,55,0,0.000,0,0,335.226,2.110,-89.740,-321.500,-31.000,0.442,-0.142,0.899,0.440,-2.064,0.032,0.000,0.000,0.000,0.000,0,0,0,0,7,255,0,250,0,0,-5.634,29.705,21.702,-5.634,29.705,21.702
304884.799,-0.943,0.094,-0.256,0.190,87,88,53,33,39,12,49,13,0,0.000,0,0,329.038,2.314,-95.920,-312.660,-36.180,0.454,-0.158,0.879,0.344,-2.288,-0.180,0.000,0.000,0.000,0.000,0,0,0,0,7,255,0,250,0,0,-5.348,31.244,21.320,-5.348,31.244,21.320
304889.799,-0.940,0.093,-0.269,0.186,52,72,91,53,29,3,69,29,0,0.000,0,0,322.152,2.403,-100.560,-303.440,-39.920,0.468,-0.162,0.855,0.314,-2.382,-0.304,0.000,0.000,0.000,0.000,0,0,0,0,7,255,0,250,0,0,-5.055,32.737,20.923,-5.055,32.737,20.923
304894.799,-0.938,0.091,-0.282,0.182,77,77,67,70,26,0,49,58,0,0.000,0,0,314.246,2.398,-102.940,-293.800,-42.840,0.484,-0.161,0.833,0.276,-2.382,-0.440,0.000,0.000,0.000,0.000,0,0,0,0,7,255,0,250,0,0,-4.763,34.183,20.517,-4.763,34.183,20.517
304899.801,-0.935,0.090,-0.294,0.178,71,90,59,43,35,0,53,21,0,0.000,0,0,306.907,2.334,-103.180,-285.860,-42.780,0.503,-0.159,0.809,0.254,-2.320,-0.540,0.000,0.000,0.000,0.000,0,0,0,0,7,255,0,250,0,0,-4.476,35.591,20.116,-4.476,35.591,20.116
304904.799,-0.932,0.089,-0.306,0.174,79,83,60,68,13,0,35,53,0,0.000,0,0,296.913,2.244,-98.900,-276.900,-41.260,0.531,-0.151,0.781,0.254,-2.230,-0.632,0.000,0.000,0.000,0.000,0,0,0,0,7,255,0,250,0,0,-4.209,36.955,19.731,-4.209,36.955,19.731
304909.799,-0.929,0.087,-0.317,0.170,83,61,107,71,9,0,58,48,0,0.000,0,0,283.310,2.070,-92.120,-265.300,-37.340,0.541,-0.134,0.760,0.254,-2.054,-0.682,0.000,0.000,0.000,0.000,0,0,0,0,7,255,0,250,0,0,-3.964,38.265,19.377,-3.964,38.265,19.377
304914.799,-0.926,0.086,-0.328,0.167,55,64,87,61,12,0,51,51,0,0.000,0,0,267.124,1.873,-85.040,-251.380,-30.520,0.536,-0.108,0.751,0.234,-1.858,-0.782,0.000,0.000,0.000,0.000,0,0,0,0,7,255,0,250,0,0,-3.729,39.509,19.073,-3.729,39.509,19.073
304919.799,-0.923,0.085,-0.338,0.164,91,91,67,75,33,0,41,46,0,0.000,0,0,247.860,1.647,-79.060,-233.680,-24.040,0.527,-0.090,0.738,-0.048,-1.646,-0.870,0.000,0.000,0.000,0.000,0,0,0,0,7,255,0,250,0,0,-3.496,40.668,18.820,-3.496,40.668,18.820
304924.799,-0.920,0.084,-0.347,0.161,51,71,85,38,33,6,67,17,0,0.000,0,0,227.141,1.534,-71.080,-214.880,-19.160,0.518,-0.082,0.721,-0.292,-1.506,-1.026,0.000,0.000,0.000,0.000,0,0,0,0,7,255,0,250,0,0,-3.280,41.735,18.609,-3.280,41.735,18.609
304929.799,-0.917,0.083,-0.355,0.159,59,61,83,61,17,6,73,52,0,0.000,0,0,205.813,1.551,-57.400,-197.000,-15.980,0.519,-0.083,0.726,-0.450,-1.484,-1.196,0.000,0.000,0.000,0.000,0,0,0,0,7,255,0,250,0,0,-3.115,42.715,18.427,-3.115,42.715,18.427
304934.799,-0.915,0.083,-0.363,0.157,75,77,59,59,24,0,37,53,0,0.000,0,0,181.004,1.610,-39.400,-176.360,-10.360,0.514,-0.076,0.753,-0.624,-1.484,-1.196,0.000,0.000,0.000,0.000,0,0,0,0,7,255,0,250,0,0,-3.010,43.593,18.291,-3.010,43.593,18.291
304939.799,-0.913,0.083,-0.369,0.156,58,74,83,50,41,0,58,27,0,0.000,0,0,150.889,1.816,-21.700,-149.320,0.120,0.508,-0.064,0.785,-0.990,-1.522,-1.046,0.000,0.000,0.000,0.000,0,0,0,0,7,255,0,250,0,0,-2.938,44.339,18.237,-2.938,44.339,18.237
304944.799,-0.911,0.084,-0.374,0.156,41,61,74,33,40,8,56,7,0,0.000,0,0,120.424,2.065,-7.160,-119.600,12.100,0.503,-0.062,0.798,-1.380,-1.536,-0.876,0.000,0.000,0.000,0.000,0,0,0,0,7,255,0,250,0,0,-2.872,44.939,18.279,-2.872,44.939,18.279
304949.799,-0.909,0.084,-0.377,0.157,89,91,48,71,35,3,38,28,0,0.000,0,0,95.696,2.251,5.960,-92.680,23.080,0.496,-0.074,0.804,-1.598,-1.586,-0.866,0.000,0.000,0.000,0.000,0,0,0,0,7,255,0,250,0,0,-2.809,45.408,18.410,-2.809,45.408,18.410
304954.799,-0.907,0.085,-0.380,0.158,83,98,53,70,41,0,44,26,0,0.000,0,0,78.664,2.390,17.920,-69.980,31.140,0.500,-0.080,0.791,-1.634,-1.744,-0.866,0.000,0.000,0.000,0.000,0,0,0,0,7,255,0,250,0,0,-2.756,45.766,18.608,-2.756,45.766,18.608
304959.801,-0.906,0.086,-0.382,0.160,58,58,58,39,36,1,64,21,0,0.000,0,0,67.952,2.415,27.140,-50.700,36.200,0.519,-0.103,0.785,-1.634,-1.778,-0.866,0.000,0.000,0.000,0.000,0,0,0,0,7,255,0,250,0,0,-2.717,46.028,18.851,-2.717,46.028,18.851
304964.800,-0.905,0.086,-0.383,0.162,75,93,51,43,35,0,39,17,0,0.000,0,0,62.098,2.406,33.060,-34.820,39.380,0.545,-0.121,0.771,-1.420,-1.942,-0.866,0.000,0.000,0.000,0.000,0,0,0,0,7,255,0,250,0,0,-2.686,46.211,19.122,-2.686,46.211,19.122
304969.799,-0.904,0.087,-0.384,0.164,50,75,89,62,24,12,72,53,0,0.000,0,0,58.406,2.294,35.680,-23.540,39.800,0.574,-0.127,0.764,-1.120,-2.002,-0.786,0.000,0.000,0.000,0.000,0,0,0,0,7,255,0,250,0,0,-2.662,46.338,19.402,-2.662,46.338,19.402
304974.799,-0.904,0.088,-0.385,0.166,74,69,58,72,19,0,42,53,0,0.000,0,0,53.412,2.186,33.300,-15.240,38.880,0.592,-0.127,0.771,-0.878,-2.002,-0.630,0.000,0.000,0.000,0.000,0,0,0,0,7,255,0,250,0,0,-2.626,46.422,19.679,-2.626,46.422,19.679
304979.799,-0.903,0.088,-0.385,0.168,85,98,54,71,17,0,46,44,0,0.000,0,0,43.860,2.146,23.960,-9.380,35.520,0.601,-0.111,0.753,-0.814,-1.986,-0.516,0.000,0.000,0.000,0.000,0,0,0,0,7,255,0,250,0,0,-2.550,46.468,19.938,-2.550,46.468,19.938
304984.799,-0.903,0.088,-0.385,0.169,60,93,87,37,31,0,62,20,0,0.000,0,0,31.804,1.901,12.000,-6.620,28.700,0.615,-0.081,0.720,-0.704,-1.766,-0.516,0.000,0.000,0.000,0.000,0,0,0,0,7,255,0,250,0,0,-2.443,46.493,20.150,-2.443,46.493,20.150
304989.799,-0.903,0.088,-0.385,0.170,71,69,97,61,30,0,53,55,0,0.000,0,0,23.262,1.485,1.680,-3.340,22.960,0.632,-0.091,0.719,-0.512,-1.394,-0.516,0.000,0.000,0.000,0.000,0,0,0,0,7,255,0,250,0,0,-2.305,46.497,20.326,-2.305,46.497,20.326
304994.799,-0.903,0.087,-0.385,0.171,48,69,77,40,40,2,72,43,0,0.000,0,0,21.662,1.405,-5.460,1.860,20.880,0.646,-0.073,0.716,-0.368,-1.356,-0.512,0.000,0.000,0.000,0.000,0,0,0,0,7,255,0,250,0,0,-2.144,46.476,20.486,-2.144,46.476,20.486
304999.799,-0.903,0.086,-0.385,0.171,69,90,57,44,37,0,42,13,0,0.000,0,0,22.449,1.212,-7.160,7.840,19.780,0.657,-0.068,0.713,-0.324,-1.168,-0.426,0.000,0.000,0.000,0.000,0,0,0,0,7,255,0,250,0,0,-1.981,46.427,20.640,-1.981,46.427,20.640
305004.801,-0.903,0.086,-0.384,0.172,57,63,85,43,35,0,57,45,0,0.000,0,0,24.279,1.166,-2.400,13.700,19.900,0.664,-0.078,0.718,-0.252,-1.138,-0.360,0.000,0.000,0.000,0.000,0,0,0,0,7,255,0,250,0,0,-1.840,46.349,20.795,-1.840,46.349,20.795
305009.799,-0.903,0.085,-0.384,0.173,93,95,61,71,17,0,43,44,0,0.000,0,0,27.939,1.166,4.800,19.740,19.180,0.661,-0.085,0.730,-0.252,-1.138,-0.282,0.000,0.000,0.000,0.000,0,0,0,0,7,255,0,250,0,0,-1.739,46.240,20.946,-1.739,46.240,20.946
305014.799,-0.903,0.085,-0.382,0.174,77,92,61,62,26,0,41,25,0,0.000,0,0,32.641,1.256,11.080,25.540,17.040,0.659,-0.093,0.734,-0.244,-1.232,-0.216,0.000,0.000,0.000,0.000,0,0,0,0,7,255,0,250,0,0,-1.683,46.103,21.081,-1.683,46.103,21.081
305019.799,-0.904,0.085,-0.381,0.175,53,66,68,40,33,0,64,20,0,0.000,0,0,37.182,1.329,15.900,30.780,13.500,0.658,-0.104,0.732,-0.244,-1.306,-0.216,0.000,0.000,0.000,0.000,0,0,0,0,7,255,0,250,0,0,-1.671,45.943,21.191,-1.671,45.943,21.191
305024.799,-0.904,0.085,-0.380,0.176,59,87,60,46,45,16,63,29,0,0.000,0,0,42.843,1.386,19.200,36.900,10.260,0.658,-0.103,0.733,-0.162,-1.376,-0.216,0.000,0.000,0.000,0.000,0,0,0,0,7,255,0,250,0,0,-1.697,45.755,21.276,-1.697,45.755,21.276
305029.799,-0.905,0.085,-0.378,0.177,80,87,54,49,39,8,45,20,0,0.000,0,0,51.065,1.386,19.820,46.220,8.860,0.647,-0.090,0.740,-0.162,-1.376,-0.226,0.000,0.000,0.000,0.000,0,0,0,0,7,255,0,250,0,0,-1.740,45.523,21.350,-1.740,45.523,21.350
305034.799,-0.906,0.086,-0.375,0.178,87,85,58,69,28,0,44,22,0,0.000,0,0,62.730,1.321,19.500,58.680,10.560,0.630,-0.077,0.748,-0.268,-1.294,-0.240,0.000,0.000,0.000,0.000,0,0,0,0,7,255,0,250,0,0,-1.775,45.232,21.438,-1.775,45.232,21.438
305039.799,-0.907,0.086,-0.372,0.179,84,91,55,63,27,0,36,53,0,0.000,0,0,77.841,1.293,19.680,73.700,15.500,0.607,-0.070,0.752,-0.422,-1.222,-0.300,0.000,0.000,0.000,0.000,0,0,0,0,7,255,0,250,0,0,-1.784,44.866,21.564,-1.784,44.866,21.564
305044.799,-0.908,0.085,-0.368,0.180,83,88,59,64,13,0,45,49,0,0.000,0,0,95.063,1.348,20.720,90.180,21.800,0.581,-0.070,0.756,-0.570,-1.222,-0.422,0.000,0.000,0.000,0.000,0,0,0,0,7,255,0,250,0,0,-1.765,44.419,21.737,-1.765,44.419,21.737
305049.799,-0.909,0.085,-0.364,0.182,69,58,84,61,24,0,43,53,0,0.000,0,0,112.645,1.437,23.160,107.080,26.200,0.564,-0.085,0.759,-0.680,-1.266,-0.568,0.000,0.000,0.000,0.000,0,0,0,0,7,255,0,250,0,0,-1.738,43.888,21.942,-1.738,43.888,21.942
305054.799,-0.911,0.084,-0.359,0.184,59,59,89,77,22,0,44,48,0,0.000,0,0,129.711,1.574,26.040,123.560,29.660,0.565,-0.099,0.762,-0.680,-1.420,-0.616,0.000,0.000,0.000,0.000,0,0,0,0,7,255,0,250,0,0,-1.709,43.276,22.172,-1.709,43.276,22.172
305059.799,-0.913,0.084,-0.354,0.186,58,93,73,35,37,4,63,24,0,0.000,0,0,145.250,1.603,27.440,138.760,33.020,0.571,-0.105,0.762,-0.544,-1.508,-0.616,0.000,0.000,0.000,0.000,0,0,0,0,7,255,0,250,0,0,-1.673,42.587,22.426,-1.673,42.587,22.426
305064.800,-0.915,0.083,-0.347,0.189,55,64,81,57,21,5,57,40,0,0.000,0,0,160.163,1.552,26.960,153.600,36.500,0.571,-0.106,0.766,-0.368,-1.508,-0.566,0.000,0.000,0.000,0.000,0,0,0,0,7,255,0,250,0,0,-1.622,41.825,22.702,-1.622,41.825,22.702
305069.799,-0.917,0.082,-0.341,0.191,89,83,57,69,28,10,37,37,0,0.000,0,0,173.938,1.503,24.820,167.380,40.280,0.565,-0.111,0.765,-0.274,-1.478,-0.556,0.000,0.000,0.000,0.000,0,0,0,0,7,255,0,250,0,0,-1.547,40.995,23.001,-1.547,40.995,23.001
305074.799,-0.919,0.081,-0.333,0.194,85,86,71,77,20,0,43,47,0,0.000,0,0,185.336,1.486,22.620,178.620,43.960,0.564,-0.122,0.768,-0.158,-1.478,-0.538,0.000,0.000,0.000,0.000,0,0,0,0,7,255,0,250,0,0,-1.452,40.108,23.321,-1.452,40.108,23.321
305079.799,-0.921,0.079,-0.326,0.197,53,67,87,46,22,0,68,47,0,0.000,0,0,194.826,1.514,20.060,188.020,46.940,0.563,-0.128,0.775,-0.008,-1.514,-0.538,0.000,0.000,0.000,0.000,0,0,0,0,7,255,0,250,0,0,-1.338,39.174,23.655,-1.338,39.174,23.655
305084.799,-0.924,0.078,-0.318,0.200,43,63,57,37,30,0,67,26,0,0.000,0,0,203.275,1.518,18.460,196.740,47.680,0.559,-0.132,0.781,0.112,-1.514,-0.478,0.000,0.000,0.000,0.000,0,0,0,0,7,255,0,250,0,0,-1.222,38.196,23.989,-1.222,38.196,23.989
305089.799,-0.926,0.076,-0.310,0.203,75,83,53,62,12,0,35,40,0,0.000,0,0,210.439,1.521,17.920,204.380,46.820,0.550,-0.129,0.793,0.212,-1.506,-0.444,0.000,0.000,0.000,0.000,0,0,0,0,7,255,0,250,0,0,-1.114,37.180,24.311,-1.114,37.180,24.311
305094.799,-0.928,0.074,-0.301,0.205,67,62,89,85,19,0,71,55,0,0.000,0,0,216.604,1.473,19.560,211.320,43.340,0.537,-0.125,0.802,0.224,-1.456,-0.398,0.000,0.000,0.000,0.000,0,0,0,0,7,255,0,250,0,0,-1.035,36.128,24.606,-1.035,36.128,24.606
305099.800,-0.931,0.073,-0.292,0.208,77,89,53,42,39,0,53,24,0,0.000,0,0,225.226,1.428,26.340,220.360,38.400,0.525,-0.118,0.806,0.228,-1.410,-0.398,0.000,0.000,0.000,0.000,0,0,0,0,7,255,0,250,0,0,-1.015,35.030,24.866,-1.015,35.030,24.866
305104.799,-0.933,0.072,-0.282,0.211,64,88,69,45,31,0,38,17,0,0.000,0,0,236.429,1.336,38.860,230.740,33.880,0.501,-0.110,0.827,0.228,-1.316,-0.398,0.000,0.000,0.000,0.000,0,0,0,0,7,255,0,250,0,0,-1.078,33.880,25.097,-1.078,33.880,25.097
305109.800,-0.936,0.071,-0.272,0.213,59,71,82,71,20,0,47,40,0,0.000,0,0,245.175,1.322,48.740,238.060,32.600,0.475,-0.116,0.868,0.128,-1.316,-0.378,0.000,0.000,0.000,0.000,0,0,0,0,7,255,0,250,0,0,-1.199,32.693,25.320,-1.199,32.693,25.320
305114.799,-0.938,0.071,-0.262,0.216,55,89,61,39,33,5,59,12,0,0.000,0,0,252.822,1.485,51.540,245.080,34.620,0.451,-0.130,0.912,-0.044,-1.484,-0.180,0.000,0.000,0.000,0.000,0,0,0,0,7,255,0,250,0,0,-1.331,31.472,25.556,-1.331,31.472,25.556
305119.799,-0.940,0.070,-0.251,0.219,85,89,55,83,11,0,43,42,0,0.000,0,0,263.408,1.734,44.040,256.440,41.020,0.409,-0.133,0.934,-0.164,-1.726,0.070,0.000,0.000,0.000,0.000,0,0,0,0,7,255,0,250,0,0,-1.410,30.196,25.830,-1.410,30.196,25.830
305124.799,-0.943,0.068,-0.240,0.222,53,62,84,67,19,0,56,49,0,0.000,0,0,277.336,1.897,31.340,270.840,50.780,0.369,-0.135,0.905,-0.310,-1.872,0.070,0.000,0.000,0.000,0.000,0,0,0,0,7,255,0,250,0,0,-1.403,28.849,26.160,-1.403,28.849,26.160
305129.799,-0.945,0.065,-0.228,0.226,53,73,74,41,33,0,71,13,0,0.000,0,0,292.183,1.897,21.760,285.240,59.460,0.349,-0.147,0.868,-0.310,-1.872,-0.340,0.000,0.000,0.000,0.000,0,0,0,0,7,255,0,250,0,0,-1.334,27.430,26.536,-1.334,27.430,26.536
305134.799,-0.947,0.063,-0.216,0.229,86,93,57,64,10,0,40,35,0,0.000,0,0,305.557,1.869,16.880,298.540,62.880,0.337,-0.154,0.849,-0.050,-1.868,-0.732,0.000,0.000,0.000,0.000,0,0,0,0,7,255,0,250,0,0,-1.243,25.946,26.925,-1.243,25.946,26.925
305139.799,-0.949,0.059,-0.203,0.233,78,105,51,67,31,2,43,22,0,0.000,0,0,314.679,1.823,14.860,308.560,59.940,0.335,-0.146,0.857,0.180,-1.814,-0.850,0.000,0.000,0.000,0.000,0,0,0,0,7,255,0,250,0,0,-1.161,24.410,27.292,-1.161,24.410,27.292
305144.799,-0.951,0.057,-0.190,0.236,73,73,80,59,35,0,50,43,0,0.000,0,0,317.453,1.671,18.600,312.900,50.240,0.342,-0.126,0.868,0.310,-1.642,-0.850,0.000,0.000,0.000,0.000,0,0,0,0,7,255,0,250,0,0,-1.130,22.851,27.600,-1.130,22.851,27.600
305149.799,-0.953,0.054,-0.177,0.238,91,85,50,63,29,10,40,23,0,0.000,0,0,311.516,1.427,26.960,308.000,38.100,0.362,-0.130,0.899,0.468,-1.348,-0.712,0.000,0.000,0.000,0.000,0,0,0,0,7,255,0,250,0,0,-1.174,21.316,27.839,-1.174,21.316,27.839
305154.799,-0.955,0.052,-0.164,0.240,55,70,77,45,38,0,61,18,0,0.000,0,0,298.429,1.463,36.420,295.000,26.620,0.380,-0.139,0.939,0.776,-1.240,-0.354,0.000,0.000,0.000,0.000,0,0,0,0,7,255,0,250,0,0,-1.294,19.844,28.015,-1.294,19.844,28.015
305159.801,-0.957,0.051,-0.152,0.242,83,101,59,53,37,0,41,18,0,0.000,0,0,282.995,1.644,43.300,279.140,17.100,0.376,-0.152,0.986,1.080,-1.240,0.064,0.000,0.000,0.000,0.000,0,0,0,0,7,255,0,250,0,0,-1.469,18.451,28.141,-1.469,18.451,28.141
305164.799,-0.958,0.050,-0.141,0.243,81,101,53,47,45,0,43,15,0,0.000,0,0,268.866,1.797,44.280,264.980,10.680,0.368,-0.167,1.001,1.210,-1.328,0.470,0.000,0.000,0.000,0.000,0,0,0,0,7,255,0,250,0,0,-1.661,17.129,28.235,-1.661,17.129,28.235
305169.800,-0.960,0.049,-0.130,0.244,51,54,83,58,25,0,81,40,0,0.000,0,0,256.667,2.003,40.440,253.380,6.420,0.376,-0.194,0.995,1.404,-1.428,0.500,0.000,0.000,0.000,0.000,0,0,0,0,7,255,0,250,0,0,-1.842,15.864,28.309,-1.842,15.864,28.309
305174.799,-0.961,0.048,-0.119,0.245,52,83,59,37,40,8,57,19,0,0.000,0,0,243.914,2.396,33.300,241.600,3.800,0.378,-0.207,0.993,1.840,-1.534,0.500,0.000,0.000,0.000,0.000,0,0,0,0,7,255,0,250,0,0,-1.992,14.657,28.371,-1.992,14.657,28.371
305179.799,-0.962,0.046,-0.110,0.246,59,63,88,64,22,0,57,47,0,0.000,0,0,230.109,2.628,23.540,228.900,0.860,0.365,-0.212,1.009,2.122,-1.550,0.500,0.000,0.000,0.000,0.000,0,0,0,0,7,255,0,250,0,0,-2.097,13.514,28.417,-2.097,13.514,28.417
305184.799,-0.963,0.045,-0.100,0.246,79,71,87,69,17,0,41,51,0,0.000,0,0,214.382,2.650,8.760,214.200,-1.160,0.327,-0.204,1.029,2.122,-1.588,0.542,0.000,0.000,0.000,0.000,0,0,0,0,7,255,0,250,0,0,-2.133,12.444,28.452,-2.133,12.444,28.452
305189.799,-0.964,0.042,-0.092,0.246,53,61,82,40,20,0,71,36,0,0.000,0,0,200.193,2.538,-9.120,199.980,-1.400,0.295,-0.179,1.037,1.980,-1.588,0.630,0.000,0.000,0.000,0.000,0,0,0,0,7,255,0,250,0,0,-2.081,11.445,28.482,-2.081,11.445,28.482
305194.799,-0.965,0.039,-0.084,0.247,51,58,97,36,37,0,67,27,0,0.000,0,0,194.176,2.279,-20.960,193.020,-2.860,0.259,-0.142,1.038,1.736,-1.476,0.630,0.000,0.000,0.000,0.000,0,0,0,0,7,255,0,250,0,0,-1.971,10.480,28.502,-1.971,10.480,28.502
305199.800,-0.965,0.036,-0.077,0.247,77,72,73,64,9,0,50,43,0,0.000,0,0,192.570,1.862,-26.880,190.640,-4.140,0.228,-0.120,1.031,1.400,-1.228,0.586,0.000,0.000,0.000,0.000,0,0,0,0,7,255,0,250,0,0,-1.835,9.527,28.514,-1.835,9.527,28.514
